{"businesses": [{"id": "aLsNHPwOmRIdWdYS6W9_Pw", "alias": "three-fold-noodles-and-dumpling-little-rock", "name": "Three Fold Noodles and Dumpling", "image_url": "https://s3-media2.fl.yelpcdn.com/bphoto/rzobX-vZkUgRCk1D7QcoPg/o.jpg", "is_closed": false, "url": "https://www.yelp.com/biz/three-fold-noodles-and-dumpling-little-rock?adjust_creative=vyhy616UjsMTA_hrWyg_5w&utm_campaign=yelp_api_v3&utm_medium=api_v3_business_search&utm_source=vyhy616UjsMTA_hrWyg_5w", "review_count": 642, "categories": [{"alias": "chinese", "title": "Chinese"}, {"alias": "noodles", "title": "Noodles"}], "rating": 4.5, "coordinates": {"latitude": 34.7426106, "longitude": -92.2712163}, "transactions": ["delivery"], "price": "$$", "location": {"address1": "611 South Main St", "address2": null, "address3": "", "city": "Little Rock", "zip_code": "72201", "country": "US", "state": "AR", "display_address": ["611 South Main St", "Little Rock, AR 72201"]}, "phone": "+15013721739", "display_phone": "(501) 372-1739", "distance": 7821.119469947199}, {"id": "45txizSCVUKxjOQYjG8lEw", "alias": "mr-chens-authentic-chinese-cooking-little-rock", "name": "Mr. Chen's Authentic Chinese Cooking", "image_url": "https://s3-media1.fl.yelpcdn.com/bphoto/5b7p9CIaDkDaUBLUveeEGg/o.jpg", "is_closed": false, "url": "https://www.yelp.com/biz/mr-chens-authentic-chinese-cooking-little-rock?adjust_creative=vyhy616UjsMTA_hrWyg_5w&utm_campaign=yelp_api_v3&utm_medium=api_v3_business_search&utm_source=vyhy616UjsMTA_hrWyg_5w", "review_count": 170, "categories": [{"alias": "chinese", "title": "Chinese"}, {"alias": "taiwanese", "title": "Taiwanese"}], "rating": 4.0, "coordinates": {"latitude": 34.7156636957477, "longitude": -92.3406374081969}, "transactions": ["delivery", "pickup"], "price": "$", "location": {"address1": "3901 S University Ave", "address2": "", "address3": "Oriental Supermarket", "city": "Little Rock", "zip_code": "72204", "country": "US", "state": "AR", "display_address": ["3901 S University Ave", "Oriental Supermarket", "Little Rock, AR 72204"]}, "phone": "+15015627900", "display_phone": "(501) 562-7900", "distance": 3900.752874165313}, {"id": "VAAaYB1KQWrBSK2c3gqe5Q", "alias": "zangna-thai-cuisine-little-rock", "name": "Zangna Thai Cuisine", "image_url": "https://s3-media3.fl.yelpcdn.com/bphoto/NrNLB0dV8Bk6RWUAUFm2KQ/o.jpg", "is_closed": false, "url": "https://www.yelp.com/biz/zangna-thai-cuisine-little-rock?adjust_creative=vyhy616UjsMTA_hrWyg_5w&utm_campaign=yelp_api_v3&utm_medium=api_v3_business_search&utm_source=vyhy616UjsMTA_hrWyg_5w", "review_count": 177, "categories": [{"alias": "thai", "title": "Thai"}], "rating": 4.0, "coordinates": {"latitude": 34.75753338882346, "longitude": -92.40645509507934}, "transactions": ["delivery", "pickup"], "price": "$$", "location": {"address1": "400 N Bowman Rd", "address2": "Ste 28", "address3": "", "city": "Little Rock", "zip_code": "72211", "country": "US", "state": "AR", "display_address": ["400 N Bowman Rd", "Ste 28", "Little Rock, AR 72211"]}, "phone": "+15012277785", "display_phone": "(501) 227-7785", "distance": 4674.154447030029}, {"id": "tQa_ClQ7eK3e0z7-sVgFhw", "alias": "kiyens-little-rock", "name": "Kiyens", "image_url": "https://s3-media4.fl.yelpcdn.com/bphoto/yykEGgFzltxaNE4NZNYi2g/o.jpg", "is_closed": false, "url": "https://www.yelp.com/biz/kiyens-little-rock?adjust_creative=vyhy616UjsMTA_hrWyg_5w&utm_campaign=yelp_api_v3&utm_medium=api_v3_business_search&utm_source=vyhy616UjsMTA_hrWyg_5w", "review_count": 148, "categories": [{"alias": "japanese", "title": "Japanese"}, {"alias": "asianfusion", "title": "Asian Fusion"}, {"alias": "sushi", "title": "Sushi Bars"}], "rating": 4.5, "coordinates": {"latitude": 34.7625766467656, "longitude": -92.4530709017135}, "transactions": ["delivery"], "price": "$$", "location": {"address1": "17200 Chenal Pkwy", "address2": null, "address3": "", "city": "Little Rock", "zip_code": "72223", "country": "US", "state": "AR", "display_address": ["17200 Chenal Pkwy", "Little Rock, AR 72223"]}, "phone": "+15018217272", "display_phone": "(501) 821-7272", "distance": 8959.832558682507}, {"id": "qCHeThqtBdKcNdIWGv6QCw", "alias": "pho-thanh-my-little-rock", "name": "Pho Thanh My", "image_url": "https://s3-media1.fl.yelpcdn.com/bphoto/YcGB2IzVDUOMnK8Pe0h58w/o.jpg", "is_closed": false, "url": "https://www.yelp.com/biz/pho-thanh-my-little-rock?adjust_creative=vyhy616UjsMTA_hrWyg_5w&utm_campaign=yelp_api_v3&utm_medium=api_v3_business_search&utm_source=vyhy616UjsMTA_hrWyg_5w", "review_count": 171, "categories": [{"alias": "vietnamese", "title": "Vietnamese"}], "rating": 3.5, "coordinates": {"latitude": 34.75651, "longitude": -92.39418}, "transactions": ["delivery"], "price": "$", "location": {"address1": "302 N Shackleford Rd", "address2": "", "address3": "", "city": "Little Rock", "zip_code": "72211", "country": "US", "state": "AR", "display_address": ["302 N Shackleford Rd", "Little Rock, AR 72211"]}, "phone": "+15013127498", "display_phone": "(501) 312-7498", "distance": 3570.8901779401212}, {"id": "iDlbL8OXwBf7GgjRxMq4DA", "alias": "chang-thai-and-asia-cuisine-sherwood-2", "name": "Chang Thai & Asia Cuisine", "image_url": "https://s3-media1.fl.yelpcdn.com/bphoto/vwfzeB4F4eot3We2Gic46w/o.jpg", "is_closed": false, "url": "https://www.yelp.com/biz/chang-thai-and-asia-cuisine-sherwood-2?adjust_creative=vyhy616UjsMTA_hrWyg_5w&utm_campaign=yelp_api_v3&utm_medium=api_v3_business_search&utm_source=vyhy616UjsMTA_hrWyg_5w", "review_count": 92, "categories": [{"alias": "thai", "title": "Thai"}], "rating": 4.0, "coordinates": {"latitude": 34.84491, "longitude": -92.23105}, "transactions": ["delivery"], "price": "$$", "location": {"address1": "9830 Hwy 107", "address2": "", "address3": "", "city": "Sherwood", "zip_code": "72120", "country": "US", "state": "AR", "display_address": ["9830 Hwy 107", "Sherwood, AR 72120"]}, "phone": "+15018354488", "display_phone": "(501) 835-4488", "distance": 15714.277241017438}, {"id": "8XUaRjX59R5Dpi6bxTgX-A", "alias": "tokyo-house-little-rock", "name": "Tokyo House", "image_url": "https://s3-media3.fl.yelpcdn.com/bphoto/Ke2_RXncjleX927FC4VbTg/o.jpg", "is_closed": false, "url": "https://www.yelp.com/biz/tokyo-house-little-rock?adjust_creative=vyhy616UjsMTA_hrWyg_5w&utm_campaign=yelp_api_v3&utm_medium=api_v3_business_search&utm_source=vyhy616UjsMTA_hrWyg_5w", "review_count": 196, "categories": [{"alias": "buffets", "title": "Buffets"}, {"alias": "chinese", "title": "Chinese"}, {"alias": "sushi", "title": "Sushi Bars"}], "rating": 4.0, "coordinates": {"latitude": 34.75547, "longitude": -92.396227}, "transactions": ["delivery"], "price": "$$", "location": {"address1": "11 Shackleford Dr", "address2": "", "address3": "", "city": "Little Rock", "zip_code": "72211", "country": "US", "state": "AR", "display_address": ["11 Shackleford Dr", "Little Rock, AR 72211"]}, "phone": "+15012194286", "display_phone": "(501) 219-4286", "distance": 3707.0763722639035}, {"id": "sp74Mr4GFM58Kc1droTezQ", "alias": "kamikaito-north-little-rock-2", "name": "KamiKaito", "image_url": "https://s3-media4.fl.yelpcdn.com/bphoto/gfwYhtBVux_mipg2G6rbTQ/o.jpg", "is_closed": false, "url": "https://www.yelp.com/biz/kamikaito-north-little-rock-2?adjust_creative=vyhy616UjsMTA_hrWyg_5w&utm_campaign=yelp_api_v3&utm_medium=api_v3_business_search&utm_source=vyhy616UjsMTA_hrWyg_5w", "review_count": 47, "categories": [{"alias": "japanese", "title": "Japanese"}, {"alias": "sushi", "title": "Sushi Bars"}], "rating": 4.5, "coordinates": {"latitude": 34.7587986800557, "longitude": -92.2680052823933}, "transactions": ["delivery"], "price": "$$$", "location": {"address1": "521 Main St", "address2": "", "address3": null, "city": "North Little Rock", "zip_code": "72114", "country": "US", "state": "AR", "display_address": ["521 Main St", "North Little Rock, AR 72114"]}, "phone": "+15018916172", "display_phone": "(501) 891-6172", "distance": 8176.1697922368285}, {"id": "qxpsTqMqCMqBXdf6IzpuvA", "alias": "mr-chengs-north-little-rock-9", "name": "Mr. Cheng's", "image_url": "https://s3-media2.fl.yelpcdn.com/bphoto/Efaruf9iYnTuyf0o6xWwBw/o.jpg", "is_closed": false, "url": "https://www.yelp.com/biz/mr-chengs-north-little-rock-9?adjust_creative=vyhy616UjsMTA_hrWyg_5w&utm_campaign=yelp_api_v3&utm_medium=api_v3_business_search&utm_source=vyhy616UjsMTA_hrWyg_5w", "review_count": 93, "categories": [{"alias": "chinese", "title": "Chinese"}, {"alias": "asianfusion", "title": "Asian Fusion"}, {"alias": "taiwanese", "title": "Taiwanese"}], "rating": 4.0, "coordinates": {"latitude": 34.7895272608015, "longitude": -92.2117666093847}, "transactions": ["delivery"], "price": "$$", "location": {"address1": "4629 E McCain Blvd", "address2": "", "address3": "", "city": "North Little Rock", "zip_code": "72117", "country": "US", "state": "AR", "display_address": ["4629 E McCain Blvd", "North Little Rock, AR 72117"]}, "phone": "+15019559988", "display_phone": "(501) 955-9988", "distance": 14001.607040230552}, {"id": "y2j9fOZa_1wXHZ5HIkRVug", "alias": "mr-huis-little-rock", "name": "Mr. Hui's", "image_url": "https://s3-media4.fl.yelpcdn.com/bphoto/CQF-HDHM5olMUdNt8gDDuA/o.jpg", "is_closed": false, "url": "https://www.yelp.com/biz/mr-huis-little-rock?adjust_creative=vyhy616UjsMTA_hrWyg_5w&utm_campaign=yelp_api_v3&utm_medium=api_v3_business_search&utm_source=vyhy616UjsMTA_hrWyg_5w", "review_count": 54, "categories": [{"alias": "chinese", "title": "Chinese"}, {"alias": "seafood", "title": "Seafood"}, {"alias": "noodles", "title": "Noodles"}], "rating": 4.0, "coordinates": {"latitude": 34.793131, "longitude": -92.402866}, "transactions": ["delivery"], "price": "$$", "location": {"address1": "11525 Cantrell Rd", "address2": "Ste 401", "address3": null, "city": "Little Rock", "zip_code": "72212", "country": "US", "state": "AR", "display_address": ["11525 Cantrell Rd", "Ste 401", "Little Rock, AR 72212"]}, "phone": "+15014786666", "display_phone": "(501) 478-6666", "distance": 6544.765575661711}, {"id": "tpbIRMIKYUh_I-DyvCQR6g", "alias": "pho-and-more-jacksonville", "name": "Pho And More", "image_url": "https://s3-media2.fl.yelpcdn.com/bphoto/o-O3p9EWaGfGNma3KKN2LQ/o.jpg", "is_closed": false, "url": "https://www.yelp.com/biz/pho-and-more-jacksonville?adjust_creative=vyhy616UjsMTA_hrWyg_5w&utm_campaign=yelp_api_v3&utm_medium=api_v3_business_search&utm_source=vyhy616UjsMTA_hrWyg_5w", "review_count": 64, "categories": [{"alias": "asianfusion", "title": "Asian Fusion"}], "rating": 4.5, "coordinates": {"latitude": 34.8660489642608, "longitude": -92.1200006712339}, "transactions": ["delivery"], "price": "$$", "location": {"address1": "123 S Jeff Davis Ave", "address2": "", "address3": "", "city": "Jacksonville", "zip_code": "72076", "country": "US", "state": "AR", "display_address": ["123 S Jeff Davis Ave", "Jacksonville, AR 72076"]}, "phone": "+15012411447", "display_phone": "(501) 241-1447", "distance": 25262.309436289313}, {"id": "8ZhCT-iRT_jpX0oqzBubfg", "alias": "mikes-cafe-little-rock", "name": "Mike's Cafe", "image_url": "https://s3-media4.fl.yelpcdn.com/bphoto/jECdJl8jNXIh86vi3WXz3A/o.jpg", "is_closed": false, "url": "https://www.yelp.com/biz/mikes-cafe-little-rock?adjust_creative=vyhy616UjsMTA_hrWyg_5w&utm_campaign=yelp_api_v3&utm_medium=api_v3_business_search&utm_source=vyhy616UjsMTA_hrWyg_5w", "review_count": 126, "categories": [{"alias": "vietnamese", "title": "Vietnamese"}, {"alias": "chinese", "title": "Chinese"}], "rating": 4.0, "coordinates": {"latitude": 34.71881, "longitude": -92.33495}, "transactions": ["delivery"], "price": "$$", "location": {"address1": "5501 Asher Ave", "address2": "", "address3": "", "city": "Little Rock", "zip_code": "72204", "country": "US", "state": "AR", "display_address": ["5501 Asher Ave", "Little Rock, AR 72204"]}, "phone": "+15015621515", "display_phone": "(501) 562-1515", "distance": 3820.985565073199}, {"id": "LSL4-C62jHtPwuXOf_AoBw", "alias": "kbird-little-rock", "name": "kBird", "image_url": "https://s3-media2.fl.yelpcdn.com/bphoto/faud-Hv3MLUl4_vwweYipQ/o.jpg", "is_closed": false, "url": "https://www.yelp.com/biz/kbird-little-rock?adjust_creative=vyhy616UjsMTA_hrWyg_5w&utm_campaign=yelp_api_v3&utm_medium=api_v3_business_search&utm_source=vyhy616UjsMTA_hrWyg_5w", "review_count": 93, "categories": [{"alias": "thai", "title": "Thai"}, {"alias": "noodles", "title": "Noodles"}, {"alias": "soup", "title": "Soup"}], "rating": 4.5, "coordinates": {"latitude": 34.75653, "longitude": -92.33356}, "transactions": ["delivery"], "price": "$$", "location": {"address1": "600 N Tyler St", "address2": "", "address3": "", "city": "Little Rock", "zip_code": "72205", "country": "US", "state": "AR", "display_address": ["600 N Tyler St", "Little Rock, AR 72205"]}, "phone": "+15013523549", "display_phone": "(501) 352-3549", "distance": 2294.4907383065206}, {"id": "MzEX0EyJkHYEZeWx4boQUA", "alias": "a-w-lins-asian-cuisine-little-rock", "name": "A.W. Lin's Asian Cuisine", "image_url": "https://s3-media2.fl.yelpcdn.com/bphoto/oUcX8OZCnEAb3c3M7qLWvg/o.jpg", "is_closed": false, "url": "https://www.yelp.com/biz/a-w-lins-asian-cuisine-little-rock?adjust_creative=vyhy616UjsMTA_hrWyg_5w&utm_campaign=yelp_api_v3&utm_medium=api_v3_business_search&utm_source=vyhy616UjsMTA_hrWyg_5w", "review_count": 87, "categories": [{"alias": "japanese", "title": "Japanese"}, {"alias": "chinese", "title": "Chinese"}, {"alias": "asianfusion", "title": "Asian Fusion"}], "rating": 3.5, "coordinates": {"latitude": 34.766858266673, "longitude": -92.4583464860916}, "transactions": ["delivery"], "price": "$$", "location": {"address1": "17717 Chenal Pkwy", "address2": "Ste H-101", "address3": "", "city": "Little Rock", "zip_code": "72223", "country": "US", "state": "AR", "display_address": ["17717 Chenal Pkwy", "Ste H-101", "Little Rock, AR 72223"]}, "phone": "+15018215398", "display_phone": "(501) 821-5398", "distance": 9526.405941967098}, {"id": "Ksk5dYedNl6oyYYqjuNsEw", "alias": "kemuri-little-rock", "name": "Kemuri", "image_url": "https://s3-media4.fl.yelpcdn.com/bphoto/n1KQSKZxnErSU6gnrWXAVw/o.jpg", "is_closed": false, "url": "https://www.yelp.com/biz/kemuri-little-rock?adjust_creative=vyhy616UjsMTA_hrWyg_5w&utm_campaign=yelp_api_v3&utm_medium=api_v3_business_search&utm_source=vyhy616UjsMTA_hrWyg_5w", "review_count": 208, "categories": [{"alias": "sushi", "title": "Sushi Bars"}, {"alias": "japanese", "title": "Japanese"}, {"alias": "seafood", "title": "Seafood"}], "rating": 4.5, "coordinates": {"latitude": 34.757112, "longitude": -92.322067}, "transactions": ["delivery", "pickup"], "price": "$$", "location": {"address1": "2601 Kavanaugh Blvd", "address2": "", "address3": "", "city": "Little Rock", "zip_code": "72205", "country": "US", "state": "AR", "display_address": ["2601 Kavanaugh Blvd", "Little Rock, AR 72205"]}, "phone": "+15016604100", "display_phone": "(501) 660-4100", "distance": 3303.7397313499855}, {"id": "MKqRDpPZj4UCQjBeHI0l_A", "alias": "fantastic-china-little-rock", "name": "Fantastic China", "image_url": "https://s3-media1.fl.yelpcdn.com/bphoto/v_cflgfhjEx3qLW4zqPxRw/o.jpg", "is_closed": false, "url": "https://www.yelp.com/biz/fantastic-china-little-rock?adjust_creative=vyhy616UjsMTA_hrWyg_5w&utm_campaign=yelp_api_v3&utm_medium=api_v3_business_search&utm_source=vyhy616UjsMTA_hrWyg_5w", "review_count": 77, "categories": [{"alias": "chinese", "title": "Chinese"}], "rating": 4.0, "coordinates": {"latitude": 34.76947, "longitude": -92.33963}, "transactions": ["delivery"], "price": "$$", "location": {"address1": "1900 N Grant St", "address2": "", "address3": "", "city": "Little Rock", "zip_code": "72207", "country": "US", "state": "AR", "display_address": ["1900 N Grant St", "Little Rock, AR 72207"]}, "phone": "+15016638999", "display_phone": "(501) 663-8999", "distance": 2825.2890585152663}, {"id": "8crxAnSwxA5BDtsmKw7OHQ", "alias": "pho-huyen-conway", "name": "Pho Huyen", "image_url": "https://s3-media2.fl.yelpcdn.com/bphoto/N92rffIGfBor8WfSTnc13g/o.jpg", "is_closed": false, "url": "https://www.yelp.com/biz/pho-huyen-conway?adjust_creative=vyhy616UjsMTA_hrWyg_5w&utm_campaign=yelp_api_v3&utm_medium=api_v3_business_search&utm_source=vyhy616UjsMTA_hrWyg_5w", "review_count": 24, "categories": [{"alias": "vietnamese", "title": "Vietnamese"}], "rating": 4.5, "coordinates": {"latitude": 35.06928, "longitude": -92.44476}, "transactions": [], "location": {"address1": "1600 Dave Ward Dr", "address2": "Ste 10", "address3": null, "city": "Conway", "zip_code": "72034", "country": "US", "state": "AR", "display_address": ["1600 Dave Ward Dr", "Ste 10", "Conway, AR 72034"]}, "phone": "+15015042449", "display_phone": "(501) 504-2449", "distance": 36598.088520892976}, {"id": "yL2ggQtX2Ojza07DOSR0vg", "alias": "aji-ramen-bar-little-rock", "name": "Aji Ramen Bar", "image_url": "https://s3-media2.fl.yelpcdn.com/bphoto/kA1bvx_tIOFBxguZa81MDw/o.jpg", "is_closed": false, "url": "https://www.yelp.com/biz/aji-ramen-bar-little-rock?adjust_creative=vyhy616UjsMTA_hrWyg_5w&utm_campaign=yelp_api_v3&utm_medium=api_v3_business_search&utm_source=vyhy616UjsMTA_hrWyg_5w", "review_count": 89, "categories": [{"alias": "ramen", "title": "Ramen"}], "rating": 4.0, "coordinates": {"latitude": 34.7552718119735, "longitude": -92.3929139971733}, "transactions": ["delivery"], "price": "$$", "location": {"address1": "301 N Shackleford Rd", "address2": "Ste F3", "address3": null, "city": "Little Rock", "zip_code": "72211", "country": "US", "state": "AR", "display_address": ["301 N Shackleford Rd", "Ste F3", "Little Rock, AR 72211"]}, "phone": "+15014148433", "display_phone": "(501) 414-8433", "distance": 3412.249594613575}, {"id": "7WRWrRjw0pVnqFaE6BDvGw", "alias": "asian-house-bryant", "name": "Asian House", "image_url": "https://s3-media3.fl.yelpcdn.com/bphoto/ArdK2niY7fnuPL6z3hz-Qg/o.jpg", "is_closed": false, "url": "https://www.yelp.com/biz/asian-house-bryant?adjust_creative=vyhy616UjsMTA_hrWyg_5w&utm_campaign=yelp_api_v3&utm_medium=api_v3_business_search&utm_source=vyhy616UjsMTA_hrWyg_5w", "review_count": 33, "categories": [{"alias": "asianfusion", "title": "Asian Fusion"}, {"alias": "chinese", "title": "Chinese"}, {"alias": "thai", "title": "Thai"}], "rating": 3.5, "coordinates": {"latitude": 34.62304, "longitude": -92.5015}, "transactions": ["delivery"], "price": "$$", "location": {"address1": "612 Office Park Dr", "address2": "Ste 3", "address3": null, "city": "Bryant", "zip_code": "72022", "country": "US", "state": "AR", "display_address": ["612 Office Park Dr", "Ste 3", "Bryant, AR 72022"]}, "phone": "+15019437598", "display_phone": "(501) 943-7598", "distance": 19207.84309864203}, {"id": "4fT1ZTaAZTwjuSh6Fbe0dQ", "alias": "bangkok-thai-cuisine-little-rock", "name": "Bangkok Thai Cuisine", "image_url": "https://s3-media2.fl.yelpcdn.com/bphoto/E9SVtmjygMCqZ7zKhZAffA/o.jpg", "is_closed": false, "url": "https://www.yelp.com/biz/bangkok-thai-cuisine-little-rock?adjust_creative=vyhy616UjsMTA_hrWyg_5w&utm_campaign=yelp_api_v3&utm_medium=api_v3_business_search&utm_source=vyhy616UjsMTA_hrWyg_5w", "review_count": 14, "categories": [{"alias": "thai", "title": "Thai"}], "rating": 3.0, "coordinates": {"latitude": 34.7476176, "longitude": -92.2666785}, "transactions": ["delivery"], "price": "$$", "location": {"address1": "400 President Clinton Ave", "address2": "", "address3": "River Market - Ottenheimer Hall", "city": "Little Rock", "zip_code": "72201", "country": "US", "state": "AR", "display_address": ["400 President Clinton Ave", "River Market - Ottenheimer Hall", "Little Rock, AR 72201"]}, "phone": "+15013745105", "display_phone": "(501) 374-5105", "distance": 8212.977317317398}, {"id": "fP71fkjsy5Bg8HH4w4L1TA", "alias": "fu-lin-restaurant-little-rock", "name": "Fu Lin Restaurant", "image_url": "https://s3-media2.fl.yelpcdn.com/bphoto/UdqWqfyVYYPk7EmqhQjFig/o.jpg", "is_closed": false, "url": "https://www.yelp.com/biz/fu-lin-restaurant-little-rock?adjust_creative=vyhy616UjsMTA_hrWyg_5w&utm_campaign=yelp_api_v3&utm_medium=api_v3_business_search&utm_source=vyhy616UjsMTA_hrWyg_5w", "review_count": 67, "categories": [{"alias": "chinese", "title": "Chinese"}, {"alias": "hotdogs", "title": "Fast Food"}], "rating": 3.5, "coordinates": {"latitude": 34.756004, "longitude": -92.406605}, "transactions": ["delivery", "pickup"], "price": "$", "location": {"address1": "200 N Bowman Rd", "address2": "", "address3": "", "city": "Little Rock", "zip_code": "72211", "country": "US", "state": "AR", "display_address": ["200 N Bowman Rd", "Little Rock, AR 72211"]}, "phone": "+15012258989", "display_phone": "(501) 225-8989", "distance": 4652.895157193303}, {"id": "7xL0EKpCkB83YBJNSWRcRw", "alias": "captain-express-hawaiian-bbq-and-sushi-maumelle", "name": "Captain Express Hawaiian BBQ & Sushi", "image_url": "https://s3-media1.fl.yelpcdn.com/bphoto/lqOEswjXDdBp4lehm38L_A/o.jpg", "is_closed": false, "url": "https://www.yelp.com/biz/captain-express-hawaiian-bbq-and-sushi-maumelle?adjust_creative=vyhy616UjsMTA_hrWyg_5w&utm_campaign=yelp_api_v3&utm_medium=api_v3_business_search&utm_source=vyhy616UjsMTA_hrWyg_5w", "review_count": 2, "categories": [{"alias": "hawaiian", "title": "Hawaiian"}, {"alias": "sushi", "title": "Sushi Bars"}, {"alias": "bbq", "title": "Barbeque"}], "rating": 4.0, "coordinates": {"latitude": 34.856111, "longitude": -92.403002}, "transactions": ["delivery"], "location": {"address1": "115 Carnahan Dr", "address2": "", "address3": null, "city": "Maumelle", "zip_code": "72113", "country": "US", "state": "AR", "display_address": ["115 Carnahan Dr", "Maumelle, AR 72113"]}, "phone": "+15017348220", "display_phone": "(501) 734-8220", "distance": 12728.774806312436}, {"id": "lJxNfRTxEXq88Wy59FIyAw", "alias": "aw-lins-little-rock", "name": "AW Lin's", "image_url": "https://s3-media1.fl.yelpcdn.com/bphoto/SVMfCDhefM4FznLgpTmifA/o.jpg", "is_closed": false, "url": "https://www.yelp.com/biz/aw-lins-little-rock?adjust_creative=vyhy616UjsMTA_hrWyg_5w&utm_campaign=yelp_api_v3&utm_medium=api_v3_business_search&utm_source=vyhy616UjsMTA_hrWyg_5w", "review_count": 5, "categories": [{"alias": "sushi", "title": "Sushi Bars"}, {"alias": "seafood", "title": "Seafood"}, {"alias": "asianfusion", "title": "Asian Fusion"}], "rating": 4.0, "coordinates": {"latitude": 34.745671, "longitude": -92.2704285755754}, "transactions": [], "location": {"address1": "309 Main St", "address2": "", "address3": null, "city": "Little Rock", "zip_code": "72201", "country": "US", "state": "AR", "display_address": ["309 Main St", "Little Rock, AR 72201"]}, "phone": "+15015390986", "display_phone": "(501) 539-0986", "distance": 7875.240725002525}, {"id": "DFEAcx9F97zNiROi2LHcHQ", "alias": "forbidden-garden-little-rock-2", "name": "Forbidden Garden", "image_url": "https://s3-media4.fl.yelpcdn.com/bphoto/3dnH9q2Wmtq4wjU3LM_MTg/o.jpg", "is_closed": false, "url": "https://www.yelp.com/biz/forbidden-garden-little-rock-2?adjust_creative=vyhy616UjsMTA_hrWyg_5w&utm_campaign=yelp_api_v3&utm_medium=api_v3_business_search&utm_source=vyhy616UjsMTA_hrWyg_5w", "review_count": 24, "categories": [{"alias": "cantonese", "title": "Cantonese"}], "rating": 3.5, "coordinates": {"latitude": 34.8022225266699, "longitude": -92.4381614423279}, "transactions": ["delivery"], "price": "$$", "location": {"address1": "14810 Cantrell Rd", "address2": "Ste 140", "address3": null, "city": "Little Rock", "zip_code": "72223", "country": "US", "state": "AR", "display_address": ["14810 Cantrell Rd", "Ste 140", "Little Rock, AR 72223"]}, "phone": "+15018688149", "display_phone": "(501) 868-8149", "distance": 9571.288535656933}, {"id": "eT116UQnCsBzeeOkqS_UWw", "alias": "mehfil-indo-pak-cuisine-little-rock", "name": "Mehfil Indo - Pak Cuisine", "image_url": "https://s3-media4.fl.yelpcdn.com/bphoto/MAI7bECUFNqkXr7ubDONWg/o.jpg", "is_closed": false, "url": "https://www.yelp.com/biz/mehfil-indo-pak-cuisine-little-rock?adjust_creative=vyhy616UjsMTA_hrWyg_5w&utm_campaign=yelp_api_v3&utm_medium=api_v3_business_search&utm_source=vyhy616UjsMTA_hrWyg_5w", "review_count": 29, "categories": [{"alias": "indpak", "title": "Indian"}, {"alias": "halal", "title": "Halal"}, {"alias": "pakistani", "title": "Pakistani"}], "rating": 4.5, "coordinates": {"latitude": 34.7709465349515, "longitude": -92.3914176598191}, "transactions": ["delivery"], "location": {"address1": "10700 N Rodney Parham Rd", "address2": "Ste B6", "address3": null, "city": "Little Rock", "zip_code": "72212", "country": "US", "state": "AR", "display_address": ["10700 N Rodney Parham Rd", "Ste B6", "Little Rock, AR 72212"]}, "phone": "+15019162728", "display_phone": "(501) 916-2728", "distance": 4065.409411587858}, {"id": "MsA6YWhQRFCycn0vsehmqQ", "alias": "chis-chinese-cuisine-little-rock-2", "name": "Chi's Chinese Cuisine", "image_url": "https://s3-media4.fl.yelpcdn.com/bphoto/JHL4Rcsa4pv5FcmpXF2Syg/o.jpg", "is_closed": false, "url": "https://www.yelp.com/biz/chis-chinese-cuisine-little-rock-2?adjust_creative=vyhy616UjsMTA_hrWyg_5w&utm_campaign=yelp_api_v3&utm_medium=api_v3_business_search&utm_source=vyhy616UjsMTA_hrWyg_5w", "review_count": 15, "categories": [{"alias": "szechuan", "title": "Szechuan"}], "rating": 3.0, "coordinates": {"latitude": 34.762523, "longitude": -92.453918}, "transactions": ["delivery"], "location": {"address1": "17200 Chenal Pkwy", "address2": "Ste B1", "address3": "", "city": "Little Rock", "zip_code": "72223", "country": "US", "state": "AR", "display_address": ["17200 Chenal Pkwy", "Ste B1", "Little Rock, AR 72223"]}, "phone": "+15018218000", "display_phone": "(501) 821-8000", "distance": 9034.941424500934}, {"id": "TqP-5wxwAnaHdvIuHdJNZw", "alias": "wasabi-little-rock-5", "name": "Wasabi", "image_url": "https://s3-media3.fl.yelpcdn.com/bphoto/d32UmpNOPT68hGq_e6wfjQ/o.jpg", "is_closed": false, "url": "https://www.yelp.com/biz/wasabi-little-rock-5?adjust_creative=vyhy616UjsMTA_hrWyg_5w&utm_campaign=yelp_api_v3&utm_medium=api_v3_business_search&utm_source=vyhy616UjsMTA_hrWyg_5w", "review_count": 89, "categories": [{"alias": "japanese", "title": "Japanese"}, {"alias": "sushi", "title": "Sushi Bars"}], "rating": 3.5, "coordinates": {"latitude": 34.7479497305791, "longitude": -92.270192}, "transactions": ["delivery", "pickup"], "price": "$$", "location": {"address1": "101 Main St", "address2": "", "address3": "", "city": "Little Rock", "zip_code": "72201", "country": "US", "state": "AR", "display_address": ["101 Main St", "Little Rock, AR 72201"]}, "phone": "+15013740777", "display_phone": "(501) 374-0777", "distance": 7891.739000532306}, {"id": "cIUCFlz8Y7T_2aeEHllcWQ", "alias": "ninja-sushi-little-rock", "name": "Ninja Sushi", "image_url": "https://s3-media3.fl.yelpcdn.com/bphoto/V42YoPVNp42JlM_trMD5mQ/o.jpg", "is_closed": false, "url": "https://www.yelp.com/biz/ninja-sushi-little-rock?adjust_creative=vyhy616UjsMTA_hrWyg_5w&utm_campaign=yelp_api_v3&utm_medium=api_v3_business_search&utm_source=vyhy616UjsMTA_hrWyg_5w", "review_count": 47, "categories": [{"alias": "sushi", "title": "Sushi Bars"}, {"alias": "japanese", "title": "Japanese"}, {"alias": "seafood", "title": "Seafood"}], "rating": 4.0, "coordinates": {"latitude": 34.80507, "longitude": -92.45905}, "transactions": ["delivery", "pickup"], "price": "$$", "location": {"address1": "5501 Ranch Dr", "address2": "Ste 1", "address3": "", "city": "Little Rock", "zip_code": "72223", "country": "US", "state": "AR", "display_address": ["5501 Ranch Dr", "Ste 1", "Little Rock, AR 72223"]}, "phone": "+15013678659", "display_phone": "(501) 367-8659", "distance": 11293.972482242376}, {"id": "SL_hKEKNSFgsMCT8NS__Gg", "alias": "asia-buffet-little-rock", "name": "Asia Buffet", "image_url": "https://s3-media3.fl.yelpcdn.com/bphoto/cO1QJsdu5oqkMih3-AUtfQ/o.jpg", "is_closed": false, "url": "https://www.yelp.com/biz/asia-buffet-little-rock?adjust_creative=vyhy616UjsMTA_hrWyg_5w&utm_campaign=yelp_api_v3&utm_medium=api_v3_business_search&utm_source=vyhy616UjsMTA_hrWyg_5w", "review_count": 23, "categories": [{"alias": "japanese", "title": "Japanese"}, {"alias": "buffets", "title": "Buffets"}, {"alias": "chinese", "title": "Chinese"}], "rating": 3.5, "coordinates": {"latitude": 34.7704879781607, "longitude": -92.3974925279617}, "transactions": ["delivery"], "price": "$$", "location": {"address1": "11121 N Rodney Parham Rd", "address2": "Ste 27B", "address3": null, "city": "Little Rock", "zip_code": "72212", "country": "US", "state": "AR", "display_address": ["11121 N Rodney Parham Rd", "Ste 27B", "Little Rock, AR 72212"]}, "phone": "+15015085999", "display_phone": "(501) 508-5999", "distance": 4484.856138398757}, {"id": "ZqwjDTNZdvGCJny4shYFuA", "alias": "pho-98-benton", "name": "Pho 98", "image_url": "https://s3-media3.fl.yelpcdn.com/bphoto/uL7y8LofUzMGMO_vUgiJnw/o.jpg", "is_closed": false, "url": "https://www.yelp.com/biz/pho-98-benton?adjust_creative=vyhy616UjsMTA_hrWyg_5w&utm_campaign=yelp_api_v3&utm_medium=api_v3_business_search&utm_source=vyhy616UjsMTA_hrWyg_5w", "review_count": 33, "categories": [{"alias": "vietnamese", "title": "Vietnamese"}, {"alias": "chinese", "title": "Chinese"}], "rating": 4.0, "coordinates": {"latitude": 34.56671, "longitude": -92.60157}, "transactions": ["delivery", "pickup"], "price": "$", "location": {"address1": "15904 I-30 Frontage Rd", "address2": null, "address3": "", "city": "Benton", "zip_code": "72019", "country": "US", "state": "AR", "display_address": ["15904 I-30 Frontage Rd", "Benton, AR 72019"]}, "phone": "+15013159068", "display_phone": "(501) 315-9068", "distance": 30249.7122423514}, {"id": "VczlPhedSngzcdkF--hb-A", "alias": "new-asian-super-buffet-maumelle", "name": "New Asian Super Buffet", "image_url": "https://s3-media4.fl.yelpcdn.com/bphoto/h6smTiNQHZ73bbvpuVjL3A/o.jpg", "is_closed": false, "url": "https://www.yelp.com/biz/new-asian-super-buffet-maumelle?adjust_creative=vyhy616UjsMTA_hrWyg_5w&utm_campaign=yelp_api_v3&utm_medium=api_v3_business_search&utm_source=vyhy616UjsMTA_hrWyg_5w", "review_count": 24, "categories": [{"alias": "chinese", "title": "Chinese"}, {"alias": "asianfusion", "title": "Asian Fusion"}], "rating": 3.0, "coordinates": {"latitude": 34.827136, "longitude": -92.389418}, "transactions": ["delivery"], "price": "$$", "location": {"address1": "11701 Maumelle Blvd", "address2": "", "address3": "", "city": "Maumelle", "zip_code": "72113", "country": "US", "state": "AR", "display_address": ["11701 Maumelle Blvd", "Maumelle, AR 72113"]}, "phone": "+15017539888", "display_phone": "(501) 753-9888", "distance": 9274.773560565587}, {"id": "CW-QtUjj0ePgd-lV6rabhA", "alias": "big-on-tokyo-little-rock", "name": "Big On Tokyo", "image_url": "https://s3-media4.fl.yelpcdn.com/bphoto/d2Wl2qp-7NBLl0ThCjSaeA/o.jpg", "is_closed": false, "url": "https://www.yelp.com/biz/big-on-tokyo-little-rock?adjust_creative=vyhy616UjsMTA_hrWyg_5w&utm_campaign=yelp_api_v3&utm_medium=api_v3_business_search&utm_source=vyhy616UjsMTA_hrWyg_5w", "review_count": 13, "categories": [{"alias": "japanese", "title": "Japanese"}], "rating": 2.5, "coordinates": {"latitude": 34.74771, "longitude": -92.2661399}, "transactions": ["delivery"], "price": "$", "location": {"address1": "400 President Clinton Ave", "address2": "", "address3": "", "city": "Little Rock", "zip_code": "72201", "country": "US", "state": "AR", "display_address": ["400 President Clinton Ave", "Little Rock, AR 72201"]}, "phone": "+15013756200", "display_phone": "(501) 375-6200", "distance": 8260.72473752206}, {"id": "RgZpL0-q09PpNzp6nqp8oA", "alias": "chicot-hibachi-express-north-little-rock", "name": "Chicot Hibachi Express", "image_url": "https://s3-media2.fl.yelpcdn.com/bphoto/_5ksHCkxNzcFps0kn9oLWA/o.jpg", "is_closed": false, "url": "https://www.yelp.com/biz/chicot-hibachi-express-north-little-rock?adjust_creative=vyhy616UjsMTA_hrWyg_5w&utm_campaign=yelp_api_v3&utm_medium=api_v3_business_search&utm_source=vyhy616UjsMTA_hrWyg_5w", "review_count": 14, "categories": [{"alias": "japanese", "title": "Japanese"}, {"alias": "sushi", "title": "Sushi Bars"}], "rating": 3.5, "coordinates": {"latitude": 34.82132, "longitude": -92.23348}, "transactions": [], "location": {"address1": "7412 N Hills Blvd", "address2": null, "address3": null, "city": "North Little Rock", "zip_code": "72116", "country": "US", "state": "AR", "display_address": ["7412 N Hills Blvd", "North Little Rock, AR 72116"]}, "phone": "+15018647510", "display_phone": "(501) 864-7510", "distance": 13880.747600781637}, {"id": "0JaNj1wcn9baHVXYHUkXRw", "alias": "naru-sushi-and-grill-cabot", "name": "Naru Sushi and Grill", "image_url": "https://s3-media4.fl.yelpcdn.com/bphoto/jHtY7eqlPF7DqBVwO-fEqQ/o.jpg", "is_closed": false, "url": "https://www.yelp.com/biz/naru-sushi-and-grill-cabot?adjust_creative=vyhy616UjsMTA_hrWyg_5w&utm_campaign=yelp_api_v3&utm_medium=api_v3_business_search&utm_source=vyhy616UjsMTA_hrWyg_5w", "review_count": 51, "categories": [{"alias": "sushi", "title": "Sushi Bars"}, {"alias": "japanese", "title": "Japanese"}], "rating": 4.0, "coordinates": {"latitude": 34.97549, "longitude": -92.02181}, "transactions": [], "price": "$$", "location": {"address1": "701 W Main St", "address2": "", "address3": "", "city": "Cabot", "zip_code": "72023", "country": "US", "state": "AR", "display_address": ["701 W Main St", "Cabot, AR 72023"]}, "phone": "+15018438898", "display_phone": "(501) 843-8898", "distance": 39648.72172070295}, {"id": "kaHTSX2iWB1tuPD2R0yUKQ", "alias": "chinese-pavilion-hunan-restaurant-sherwood", "name": "Chinese Pavilion Hunan Restaurant", "image_url": "https://s3-media1.fl.yelpcdn.com/bphoto/bLjGl71buiv2ndj8EMl9-Q/o.jpg", "is_closed": false, "url": "https://www.yelp.com/biz/chinese-pavilion-hunan-restaurant-sherwood?adjust_creative=vyhy616UjsMTA_hrWyg_5w&utm_campaign=yelp_api_v3&utm_medium=api_v3_business_search&utm_source=vyhy616UjsMTA_hrWyg_5w", "review_count": 20, "categories": [{"alias": "chinese", "title": "Chinese"}], "rating": 3.0, "coordinates": {"latitude": 34.828246, "longitude": -92.230259}, "transactions": ["delivery", "pickup"], "price": "$$", "location": {"address1": "8000 Hwy 107", "address2": "", "address3": "", "city": "Sherwood", "zip_code": "72120", "country": "US", "state": "AR", "display_address": ["8000 Hwy 107", "Sherwood, AR 72120"]}, "phone": "+15018358723", "display_phone": "(501) 835-8723", "distance": 14568.774029768918}, {"id": "aWOCFOihJbNwsNMZZa_PRA", "alias": "pei-wei-little-rock", "name": "Pei Wei", "image_url": "https://s3-media4.fl.yelpcdn.com/bphoto/nHiK4_mk57GIhWQEilab2A/o.jpg", "is_closed": false, "url": "https://www.yelp.com/biz/pei-wei-little-rock?adjust_creative=vyhy616UjsMTA_hrWyg_5w&utm_campaign=yelp_api_v3&utm_medium=api_v3_business_search&utm_source=vyhy616UjsMTA_hrWyg_5w", "review_count": 72, "categories": [{"alias": "chinese", "title": "Chinese"}, {"alias": "gluten_free", "title": "Gluten-Free"}, {"alias": "asianfusion", "title": "Asian Fusion"}], "rating": 3.5, "coordinates": {"latitude": 34.75439, "longitude": -92.34071}, "transactions": [], "price": "$", "location": {"address1": "205 N University Ave", "address2": "", "address3": "", "city": "Little Rock", "zip_code": "72205", "country": "US", "state": "AR", "display_address": ["205 N University Ave", "Little Rock, AR 72205"]}, "phone": "+15012809423", "display_phone": "(501) 280-9423", "distance": 1605.081727385247}, {"id": "bYcEVQdXwqxDnNUVAtIZ1g", "alias": "genghis-grill-little-rock-2", "name": "Genghis Grill", "image_url": "https://s3-media2.fl.yelpcdn.com/bphoto/_gPLfuN5Nkr-ZaG_qIySmA/o.jpg", "is_closed": false, "url": "https://www.yelp.com/biz/genghis-grill-little-rock-2?adjust_creative=vyhy616UjsMTA_hrWyg_5w&utm_campaign=yelp_api_v3&utm_medium=api_v3_business_search&utm_source=vyhy616UjsMTA_hrWyg_5w", "review_count": 76, "categories": [{"alias": "asianfusion", "title": "Asian Fusion"}, {"alias": "chinese", "title": "Chinese"}, {"alias": "mongolian", "title": "Mongolian"}], "rating": 2.0, "coordinates": {"latitude": 34.7526556, "longitude": -92.4125826}, "transactions": ["delivery"], "price": "$$", "location": {"address1": "12318 Chenal Pkwy", "address2": "", "address3": null, "city": "Little Rock", "zip_code": "72211", "country": "US", "state": "AR", "display_address": ["12318 Chenal Pkwy", "Little Rock, AR 72211"]}, "phone": "+15012232695", "display_phone": "(501) 223-2695", "distance": 5141.506485753409}, {"id": "VvSbqYXmYxNUpJjEAy_N3Q", "alias": "mt-fuji-japanese-restaurant-little-rock", "name": "Mt Fuji Japanese Restaurant", "image_url": "https://s3-media4.fl.yelpcdn.com/bphoto/fWrXSp-5SIGidxAUaBO-FQ/o.jpg", "is_closed": false, "url": "https://www.yelp.com/biz/mt-fuji-japanese-restaurant-little-rock?adjust_creative=vyhy616UjsMTA_hrWyg_5w&utm_campaign=yelp_api_v3&utm_medium=api_v3_business_search&utm_source=vyhy616UjsMTA_hrWyg_5w", "review_count": 49, "categories": [{"alias": "japanese", "title": "Japanese"}], "rating": 3.5, "coordinates": {"latitude": 34.766053, "longitude": -92.388958}, "transactions": ["delivery"], "price": "$$", "location": {"address1": "10301 N Rodney Parham Rd", "address2": "", "address3": "", "city": "Little Rock", "zip_code": "72227", "country": "US", "state": "AR", "display_address": ["10301 N Rodney Parham Rd", "Little Rock, AR 72227"]}, "phone": "+15012276498", "display_phone": "(501) 227-6498", "distance": 3562.660065786848}, {"id": "V0f94AHmZY7bSliKiA1Rzw", "alias": "the-hybrid-kitchen-maumelle", "name": "The Hybrid Kitchen", "image_url": "https://s3-media1.fl.yelpcdn.com/bphoto/0S9WdamDHG7qMK4WzVVEFg/o.jpg", "is_closed": false, "url": "https://www.yelp.com/biz/the-hybrid-kitchen-maumelle?adjust_creative=vyhy616UjsMTA_hrWyg_5w&utm_campaign=yelp_api_v3&utm_medium=api_v3_business_search&utm_source=vyhy616UjsMTA_hrWyg_5w", "review_count": 7, "categories": [{"alias": "asianfusion", "title": "Asian Fusion"}, {"alias": "ramen", "title": "Ramen"}, {"alias": "tacos", "title": "Tacos"}], "rating": 4.0, "coordinates": {"latitude": 34.828797, "longitude": -92.390892}, "transactions": ["delivery"], "location": {"address1": "13120 Crystal Hill Rd", "address2": "Ste I", "address3": "", "city": "Maumelle", "zip_code": "72113", "country": "US", "state": "AR", "display_address": ["13120 Crystal Hill Rd", "Ste I", "Maumelle, AR 72113"]}, "phone": "+15012717781", "display_phone": "(501) 271-7781", "distance": 9493.4017459855}, {"id": "0BLMcGVcYe6AiprWUG8z1A", "alias": "kirin-garden-north-little-rock", "name": "Kirin Garden", "image_url": "https://s3-media3.fl.yelpcdn.com/bphoto/8XCCIbrKDennKkXOO4ZPag/o.jpg", "is_closed": false, "url": "https://www.yelp.com/biz/kirin-garden-north-little-rock?adjust_creative=vyhy616UjsMTA_hrWyg_5w&utm_campaign=yelp_api_v3&utm_medium=api_v3_business_search&utm_source=vyhy616UjsMTA_hrWyg_5w", "review_count": 44, "categories": [{"alias": "sushi", "title": "Sushi Bars"}, {"alias": "buffets", "title": "Buffets"}, {"alias": "chinese", "title": "Chinese"}], "rating": 3.0, "coordinates": {"latitude": 34.788484, "longitude": -92.210834}, "transactions": ["delivery", "pickup"], "price": "$$", "location": {"address1": "4000 Vali Ct", "address2": "", "address3": "", "city": "North Little Rock", "zip_code": "72117", "country": "US", "state": "AR", "display_address": ["4000 Vali Ct", "North Little Rock, AR 72117"]}, "phone": "+15019554588", "display_phone": "(501) 955-4588", "distance": 14044.765738198581}, {"id": "jCI_YMFNqfsigqinCZWY-g", "alias": "banana-leaf-little-rock-2", "name": "Banana Leaf", "image_url": "https://s3-media1.fl.yelpcdn.com/bphoto/jOkaoHw8OLvzUFmcKNXX6w/o.jpg", "is_closed": false, "url": "https://www.yelp.com/biz/banana-leaf-little-rock-2?adjust_creative=vyhy616UjsMTA_hrWyg_5w&utm_campaign=yelp_api_v3&utm_medium=api_v3_business_search&utm_source=vyhy616UjsMTA_hrWyg_5w", "review_count": 19, "categories": [{"alias": "foodtrucks", "title": "Food Trucks"}, {"alias": "indpak", "title": "Indian"}], "rating": 4.5, "coordinates": {"latitude": 34.743953, "longitude": -92.275744}, "transactions": ["delivery"], "price": "$", "location": {"address1": "425 W Capitol Ave", "address2": "Ste 21", "address3": "", "city": "Little Rock", "zip_code": "72201", "country": "US", "state": "AR", "display_address": ["425 W Capitol Ave", "Ste 21", "Little Rock, AR 72201"]}, "phone": "+15012270860", "display_phone": "(501) 227-0860", "distance": 7399.759448397007}, {"id": "GVufW-VqhUjE5fryA2nbcg", "alias": "sumo-sushi-and-steak-bryant", "name": "Sumo Sushi and Steak", "image_url": "https://s3-media1.fl.yelpcdn.com/bphoto/__OM-QtncP7POaE4BYoZjA/o.jpg", "is_closed": false, "url": "https://www.yelp.com/biz/sumo-sushi-and-steak-bryant?adjust_creative=vyhy616UjsMTA_hrWyg_5w&utm_campaign=yelp_api_v3&utm_medium=api_v3_business_search&utm_source=vyhy616UjsMTA_hrWyg_5w", "review_count": 32, "categories": [{"alias": "japanese", "title": "Japanese"}, {"alias": "sushi", "title": "Sushi Bars"}, {"alias": "steak", "title": "Steakhouses"}], "rating": 3.5, "coordinates": {"latitude": 34.623505, "longitude": -92.503015}, "transactions": [], "price": "$$", "location": {"address1": "5311 Hwy 5 N", "address2": "Ste 250", "address3": null, "city": "Bryant", "zip_code": "72022", "country": "US", "state": "AR", "display_address": ["5311 Hwy 5 N", "Ste 250", "Bryant, AR 72022"]}, "phone": "+15019437798", "display_phone": "(501) 943-7798", "distance": 19276.38086536793}, {"id": "Na8iOKsZjLfsyluGyHgi3A", "alias": "sekisui-restaurant-little-rock-2", "name": "Sekisui Restaurant", "image_url": "https://s3-media2.fl.yelpcdn.com/bphoto/ult-1XOf3de3Kfm3klFvpw/o.jpg", "is_closed": false, "url": "https://www.yelp.com/biz/sekisui-restaurant-little-rock-2?adjust_creative=vyhy616UjsMTA_hrWyg_5w&utm_campaign=yelp_api_v3&utm_medium=api_v3_business_search&utm_source=vyhy616UjsMTA_hrWyg_5w", "review_count": 57, "categories": [{"alias": "sushi", "title": "Sushi Bars"}, {"alias": "japanese", "title": "Japanese"}, {"alias": "korean", "title": "Korean"}], "rating": 3.0, "coordinates": {"latitude": 34.802507, "longitude": -92.435449}, "transactions": ["delivery"], "price": "$$", "location": {"address1": "14524 Cantrell Rd", "address2": "Ste 110", "address3": "", "city": "Little Rock", "zip_code": "72223", "country": "US", "state": "AR", "display_address": ["14524 Cantrell Rd", "Ste 110", "Little Rock, AR 72223"]}, "phone": "+15012217070", "display_phone": "(501) 221-7070", "distance": 9392.657423946079}, {"id": "vDmRK_D_GbKo58D2SJoWdg", "alias": "north-bar-north-little-rock-2", "name": "North Bar", "image_url": "https://s3-media1.fl.yelpcdn.com/bphoto/kdHudNgwIojdqPu_3XVgVA/o.jpg", "is_closed": false, "url": "https://www.yelp.com/biz/north-bar-north-little-rock-2?adjust_creative=vyhy616UjsMTA_hrWyg_5w&utm_campaign=yelp_api_v3&utm_medium=api_v3_business_search&utm_source=vyhy616UjsMTA_hrWyg_5w", "review_count": 132, "categories": [{"alias": "tradamerican", "title": "American (Traditional)"}, {"alias": "bars", "title": "Bars"}], "rating": 4.5, "coordinates": {"latitude": 34.7906015, "longitude": -92.2595076}, "transactions": ["delivery"], "price": "$$", "location": {"address1": "3812 Jfk Blvd", "address2": null, "address3": "", "city": "North Little Rock", "zip_code": "72116", "country": "US", "state": "AR", "display_address": ["3812 Jfk Blvd", "North Little Rock, AR 72116"]}, "phone": "+15014201117", "display_phone": "(501) 420-1117", "distance": 10040.81166109142}, {"id": "xt_rvYH9KNA237S2GDEbfQ", "alias": "asian-grill-buffet-little-rock", "name": "Asian Grill Buffet", "image_url": "https://s3-media4.fl.yelpcdn.com/bphoto/JppohlR0y7733Ic7lJjnXg/o.jpg", "is_closed": false, "url": "https://www.yelp.com/biz/asian-grill-buffet-little-rock?adjust_creative=vyhy616UjsMTA_hrWyg_5w&utm_campaign=yelp_api_v3&utm_medium=api_v3_business_search&utm_source=vyhy616UjsMTA_hrWyg_5w", "review_count": 8, "categories": [{"alias": "chinese", "title": "Chinese"}, {"alias": "asianfusion", "title": "Asian Fusion"}, {"alias": "buffets", "title": "Buffets"}], "rating": 2.5, "coordinates": {"latitude": 34.6692237047039, "longitude": -92.3787150532007}, "transactions": ["delivery"], "price": "$", "location": {"address1": "10001 Mabelvale Plaza Dr", "address2": "", "address3": "", "city": "Little Rock", "zip_code": "72209", "country": "US", "state": "AR", "display_address": ["10001 Mabelvale Plaza Dr", "Little Rock, AR 72209"]}, "phone": "+15015699698", "display_phone": "(501) 569-9698", "distance": 9013.133979264161}, {"id": "IuwjQBO4qOT10NTSZyakrw", "alias": "lulus-little-rock-4", "name": "LuLu's", "image_url": "https://s3-media4.fl.yelpcdn.com/bphoto/DekG2Xgh0hKjFzpe5HmHvg/o.jpg", "is_closed": false, "url": "https://www.yelp.com/biz/lulus-little-rock-4?adjust_creative=vyhy616UjsMTA_hrWyg_5w&utm_campaign=yelp_api_v3&utm_medium=api_v3_business_search&utm_source=vyhy616UjsMTA_hrWyg_5w", "review_count": 67, "categories": [{"alias": "seafood", "title": "Seafood"}], "rating": 3.0, "coordinates": {"latitude": 34.7692860080249, "longitude": -92.3399637046937}, "transactions": ["delivery"], "price": "$$", "location": {"address1": "5911 R St", "address2": null, "address3": "", "city": "Little Rock", "zip_code": "72207", "country": "US", "state": "AR", "display_address": ["5911 R St", "Little Rock, AR 72207"]}, "phone": "+15016632388", "display_phone": "(501) 663-2388", "distance": 2791.604086931051}, {"id": "iknIUQAu6MGExcrGeWT8Mw", "alias": "panda-garden-restaurant-little-rock", "name": "Panda Garden Restaurant", "image_url": "https://s3-media2.fl.yelpcdn.com/bphoto/qDptdn-YxLwAksD8AQgJhQ/o.jpg", "is_closed": false, "url": "https://www.yelp.com/biz/panda-garden-restaurant-little-rock?adjust_creative=vyhy616UjsMTA_hrWyg_5w&utm_campaign=yelp_api_v3&utm_medium=api_v3_business_search&utm_source=vyhy616UjsMTA_hrWyg_5w", "review_count": 35, "categories": [{"alias": "sushi", "title": "Sushi Bars"}, {"alias": "asianfusion", "title": "Asian Fusion"}, {"alias": "buffets", "title": "Buffets"}], "rating": 3.5, "coordinates": {"latitude": 34.735688, "longitude": -92.39645}, "transactions": ["delivery"], "price": "$$", "location": {"address1": "2604 S Shackleford Rd", "address2": "Ste G", "address3": "", "city": "Little Rock", "zip_code": "72205", "country": "US", "state": "AR", "display_address": ["2604 S Shackleford Rd", "Ste G", "Little Rock, AR 72205"]}, "phone": "+15012248100", "display_phone": "(501) 224-8100", "distance": 3901.0785203430605}, {"id": "jEC4QPZmsqMs7s3-9kAwIg", "alias": "sushi-cafe-little-rock", "name": "Sushi Cafe", "image_url": "https://s3-media4.fl.yelpcdn.com/bphoto/eCsCDAd4JuCWybZOU1rJvQ/o.jpg", "is_closed": false, "url": "https://www.yelp.com/biz/sushi-cafe-little-rock?adjust_creative=vyhy616UjsMTA_hrWyg_5w&utm_campaign=yelp_api_v3&utm_medium=api_v3_business_search&utm_source=vyhy616UjsMTA_hrWyg_5w", "review_count": 127, "categories": [{"alias": "sushi", "title": "Sushi Bars"}, {"alias": "asianfusion", "title": "Asian Fusion"}], "rating": 3.5, "coordinates": {"latitude": 34.770084, "longitude": -92.339241}, "transactions": ["delivery"], "price": "$$", "location": {"address1": "5823 Kavanaugh Blvd", "address2": "", "address3": "", "city": "Little Rock", "zip_code": "72207", "country": "US", "state": "AR", "display_address": ["5823 Kavanaugh Blvd", "Little Rock, AR 72207"]}, "phone": "+15016639888", "display_phone": "(501) 663-9888", "distance": 2906.4644955764174}, {"id": "a-njMze-Sw2LH8nSOlQ7qg", "alias": "guss-world-famous-fried-chicken-little-rock", "name": "Gus's World Famous Fried Chicken", "image_url": "https://s3-media1.fl.yelpcdn.com/bphoto/Af0vB2dHhvwJd_Zn5RypxQ/o.jpg", "is_closed": false, "url": "https://www.yelp.com/biz/guss-world-famous-fried-chicken-little-rock?adjust_creative=vyhy616UjsMTA_hrWyg_5w&utm_campaign=yelp_api_v3&utm_medium=api_v3_business_search&utm_source=vyhy616UjsMTA_hrWyg_5w", "review_count": 422, "categories": [{"alias": "southern", "title": "Southern"}, {"alias": "chickenshop", "title": "Chicken Shop"}, {"alias": "comfortfood", "title": "Comfort Food"}], "rating": 4.0, "coordinates": {"latitude": 34.7477911412716, "longitude": -92.2677762061357}, "transactions": ["delivery"], "price": "$", "location": {"address1": "300 President Clinton Ave", "address2": "", "address3": "", "city": "Little Rock", "zip_code": "72201", "country": "US", "state": "AR", "display_address": ["300 President Clinton Ave", "Little Rock, AR 72201"]}, "phone": "+15013722211", "display_phone": "(501) 372-2211", "distance": 8130.513689590886}, {"id": "POqScc0om2BYRE8azmTgcw", "alias": "samurai-japanese-steakhouse-and-sushi-bar-little-rock", "name": "Samurai Japanese Steakhouse & Sushi Bar", "image_url": "https://s3-media4.fl.yelpcdn.com/bphoto/WqElayf69gU3KBlxsMM1Zg/o.jpg", "is_closed": false, "url": "https://www.yelp.com/biz/samurai-japanese-steakhouse-and-sushi-bar-little-rock?adjust_creative=vyhy616UjsMTA_hrWyg_5w&utm_campaign=yelp_api_v3&utm_medium=api_v3_business_search&utm_source=vyhy616UjsMTA_hrWyg_5w", "review_count": 46, "categories": [{"alias": "sushi", "title": "Sushi Bars"}, {"alias": "japanese", "title": "Japanese"}], "rating": 2.5, "coordinates": {"latitude": 34.7310791015625, "longitude": -92.3949203491211}, "transactions": ["delivery", "pickup"], "price": "$$", "location": {"address1": "2604 S Shackleford Rd", "address2": "", "address3": "", "city": "Little Rock", "zip_code": "72205", "country": "US", "state": "AR", "display_address": ["2604 S Shackleford Rd", "Little Rock, AR 72205"]}, "phone": "+15012245533", "display_phone": "(501) 224-5533", "distance": 3988.6994923390303}], "total": 81, "region": {"center": {"longitude": -92.3565673828125, "latitude": 34.748209649826}}}