{"businesses": [{"id": "8QXBznT6k51-VODq4a_GdQ", "alias": "nummy-west-hartford-3", "name": "Nummy", "image_url": "https://s3-media4.fl.yelpcdn.com/bphoto/hcpJXjX5SeITWmcllzX1vw/o.jpg", "is_closed": false, "url": "https://www.yelp.com/biz/nummy-west-hartford-3?adjust_creative=vyhy616UjsMTA_hrWyg_5w&utm_campaign=yelp_api_v3&utm_medium=api_v3_business_search&utm_source=vyhy616UjsMTA_hrWyg_5w", "review_count": 214, "categories": [{"alias": "asianfusion", "title": "Asian Fusion"}, {"alias": "noodles", "title": "Noodles"}, {"alias": "hotpot", "title": "Hot Pot"}], "rating": 4.5, "coordinates": {"latitude": 41.7327933579388, "longitude": -72.7350660653881}, "transactions": ["delivery", "pickup"], "price": "$$", "location": {"address1": "1160 New Britain Ave", "address2": "", "address3": null, "city": "West Hartford", "zip_code": "06110", "country": "US", "state": "CT", "display_address": ["1160 New Britain Ave", "West Hartford, CT 06110"]}, "phone": "+18608801985", "display_phone": "(860) 880-1985", "distance": 5133.35934765401}, {"id": "bsTIpsTkXgULCHRcll1UVw", "alias": "shu-restaurant-west-hartford", "name": "Shu Restaurant", "image_url": "https://s3-media3.fl.yelpcdn.com/bphoto/j1gX_1vcfGpQW231bnYRKA/o.jpg", "is_closed": false, "url": "https://www.yelp.com/biz/shu-restaurant-west-hartford?adjust_creative=vyhy616UjsMTA_hrWyg_5w&utm_campaign=yelp_api_v3&utm_medium=api_v3_business_search&utm_source=vyhy616UjsMTA_hrWyg_5w", "review_count": 322, "categories": [{"alias": "szechuan", "title": "Szechuan"}], "rating": 4.0, "coordinates": {"latitude": 41.7281249, "longitude": -72.722027}, "transactions": ["delivery"], "price": "$$", "location": {"address1": "156 Shield St", "address2": "", "address3": "", "city": "West Hartford", "zip_code": "06110", "country": "US", "state": "CT", "display_address": ["156 Shield St", "West Hartford, CT 06110"]}, "phone": "+18605191740", "display_phone": "(860) 519-1740", "distance": 4679.248686992286}, {"id": "uSwshoJPxPqS5D8YjYz6og", "alias": "feng-chophouse-hartford-5", "name": "Feng Chophouse", "image_url": "https://s3-media4.fl.yelpcdn.com/bphoto/-anlG25FjU47HjV1zLsGpA/o.jpg", "is_closed": false, "url": "https://www.yelp.com/biz/feng-chophouse-hartford-5?adjust_creative=vyhy616UjsMTA_hrWyg_5w&utm_campaign=yelp_api_v3&utm_medium=api_v3_business_search&utm_source=vyhy616UjsMTA_hrWyg_5w", "review_count": 84, "categories": [{"alias": "sushi", "title": "Sushi Bars"}, {"alias": "steak", "title": "Steakhouses"}, {"alias": "bars", "title": "Bars"}], "rating": 4.5, "coordinates": {"latitude": 41.76687, "longitude": -72.67507}, "transactions": [], "location": {"address1": "93 Asylum St", "address2": null, "address3": "", "city": "Hartford", "zip_code": "06103", "country": "US", "state": "CT", "display_address": ["93 Asylum St", "Hartford, CT 06103"]}, "phone": "+18605493364", "display_phone": "(860) 549-3364", "distance": 1127.958321267079}, {"id": "rq9_Sm4K_v2XZqBcofcoKQ", "alias": "song-restaurant-west-hartford-4", "name": "Song Restaurant", "image_url": "https://s3-media4.fl.yelpcdn.com/bphoto/gw1yD0bTFlQmZlBPmDb7zg/o.jpg", "is_closed": false, "url": "https://www.yelp.com/biz/song-restaurant-west-hartford-4?adjust_creative=vyhy616UjsMTA_hrWyg_5w&utm_campaign=yelp_api_v3&utm_medium=api_v3_business_search&utm_source=vyhy616UjsMTA_hrWyg_5w", "review_count": 148, "categories": [{"alias": "chinese", "title": "Chinese"}], "rating": 4.5, "coordinates": {"latitude": 41.7596941600872, "longitude": -72.7442708681844}, "transactions": ["delivery"], "price": "$$", "location": {"address1": "74 Lasalle Rd", "address2": "", "address3": "", "city": "West Hartford", "zip_code": "06107", "country": "US", "state": "CT", "display_address": ["74 Lasalle Rd", "West Hartford, CT 06107"]}, "phone": "+18605953099", "display_phone": "(860) 595-3099", "distance": 4913.920093842898}, {"id": "_rrnWRKElleTqReJB_2OZg", "alias": "angry-tofu-korean-cuisine-wethersfield-2", "name": "Angry Tofu Korean Cuisine", "image_url": "https://s3-media3.fl.yelpcdn.com/bphoto/R-T2sPDusL93F2nG2RHC-Q/o.jpg", "is_closed": false, "url": "https://www.yelp.com/biz/angry-tofu-korean-cuisine-wethersfield-2?adjust_creative=vyhy616UjsMTA_hrWyg_5w&utm_campaign=yelp_api_v3&utm_medium=api_v3_business_search&utm_source=vyhy616UjsMTA_hrWyg_5w", "review_count": 273, "categories": [{"alias": "korean", "title": "Korean"}], "rating": 4.5, "coordinates": {"latitude": 41.693144, "longitude": -72.65625}, "transactions": ["delivery"], "price": "$$", "location": {"address1": "1030 Silas Deane Hwy", "address2": "", "address3": "", "city": "Wethersfield", "zip_code": "06109", "country": "US", "state": "CT", "display_address": ["1030 Silas Deane Hwy", "Wethersfield, CT 06109"]}, "phone": "+18605131004", "display_phone": "(860) 513-1004", "distance": 7660.122158785024}, {"id": "gvyglSvpOqM3tO6BC8eP4A", "alias": "kien-company-hartford", "name": "Kien Company", "image_url": "https://s3-media2.fl.yelpcdn.com/bphoto/G63erva57YhN0XJyStMV5Q/o.jpg", "is_closed": false, "url": "https://www.yelp.com/biz/kien-company-hartford?adjust_creative=vyhy616UjsMTA_hrWyg_5w&utm_campaign=yelp_api_v3&utm_medium=api_v3_business_search&utm_source=vyhy616UjsMTA_hrWyg_5w", "review_count": 22, "categories": [{"alias": "grocery", "title": "Grocery"}, {"alias": "vietnamese", "title": "Vietnamese"}], "rating": 4.0, "coordinates": {"latitude": 41.7566754, "longitude": -72.7085408}, "transactions": [], "price": "$", "location": {"address1": "1801 Park St", "address2": "", "address3": "", "city": "Hartford", "zip_code": "06106", "country": "US", "state": "CT", "display_address": ["1801 Park St", "Hartford, CT 06106"]}, "phone": "+18602367952", "display_phone": "(860) 236-7952", "distance": 2001.1552617719824}, {"id": "3PSPUPScgBl_SvJZV3eb4A", "alias": "pho-501-east-hartford", "name": "Pho 501", "image_url": "https://s3-media3.fl.yelpcdn.com/bphoto/_2z2sajbXQ9hOzVF0HNIkQ/o.jpg", "is_closed": false, "url": "https://www.yelp.com/biz/pho-501-east-hartford?adjust_creative=vyhy616UjsMTA_hrWyg_5w&utm_campaign=yelp_api_v3&utm_medium=api_v3_business_search&utm_source=vyhy616UjsMTA_hrWyg_5w", "review_count": 404, "categories": [{"alias": "vietnamese", "title": "Vietnamese"}, {"alias": "soup", "title": "Soup"}, {"alias": "noodles", "title": "Noodles"}], "rating": 4.5, "coordinates": {"latitude": 41.757567, "longitude": -72.643853}, "transactions": ["delivery"], "price": "$", "location": {"address1": "501 Main St", "address2": "", "address3": "", "city": "East Hartford", "zip_code": "06118", "country": "US", "state": "CT", "display_address": ["501 Main St", "East Hartford, CT 06118"]}, "phone": "+18605693700", "display_phone": "(860) 569-3700", "distance": 3410.5726593663608}, {"id": "B_xKORFguTANxBkTfkJLpQ", "alias": "seoul-b-b-q-and-sushi-new-britain", "name": "Seoul B.B.Q. & Sushi", "image_url": "https://s3-media1.fl.yelpcdn.com/bphoto/APdFED5vZqE6tf0EGrtVAg/o.jpg", "is_closed": false, "url": "https://www.yelp.com/biz/seoul-b-b-q-and-sushi-new-britain?adjust_creative=vyhy616UjsMTA_hrWyg_5w&utm_campaign=yelp_api_v3&utm_medium=api_v3_business_search&utm_source=vyhy616UjsMTA_hrWyg_5w", "review_count": 424, "categories": [{"alias": "korean", "title": "Korean"}, {"alias": "sushi", "title": "Sushi Bars"}, {"alias": "bbq", "title": "Barbeque"}], "rating": 4.0, "coordinates": {"latitude": 41.7142466274279, "longitude": -72.7633081627413}, "transactions": ["delivery"], "price": "$$", "location": {"address1": "593 Hartford Rd", "address2": "", "address3": "", "city": "New Britain", "zip_code": "06053", "country": "US", "state": "CT", "display_address": ["593 Hartford Rd", "New Britain, CT 06053"]}, "phone": "+18602239114", "display_phone": "(860) 223-9114", "distance": 8246.237252507222}, {"id": "bmw_yzARp5ayzx3QTdHwnA", "alias": "king-and-i-thai-kitchen-hartford", "name": "King and I Thai Kitchen", "image_url": "https://s3-media1.fl.yelpcdn.com/bphoto/SD1eQbhRCYoSWf2msa2Qrw/o.jpg", "is_closed": false, "url": "https://www.yelp.com/biz/king-and-i-thai-kitchen-hartford?adjust_creative=vyhy616UjsMTA_hrWyg_5w&utm_campaign=yelp_api_v3&utm_medium=api_v3_business_search&utm_source=vyhy616UjsMTA_hrWyg_5w", "review_count": 206, "categories": [{"alias": "thai", "title": "Thai"}, {"alias": "noodles", "title": "Noodles"}], "rating": 4.0, "coordinates": {"latitude": 41.7562, "longitude": -72.71043}, "transactions": ["delivery", "pickup"], "price": "$$", "location": {"address1": "1901 Park St", "address2": "", "address3": "", "city": "Hartford", "zip_code": "06106", "country": "US", "state": "CT", "display_address": ["1901 Park St", "Hartford, CT 06106"]}, "phone": "+18602325471", "display_phone": "(860) 232-5471", "distance": 2160.5124120675855}, {"id": "Soj4FZuW73f2bci9kmYTEg", "alias": "fung-chinese-restaurant-hartford", "name": "Fung Chinese Restaurant", "image_url": "https://s3-media2.fl.yelpcdn.com/bphoto/QFeDep_bE9TTDX9UcoEX9A/o.jpg", "is_closed": false, "url": "https://www.yelp.com/biz/fung-chinese-restaurant-hartford?adjust_creative=vyhy616UjsMTA_hrWyg_5w&utm_campaign=yelp_api_v3&utm_medium=api_v3_business_search&utm_source=vyhy616UjsMTA_hrWyg_5w", "review_count": 15, "categories": [{"alias": "chinese", "title": "Chinese"}], "rating": 4.5, "coordinates": {"latitude": 41.7354952, "longitude": -72.6868501}, "transactions": ["delivery", "pickup"], "price": "$", "location": {"address1": "891 Maple Ave", "address2": null, "address3": null, "city": "Hartford", "zip_code": "06114", "country": "US", "state": "CT", "display_address": ["891 Maple Ave", "Hartford, CT 06114"]}, "phone": "+18609566888", "display_phone": "(860) 956-6888", "distance": 2732.6535624488697}, {"id": "hCxAn6OGzFENFCwBPMiUnA", "alias": "xian-noodle-factory-west-hartford", "name": "Xian Noodle Factory", "image_url": "https://s3-media1.fl.yelpcdn.com/bphoto/nbZhUlriVTAzpcm5X5Cofg/o.jpg", "is_closed": false, "url": "https://www.yelp.com/biz/xian-noodle-factory-west-hartford?adjust_creative=vyhy616UjsMTA_hrWyg_5w&utm_campaign=yelp_api_v3&utm_medium=api_v3_business_search&utm_source=vyhy616UjsMTA_hrWyg_5w", "review_count": 65, "categories": [{"alias": "chinese", "title": "Chinese"}, {"alias": "japanese", "title": "Japanese"}], "rating": 4.0, "coordinates": {"latitude": 41.74304, "longitude": -72.71585}, "transactions": ["pickup"], "price": "$", "location": {"address1": "450 New Park Ave", "address2": "", "address3": null, "city": "West Hartford", "zip_code": "06110", "country": "US", "state": "CT", "display_address": ["450 New Park Ave", "West Hartford, CT 06110"]}, "phone": "+18604223138", "display_phone": "(860) 422-3138", "distance": 3164.0298871718014}, {"id": "q-iJvgLibCw0GlHLpXBzVA", "alias": "kaliubon-ramen-wethersfield-6", "name": "Kaliubon Ramen", "image_url": "https://s3-media1.fl.yelpcdn.com/bphoto/osU_LfhyZrx0KuHanRBw6A/o.jpg", "is_closed": false, "url": "https://www.yelp.com/biz/kaliubon-ramen-wethersfield-6?adjust_creative=vyhy616UjsMTA_hrWyg_5w&utm_campaign=yelp_api_v3&utm_medium=api_v3_business_search&utm_source=vyhy616UjsMTA_hrWyg_5w", "review_count": 308, "categories": [{"alias": "ramen", "title": "Ramen"}, {"alias": "poke", "title": "Poke"}, {"alias": "bubbletea", "title": "Bubble Tea"}], "rating": 4.5, "coordinates": {"latitude": 41.68454, "longitude": -72.65564}, "transactions": ["delivery", "pickup"], "price": "$$", "location": {"address1": "1323 Silas Deane Hwy", "address2": null, "address3": "", "city": "Wethersfield", "zip_code": "06109", "country": "US", "state": "CT", "display_address": ["1323 Silas Deane Hwy", "Wethersfield, CT 06109"]}, "phone": "+19592304533", "display_phone": "(959) 230-4533", "distance": 8714.599989804716}, {"id": "5RihfWYJzo8kV5axwgbvcQ", "alias": "black-bamboo-chinese-restaurant-west-hartford", "name": "Black Bamboo Chinese Restaurant", "image_url": "https://s3-media4.fl.yelpcdn.com/bphoto/9bwHNhBhe6eWEtAkNQPi1g/o.jpg", "is_closed": false, "url": "https://www.yelp.com/biz/black-bamboo-chinese-restaurant-west-hartford?adjust_creative=vyhy616UjsMTA_hrWyg_5w&utm_campaign=yelp_api_v3&utm_medium=api_v3_business_search&utm_source=vyhy616UjsMTA_hrWyg_5w", "review_count": 457, "categories": [{"alias": "chinese", "title": "Chinese"}, {"alias": "asianfusion", "title": "Asian Fusion"}], "rating": 4.0, "coordinates": {"latitude": 41.764425, "longitude": -72.732309}, "transactions": ["delivery"], "price": "$$", "location": {"address1": "844 Farmington Ave", "address2": "", "address3": "", "city": "West Hartford", "zip_code": "06119", "country": "US", "state": "CT", "display_address": ["844 Farmington Ave", "West Hartford, CT 06119"]}, "phone": "+18602368888", "display_phone": "(860) 236-8888", "distance": 3969.2943682416244}, {"id": "xFaVVfBOzv0vrxwrbbh26A", "alias": "ichiban-japanese-and-korean-restaurant-hartford", "name": "Ichiban Japanese & Korean Restaurant", "image_url": "https://s3-media2.fl.yelpcdn.com/bphoto/HBLOTYI0RNEwK4M2szqPGg/o.jpg", "is_closed": false, "url": "https://www.yelp.com/biz/ichiban-japanese-and-korean-restaurant-hartford?adjust_creative=vyhy616UjsMTA_hrWyg_5w&utm_campaign=yelp_api_v3&utm_medium=api_v3_business_search&utm_source=vyhy616UjsMTA_hrWyg_5w", "review_count": 173, "categories": [{"alias": "japanese", "title": "Japanese"}, {"alias": "korean", "title": "Korean"}], "rating": 3.5, "coordinates": {"latitude": 41.7666611495948, "longitude": -72.7097715396627}, "transactions": ["delivery", "pickup"], "price": "$$", "location": {"address1": "530 Farmington Ave", "address2": "", "address3": "", "city": "Hartford", "zip_code": "06105", "country": "US", "state": "CT", "display_address": ["530 Farmington Ave", "Hartford, CT 06105"]}, "phone": "+18602365599", "display_phone": "(860) 236-5599", "distance": 2203.41117594049}, {"id": "cqSbqOFNSxTsuzGBn6yvXQ", "alias": "han-restaurant-hartford", "name": "Han Restaurant", "image_url": "https://s3-media1.fl.yelpcdn.com/bphoto/Mz5VgzDuY7pt33PgccaM2w/o.jpg", "is_closed": false, "url": "https://www.yelp.com/biz/han-restaurant-hartford?adjust_creative=vyhy616UjsMTA_hrWyg_5w&utm_campaign=yelp_api_v3&utm_medium=api_v3_business_search&utm_source=vyhy616UjsMTA_hrWyg_5w", "review_count": 164, "categories": [{"alias": "hotpot", "title": "Hot Pot"}, {"alias": "szechuan", "title": "Szechuan"}, {"alias": "seafood", "title": "Seafood"}], "rating": 4.0, "coordinates": {"latitude": 41.75547, "longitude": -72.71413}, "transactions": ["delivery"], "price": "$$", "location": {"address1": "310 Prospect Ave", "address2": "", "address3": null, "city": "Hartford", "zip_code": "06106", "country": "US", "state": "CT", "display_address": ["310 Prospect Ave", "Hartford, CT 06106"]}, "phone": "+18602165726", "display_phone": "(860) 216-5726", "distance": 2494.911856101172}, {"id": "HZeIv9oxmI25RTT76kf_ww", "alias": "ginza-japanese-cuisine-wethersfield-3", "name": "Ginza Japanese Cuisine", "image_url": "https://s3-media4.fl.yelpcdn.com/bphoto/1g8kDWvREg2WpcoueVh5qQ/o.jpg", "is_closed": false, "url": "https://www.yelp.com/biz/ginza-japanese-cuisine-wethersfield-3?adjust_creative=vyhy616UjsMTA_hrWyg_5w&utm_campaign=yelp_api_v3&utm_medium=api_v3_business_search&utm_source=vyhy616UjsMTA_hrWyg_5w", "review_count": 325, "categories": [{"alias": "japanese", "title": "Japanese"}, {"alias": "sushi", "title": "Sushi Bars"}, {"alias": "soup", "title": "Soup"}], "rating": 4.5, "coordinates": {"latitude": 41.685217, "longitude": -72.656186}, "transactions": ["delivery", "pickup"], "price": "$$", "location": {"address1": "1295 Silas Deane Hwy", "address2": "", "address3": "", "city": "Wethersfield", "zip_code": "06109", "country": "US", "state": "CT", "display_address": ["1295 Silas Deane Hwy", "Wethersfield, CT 06109"]}, "phone": "+18605638855", "display_phone": "(860) 563-8855", "distance": 8625.44287916444}, {"id": "Edw0Y6aM8bSbZCOtfkL8_g", "alias": "banh-meee-hartford", "name": "Banh Meee", "image_url": "https://s3-media4.fl.yelpcdn.com/bphoto/07OzB4mXRS3Q41-ei_5ZJQ/o.jpg", "is_closed": false, "url": "https://www.yelp.com/biz/banh-meee-hartford?adjust_creative=vyhy616UjsMTA_hrWyg_5w&utm_campaign=yelp_api_v3&utm_medium=api_v3_business_search&utm_source=vyhy616UjsMTA_hrWyg_5w", "review_count": 98, "categories": [{"alias": "vietnamese", "title": "Vietnamese"}, {"alias": "bubbletea", "title": "Bubble Tea"}, {"alias": "noodles", "title": "Noodles"}], "rating": 4.5, "coordinates": {"latitude": 41.767132, "longitude": -72.6779423}, "transactions": ["delivery", "pickup"], "price": "$", "location": {"address1": "126 Ann Uccello St", "address2": null, "address3": "", "city": "Hartford", "zip_code": "06106", "country": "US", "state": "CT", "display_address": ["126 Ann Uccello St", "Hartford, CT 06106"]}, "phone": "+18608802264", "display_phone": "(860) 880-2264", "distance": 999.0612590164941}, {"id": "Orr9dguQNr5U7TYTy9saCw", "alias": "sala-thai-street-food-bloomfield", "name": "Sala Thai Street Food", "image_url": "https://s3-media4.fl.yelpcdn.com/bphoto/G4vXoaeL_CueXGNe6MAV0A/o.jpg", "is_closed": false, "url": "https://www.yelp.com/biz/sala-thai-street-food-bloomfield?adjust_creative=vyhy616UjsMTA_hrWyg_5w&utm_campaign=yelp_api_v3&utm_medium=api_v3_business_search&utm_source=vyhy616UjsMTA_hrWyg_5w", "review_count": 82, "categories": [{"alias": "thai", "title": "Thai"}], "rating": 4.5, "coordinates": {"latitude": 41.83176, "longitude": -72.73959}, "transactions": ["delivery", "pickup"], "price": "$$", "location": {"address1": "12E Mountain Ave", "address2": null, "address3": "", "city": "Bloomfield", "zip_code": "06002", "country": "US", "state": "CT", "display_address": ["12E Mountain Ave", "Bloomfield, CT 06002"]}, "phone": "+18602067128", "display_phone": "(860) 206-7128", "distance": 9234.371052199}, {"id": "4h5yVgQp6nIeEzwKgssd1w", "alias": "saigon-kitchen-hartford", "name": "Saigon Kitchen", "image_url": "https://s3-media3.fl.yelpcdn.com/bphoto/z-rHNHYVyymx9ITIK0Wc7g/o.jpg", "is_closed": false, "url": "https://www.yelp.com/biz/saigon-kitchen-hartford?adjust_creative=vyhy616UjsMTA_hrWyg_5w&utm_campaign=yelp_api_v3&utm_medium=api_v3_business_search&utm_source=vyhy616UjsMTA_hrWyg_5w", "review_count": 67, "categories": [{"alias": "chinese", "title": "Chinese"}], "rating": 3.5, "coordinates": {"latitude": 41.7677377, "longitude": -72.672572}, "transactions": ["delivery"], "price": "$", "location": {"address1": "40 Temple St", "address2": "", "address3": "", "city": "Hartford", "zip_code": "06103", "country": "US", "state": "CT", "display_address": ["40 Temple St", "Hartford, CT 06103"]}, "phone": "+18602442511", "display_phone": "(860) 244-2511", "distance": 1369.6404216991787}, {"id": "EPgQ2kNPRq7nkeFgN-TdgA", "alias": "pho-saigon-west-hartford-2", "name": "Pho Saigon", "image_url": "https://s3-media3.fl.yelpcdn.com/bphoto/pY-eXKx61ZpGHAh38GJy0Q/o.jpg", "is_closed": false, "url": "https://www.yelp.com/biz/pho-saigon-west-hartford-2?adjust_creative=vyhy616UjsMTA_hrWyg_5w&utm_campaign=yelp_api_v3&utm_medium=api_v3_business_search&utm_source=vyhy616UjsMTA_hrWyg_5w", "review_count": 153, "categories": [{"alias": "vietnamese", "title": "Vietnamese"}], "rating": 4.0, "coordinates": {"latitude": 41.7301371, "longitude": -72.720835}, "transactions": ["delivery"], "price": "$$", "location": {"address1": "989 New Britain Ave", "address2": "", "address3": "", "city": "West Hartford", "zip_code": "06110", "country": "US", "state": "CT", "display_address": ["989 New Britain Ave", "West Hartford, CT 06110"]}, "phone": "+18609531122", "display_phone": "(860) 953-1122", "distance": 4443.964501404203}, {"id": "qCnEipnlST2DJ0Oonk4nQw", "alias": "prai-kitchen-west-hartford", "name": "Prai Kitchen", "image_url": "https://s3-media3.fl.yelpcdn.com/bphoto/4wFLVvfoCCXgftGk89-czw/o.jpg", "is_closed": false, "url": "https://www.yelp.com/biz/prai-kitchen-west-hartford?adjust_creative=vyhy616UjsMTA_hrWyg_5w&utm_campaign=yelp_api_v3&utm_medium=api_v3_business_search&utm_source=vyhy616UjsMTA_hrWyg_5w", "review_count": 80, "categories": [{"alias": "salad", "title": "Salad"}, {"alias": "soup", "title": "Soup"}, {"alias": "thai", "title": "Thai"}], "rating": 4.5, "coordinates": {"latitude": 41.7606126119656, "longitude": -72.7446329860951}, "transactions": ["delivery", "pickup"], "price": "$$", "location": {"address1": "23 LaSalle Rd", "address2": "", "address3": null, "city": "West Hartford", "zip_code": "06107", "country": "US", "state": "CT", "display_address": ["23 LaSalle Rd", "West Hartford, CT 06107"]}, "phone": "+18602321817", "display_phone": "(860) 232-1817", "distance": 4978.026339631372}, {"id": "4NJNpR_z9-UXjKZnAT8jvg", "alias": "pick-and-mix-west-hartford", "name": "Pick & Mix", "image_url": "https://s3-media2.fl.yelpcdn.com/bphoto/ZPcMo7DaR2FeptPoBlFzLw/o.jpg", "is_closed": false, "url": "https://www.yelp.com/biz/pick-and-mix-west-hartford?adjust_creative=vyhy616UjsMTA_hrWyg_5w&utm_campaign=yelp_api_v3&utm_medium=api_v3_business_search&utm_source=vyhy616UjsMTA_hrWyg_5w", "review_count": 273, "categories": [{"alias": "korean", "title": "Korean"}, {"alias": "hotdogs", "title": "Fast Food"}], "rating": 4.5, "coordinates": {"latitude": 41.7552, "longitude": -72.76613}, "transactions": ["delivery", "pickup"], "price": "$", "location": {"address1": "1234 Farmington Ave", "address2": "", "address3": "", "city": "West Hartford", "zip_code": "06107", "country": "US", "state": "CT", "display_address": ["1234 Farmington Ave", "West Hartford, CT 06107"]}, "phone": "+18605211521", "display_phone": "(860) 521-1521", "distance": 6768.423433186192}, {"id": "Bzog72H9Kk2cDqt-HM2ShQ", "alias": "pho-boston-west-hartford", "name": "Pho Boston", "image_url": "https://s3-media4.fl.yelpcdn.com/bphoto/xCLqXthcbwu87vBAKDA5RQ/o.jpg", "is_closed": false, "url": "https://www.yelp.com/biz/pho-boston-west-hartford?adjust_creative=vyhy616UjsMTA_hrWyg_5w&utm_campaign=yelp_api_v3&utm_medium=api_v3_business_search&utm_source=vyhy616UjsMTA_hrWyg_5w", "review_count": 473, "categories": [{"alias": "vietnamese", "title": "Vietnamese"}, {"alias": "chinese", "title": "Chinese"}, {"alias": "hotpot", "title": "Hot Pot"}], "rating": 4.0, "coordinates": {"latitude": 41.72806, "longitude": -72.721479}, "transactions": ["delivery"], "price": "$$", "location": {"address1": "144 Shield St", "address2": "", "address3": "", "city": "West Hartford", "zip_code": "06110", "country": "US", "state": "CT", "display_address": ["144 Shield St", "West Hartford, CT 06110"]}, "phone": "+18609538678", "display_phone": "(860) 953-8678", "distance": 4654.879754594928}, {"id": "-wlsdWwOfFHwcaJSKgTLyQ", "alias": "thai-food-on-wheels-hartford", "name": "Thai Food On Wheels", "image_url": "https://s3-media4.fl.yelpcdn.com/bphoto/O7awMbnuRf0z9pFusxKNTQ/o.jpg", "is_closed": false, "url": "https://www.yelp.com/biz/thai-food-on-wheels-hartford?adjust_creative=vyhy616UjsMTA_hrWyg_5w&utm_campaign=yelp_api_v3&utm_medium=api_v3_business_search&utm_source=vyhy616UjsMTA_hrWyg_5w", "review_count": 9, "categories": [{"alias": "foodtrucks", "title": "Food Trucks"}, {"alias": "thai", "title": "Thai"}], "rating": 5.0, "coordinates": {"latitude": 41.7633313, "longitude": -72.6775885}, "transactions": ["delivery"], "price": "$", "location": {"address1": "74-88 Elm St", "address2": "", "address3": "", "city": "Hartford", "zip_code": "06103", "country": "US", "state": "CT", "display_address": ["74-88 Elm St", "Hartford, CT 06103"]}, "phone": "", "display_phone": "", "distance": 715.443104820185}, {"id": "pDF9Hr1wNw8lQFTGO6tXYw", "alias": "vn-pho-hartford", "name": "VN Pho", "image_url": "https://s3-media3.fl.yelpcdn.com/bphoto/cArkORcjpOOMLzPDUA5Urw/o.jpg", "is_closed": false, "url": "https://www.yelp.com/biz/vn-pho-hartford?adjust_creative=vyhy616UjsMTA_hrWyg_5w&utm_campaign=yelp_api_v3&utm_medium=api_v3_business_search&utm_source=vyhy616UjsMTA_hrWyg_5w", "review_count": 16, "categories": [{"alias": "vietnamese", "title": "Vietnamese"}, {"alias": "bubbletea", "title": "Bubble Tea"}, {"alias": "bbq", "title": "Barbeque"}], "rating": 4.5, "coordinates": {"latitude": 41.740375, "longitude": -72.711625}, "transactions": ["delivery", "pickup"], "location": {"address1": "59 Overlook Ter", "address2": null, "address3": "", "city": "Hartford", "zip_code": "06106", "country": "US", "state": "CT", "display_address": ["59 Overlook Ter", "Hartford, CT 06106"]}, "phone": "+19598883954", "display_phone": "(959) 888-3954", "distance": 3131.26977276159}, {"id": "E3OXHCOJzph1jZooSr7xVQ", "alias": "bonchon-west-hartford-west-hartford-2", "name": "Bonchon West Hartford", "image_url": "https://s3-media2.fl.yelpcdn.com/bphoto/55ABZl1pn0UtN_uDSNGFUw/o.jpg", "is_closed": false, "url": "https://www.yelp.com/biz/bonchon-west-hartford-west-hartford-2?adjust_creative=vyhy616UjsMTA_hrWyg_5w&utm_campaign=yelp_api_v3&utm_medium=api_v3_business_search&utm_source=vyhy616UjsMTA_hrWyg_5w", "review_count": 75, "categories": [{"alias": "korean", "title": "Korean"}, {"alias": "asianfusion", "title": "Asian Fusion"}, {"alias": "chicken_wings", "title": "Chicken Wings"}], "rating": 4.0, "coordinates": {"latitude": 41.72351, "longitude": -72.75834}, "transactions": ["delivery", "pickup"], "price": "$$", "location": {"address1": "1491 New Britain Ave", "address2": null, "address3": null, "city": "West Hartford", "zip_code": "06110", "country": "US", "state": "CT", "display_address": ["1491 New Britain Ave", "West Hartford, CT 06110"]}, "phone": "+18603563333", "display_phone": "(860) 356-3333", "distance": 7309.571718885372}, {"id": "y4pG3J-5quyPWBocp-DkDQ", "alias": "maruichi-japanese-food-and-deli-west-hartford-4", "name": "Maruichi Japanese Food & Deli", "image_url": "https://s3-media1.fl.yelpcdn.com/bphoto/FNs7QQ8CJkVROcZeGqBoow/o.jpg", "is_closed": false, "url": "https://www.yelp.com/biz/maruichi-japanese-food-and-deli-west-hartford-4?adjust_creative=vyhy616UjsMTA_hrWyg_5w&utm_campaign=yelp_api_v3&utm_medium=api_v3_business_search&utm_source=vyhy616UjsMTA_hrWyg_5w", "review_count": 109, "categories": [{"alias": "japanese", "title": "Japanese"}, {"alias": "intlgrocery", "title": "International Grocery"}, {"alias": "delis", "title": "Delis"}], "rating": 4.5, "coordinates": {"latitude": 41.7611849086677, "longitude": -72.7396051292238}, "transactions": ["delivery"], "price": "$$", "location": {"address1": "37 Raymond Rd", "address2": "", "address3": null, "city": "West Hartford", "zip_code": "06107", "country": "US", "state": "CT", "display_address": ["37 Raymond Rd", "West Hartford, CT 06107"]}, "phone": "+18609042754", "display_phone": "(860) 904-2754", "distance": 4543.4684139455985}, {"id": "DUr-fWgYFfAv9CvPzrXa8g", "alias": "pho-viet-newington", "name": "Pho Viet", "image_url": "https://s3-media2.fl.yelpcdn.com/bphoto/3KljA2abf8YZH8XwsmD__A/o.jpg", "is_closed": false, "url": "https://www.yelp.com/biz/pho-viet-newington?adjust_creative=vyhy616UjsMTA_hrWyg_5w&utm_campaign=yelp_api_v3&utm_medium=api_v3_business_search&utm_source=vyhy616UjsMTA_hrWyg_5w", "review_count": 132, "categories": [{"alias": "vietnamese", "title": "Vietnamese"}], "rating": 4.5, "coordinates": {"latitude": 41.6973868, "longitude": -72.7565755}, "transactions": ["delivery", "pickup"], "price": "$$", "location": {"address1": "36B Fenn Rd", "address2": "", "address3": "", "city": "Newington", "zip_code": "06111", "country": "US", "state": "CT", "display_address": ["36B Fenn Rd", "Newington, CT 06111"]}, "phone": "+18604366777", "display_phone": "(860) 436-6777", "distance": 9140.362045669866}, {"id": "vgYrj8MRo6LCKRE8xxGtAA", "alias": "edoichi-sushi-and-hibachi-steak-house-wethersfield", "name": "Edoichi Sushi & Hibachi Steak House", "image_url": "https://s3-media2.fl.yelpcdn.com/bphoto/T1NvQ-d55FWtvR2LTRZCFA/o.jpg", "is_closed": false, "url": "https://www.yelp.com/biz/edoichi-sushi-and-hibachi-steak-house-wethersfield?adjust_creative=vyhy616UjsMTA_hrWyg_5w&utm_campaign=yelp_api_v3&utm_medium=api_v3_business_search&utm_source=vyhy616UjsMTA_hrWyg_5w", "review_count": 211, "categories": [{"alias": "sushi", "title": "Sushi Bars"}, {"alias": "steak", "title": "Steakhouses"}, {"alias": "japanese", "title": "Japanese"}], "rating": 4.5, "coordinates": {"latitude": 41.709491, "longitude": -72.662662}, "transactions": ["delivery"], "price": "$$", "location": {"address1": "580 Silas Deane Hwy", "address2": "", "address3": "", "city": "Wethersfield", "zip_code": "06109", "country": "US", "state": "CT", "display_address": ["580 Silas Deane Hwy", "Wethersfield, CT 06109"]}, "phone": "+18604364444", "display_phone": "(860) 436-4444", "distance": 5887.089095024208}, {"id": "mKSzmGpg3RysNymDLwZsjw", "alias": "tisane-euro-asian-cafe-hartford", "name": "Tisane Euro Asian Cafe", "image_url": "https://s3-media2.fl.yelpcdn.com/bphoto/P-CP05beXQCYU9lQNCypDQ/o.jpg", "is_closed": false, "url": "https://www.yelp.com/biz/tisane-euro-asian-cafe-hartford?adjust_creative=vyhy616UjsMTA_hrWyg_5w&utm_campaign=yelp_api_v3&utm_medium=api_v3_business_search&utm_source=vyhy616UjsMTA_hrWyg_5w", "review_count": 402, "categories": [{"alias": "coffee", "title": "Coffee & Tea"}, {"alias": "asianfusion", "title": "Asian Fusion"}, {"alias": "bars", "title": "Bars"}], "rating": 4.0, "coordinates": {"latitude": 41.766, "longitude": -72.7101799}, "transactions": ["delivery"], "price": "$$", "location": {"address1": "537 Farmington Ave", "address2": "", "address3": "", "city": "Hartford", "zip_code": "06105", "country": "US", "state": "CT", "display_address": ["537 Farmington Ave", "Hartford, CT 06105"]}, "phone": "+18605235417", "display_phone": "(860) 523-5417", "distance": 2198.1666344710507}, {"id": "M6V7r6Soo_EB9_gAchqDlw", "alias": "min-ghung-glastonbury", "name": "Min Ghung", "image_url": "https://s3-media3.fl.yelpcdn.com/bphoto/YQAFwkW6VLhbCqrjZlfWWA/o.jpg", "is_closed": false, "url": "https://www.yelp.com/biz/min-ghung-glastonbury?adjust_creative=vyhy616UjsMTA_hrWyg_5w&utm_campaign=yelp_api_v3&utm_medium=api_v3_business_search&utm_source=vyhy616UjsMTA_hrWyg_5w", "review_count": 204, "categories": [{"alias": "sushi", "title": "Sushi Bars"}, {"alias": "japanese", "title": "Japanese"}, {"alias": "bars", "title": "Bars"}], "rating": 4.0, "coordinates": {"latitude": 41.7174, "longitude": -72.60817}, "transactions": ["delivery"], "price": "$$", "location": {"address1": "39 New London Tpke", "address2": "", "address3": "", "city": "Glastonbury", "zip_code": "06033", "country": "US", "state": "CT", "display_address": ["39 New London Tpke", "Glastonbury, CT 06033"]}, "phone": "+18606592568", "display_phone": "(860) 659-2568", "distance": 7902.417981024465}, {"id": "TOgjoTUQulHHK1EVpQ_iTA", "alias": "flora-west-hartford", "name": "Flora", "image_url": "https://s3-media4.fl.yelpcdn.com/bphoto/MaQsGdVncTlUefZqG6gq2Q/o.jpg", "is_closed": false, "url": "https://www.yelp.com/biz/flora-west-hartford?adjust_creative=vyhy616UjsMTA_hrWyg_5w&utm_campaign=yelp_api_v3&utm_medium=api_v3_business_search&utm_source=vyhy616UjsMTA_hrWyg_5w", "review_count": 289, "categories": [{"alias": "wine_bars", "title": "Wine Bars"}, {"alias": "vegan", "title": "Vegan"}, {"alias": "juicebars", "title": "Juice Bars & Smoothies"}], "rating": 4.5, "coordinates": {"latitude": 41.760954, "longitude": -72.739664}, "transactions": ["delivery", "pickup"], "price": "$$", "location": {"address1": "45 Raymond Rd", "address2": "Fl 2nd", "address3": null, "city": "West Hartford", "zip_code": "06107", "country": "US", "state": "CT", "display_address": ["45 Raymond Rd", "Fl 2nd", "West Hartford, CT 06107"]}, "phone": "+18602165992", "display_phone": "(860) 216-5992", "distance": 4550.109160214545}, {"id": "zC5bbqH10-Ml-n17-983fA", "alias": "lucky-stars-asian-cuisine-hartford", "name": "Lucky Stars Asian Cuisine", "image_url": "https://s3-media3.fl.yelpcdn.com/bphoto/B5mRWzKzks5SqhXFtigNOA/o.jpg", "is_closed": false, "url": "https://www.yelp.com/biz/lucky-stars-asian-cuisine-hartford?adjust_creative=vyhy616UjsMTA_hrWyg_5w&utm_campaign=yelp_api_v3&utm_medium=api_v3_business_search&utm_source=vyhy616UjsMTA_hrWyg_5w", "review_count": 17, "categories": [{"alias": "chinese", "title": "Chinese"}], "rating": 4.0, "coordinates": {"latitude": 41.76112, "longitude": -72.71508}, "transactions": ["delivery", "pickup"], "location": {"address1": "474 Prospect Ave", "address2": null, "address3": "", "city": "Hartford", "zip_code": "06119", "country": "US", "state": "CT", "display_address": ["474 Prospect Ave", "Hartford, CT 06119"]}, "phone": "+18609375928", "display_phone": "(860) 937-5928", "distance": 2516.0660562130165}, {"id": "G0XJ-gioEQpxihnpHJMYLQ", "alias": "pho-99-east-hartford", "name": "Pho 99", "image_url": "https://s3-media4.fl.yelpcdn.com/bphoto/8PGt_hAKOj3UM8YTpBx_IA/o.jpg", "is_closed": false, "url": "https://www.yelp.com/biz/pho-99-east-hartford?adjust_creative=vyhy616UjsMTA_hrWyg_5w&utm_campaign=yelp_api_v3&utm_medium=api_v3_business_search&utm_source=vyhy616UjsMTA_hrWyg_5w", "review_count": 194, "categories": [{"alias": "vietnamese", "title": "Vietnamese"}, {"alias": "noodles", "title": "Noodles"}, {"alias": "soup", "title": "Soup"}], "rating": 4.0, "coordinates": {"latitude": 41.7617218, "longitude": -72.6339921}, "transactions": ["delivery", "pickup"], "price": "$$", "location": {"address1": "245 Silver Ln", "address2": "", "address3": "", "city": "East Hartford", "zip_code": "06118", "country": "US", "state": "CT", "display_address": ["245 Silver Ln", "East Hartford, CT 06118"]}, "phone": "+18605687770", "display_phone": "(860) 568-7770", "distance": 4221.755512879286}, {"id": "dxRb9gGbrpkdwoucE041Zg", "alias": "kt-bakery-west-hartford", "name": "KT Bakery", "image_url": "https://s3-media1.fl.yelpcdn.com/bphoto/4djUvYvP8PO61UVXe3wSLw/o.jpg", "is_closed": false, "url": "https://www.yelp.com/biz/kt-bakery-west-hartford?adjust_creative=vyhy616UjsMTA_hrWyg_5w&utm_campaign=yelp_api_v3&utm_medium=api_v3_business_search&utm_source=vyhy616UjsMTA_hrWyg_5w", "review_count": 24, "categories": [{"alias": "vietnamese", "title": "Vietnamese"}, {"alias": "bakeries", "title": "Bakeries"}, {"alias": "sandwiches", "title": "Sandwiches"}], "rating": 4.5, "coordinates": {"latitude": 41.736729, "longitude": -72.720872}, "transactions": ["delivery"], "price": "$", "location": {"address1": "552 New Park Ave", "address2": "", "address3": null, "city": "West Hartford", "zip_code": "06110", "country": "US", "state": "CT", "display_address": ["552 New Park Ave", "West Hartford, CT 06110"]}, "phone": "+18602360389", "display_phone": "(860) 236-0389", "distance": 3931.7197121415884}, {"id": "iy-0bAyynbz0-epQUPH_XA", "alias": "siam-glastonbury-glastonbury", "name": "Siam Glastonbury", "image_url": "https://s3-media1.fl.yelpcdn.com/bphoto/_VgCTpHOphpYMV6jVwz_fA/o.jpg", "is_closed": false, "url": "https://www.yelp.com/biz/siam-glastonbury-glastonbury?adjust_creative=vyhy616UjsMTA_hrWyg_5w&utm_campaign=yelp_api_v3&utm_medium=api_v3_business_search&utm_source=vyhy616UjsMTA_hrWyg_5w", "review_count": 151, "categories": [{"alias": "thai", "title": "Thai"}, {"alias": "asianfusion", "title": "Asian Fusion"}], "rating": 4.0, "coordinates": {"latitude": 41.7148636950982, "longitude": -72.607195877456}, "transactions": ["delivery", "pickup"], "price": "$$", "location": {"address1": "45 Welles St", "address2": "", "address3": "", "city": "Glastonbury", "zip_code": "06033", "country": "US", "state": "CT", "display_address": ["45 Welles St", "Glastonbury, CT 06033"]}, "phone": "+18606598511", "display_phone": "(860) 659-8511", "distance": 8152.778350144517}, {"id": "kQPI_A5EdRfxsk4L92RYoQ", "alias": "trumbull-kitchen-hartford", "name": "Trumbull Kitchen", "image_url": "https://s3-media4.fl.yelpcdn.com/bphoto/kBj3FbrIKltwEb1ZIdj9zg/o.jpg", "is_closed": false, "url": "https://www.yelp.com/biz/trumbull-kitchen-hartford?adjust_creative=vyhy616UjsMTA_hrWyg_5w&utm_campaign=yelp_api_v3&utm_medium=api_v3_business_search&utm_source=vyhy616UjsMTA_hrWyg_5w", "review_count": 640, "categories": [{"alias": "newamerican", "title": "American (New)"}], "rating": 4.0, "coordinates": {"latitude": 41.76671, "longitude": -72.67533}, "transactions": ["delivery", "pickup"], "price": "$$", "location": {"address1": "150 Trumbull St", "address2": "", "address3": "", "city": "Hartford", "zip_code": "06103", "country": "US", "state": "CT", "display_address": ["150 Trumbull St", "Hartford, CT 06103"]}, "phone": "+18604937412", "display_phone": "(860) 493-7412", "distance": 1098.3405595265979}, {"id": "K-Oj81DMwdUhB_ublG3y3Q", "alias": "the-blue-elephant-trail-west-hartford", "name": "The Blue Elephant Trail", "image_url": "https://s3-media1.fl.yelpcdn.com/bphoto/DEccu_iQ5Q9ZC6eBoDV5_g/o.jpg", "is_closed": false, "url": "https://www.yelp.com/biz/the-blue-elephant-trail-west-hartford?adjust_creative=vyhy616UjsMTA_hrWyg_5w&utm_campaign=yelp_api_v3&utm_medium=api_v3_business_search&utm_source=vyhy616UjsMTA_hrWyg_5w", "review_count": 258, "categories": [{"alias": "thai", "title": "Thai"}], "rating": 4.0, "coordinates": {"latitude": 41.761383, "longitude": -72.742549}, "transactions": ["delivery", "pickup"], "price": "$$", "location": {"address1": "7 S Main St", "address2": "", "address3": "", "city": "West Hartford", "zip_code": "06107", "country": "US", "state": "CT", "display_address": ["7 S Main St", "West Hartford, CT 06107"]}, "phone": "+18602334405", "display_phone": "(860) 233-4405", "distance": 4788.27126887119}, {"id": "4vapy4bJAhVeaZanAxIa8w", "alias": "ginza-japanese-cuisine-bloomfield-2", "name": "Ginza Japanese Cuisine", "image_url": "https://s3-media2.fl.yelpcdn.com/bphoto/YyPIbOSum01GGyv0TJRVdg/o.jpg", "is_closed": false, "url": "https://www.yelp.com/biz/ginza-japanese-cuisine-bloomfield-2?adjust_creative=vyhy616UjsMTA_hrWyg_5w&utm_campaign=yelp_api_v3&utm_medium=api_v3_business_search&utm_source=vyhy616UjsMTA_hrWyg_5w", "review_count": 197, "categories": [{"alias": "japanese", "title": "Japanese"}, {"alias": "sushi", "title": "Sushi Bars"}, {"alias": "asianfusion", "title": "Asian Fusion"}], "rating": 4.0, "coordinates": {"latitude": 41.8311303, "longitude": -72.7361548}, "transactions": ["delivery", "pickup"], "price": "$$", "location": {"address1": "14 Wintonbury Mall", "address2": "", "address3": "", "city": "Bloomfield", "zip_code": "06002", "country": "US", "state": "CT", "display_address": ["14 Wintonbury Mall", "Bloomfield, CT 06002"]}, "phone": "+18602428289", "display_phone": "(860) 242-8289", "distance": 9023.881544936667}, {"id": "uUuw2Dk-1BBgBqVfdFzMtA", "alias": "pho-house-east-hartford-5", "name": "Pho House", "image_url": "https://s3-media3.fl.yelpcdn.com/bphoto/Y9Okc00eTLMGQB704l98pA/o.jpg", "is_closed": false, "url": "https://www.yelp.com/biz/pho-house-east-hartford-5?adjust_creative=vyhy616UjsMTA_hrWyg_5w&utm_campaign=yelp_api_v3&utm_medium=api_v3_business_search&utm_source=vyhy616UjsMTA_hrWyg_5w", "review_count": 27, "categories": [{"alias": "vietnamese", "title": "Vietnamese"}], "rating": 4.5, "coordinates": {"latitude": 41.76528833, "longitude": -72.60624667}, "transactions": ["delivery", "pickup"], "price": "$$", "location": {"address1": "834 Silver Ln", "address2": null, "address3": "", "city": "East  Hartford", "zip_code": "06118", "country": "US", "state": "CT", "display_address": ["834 Silver Ln", "East  Hartford, CT 06118"]}, "phone": "+18605191875", "display_phone": "(860) 519-1875", "distance": 6547.149462399355}, {"id": "6BDgiIZWksA4bPcEhE66Kw", "alias": "koma-hibachi-and-sushi-west-hartford", "name": "Koma Hibachi & Sushi", "image_url": "https://s3-media3.fl.yelpcdn.com/bphoto/W70Obo9HH5SQLtUm9orNNw/o.jpg", "is_closed": false, "url": "https://www.yelp.com/biz/koma-hibachi-and-sushi-west-hartford?adjust_creative=vyhy616UjsMTA_hrWyg_5w&utm_campaign=yelp_api_v3&utm_medium=api_v3_business_search&utm_source=vyhy616UjsMTA_hrWyg_5w", "review_count": 213, "categories": [{"alias": "sushi", "title": "Sushi Bars"}, {"alias": "steak", "title": "Steakhouses"}, {"alias": "japanese", "title": "Japanese"}], "rating": 3.5, "coordinates": {"latitude": 41.7852, "longitude": -72.747793}, "transactions": ["delivery", "pickup"], "price": "$$", "location": {"address1": "345 N Main St", "address2": "", "address3": "", "city": "West Hartford", "zip_code": "06117", "country": "US", "state": "CT", "display_address": ["345 N Main St", "West Hartford, CT 06117"]}, "phone": "+18602322100", "display_phone": "(860) 232-2100", "distance": 5935.382967295365}, {"id": "trDKO_1oVWAthp71eDEZmw", "alias": "ginza-express-hartford", "name": "Ginza Express", "image_url": "https://s3-media4.fl.yelpcdn.com/bphoto/Rh3ahKL2nUTRqFXxB4Vm1Q/o.jpg", "is_closed": false, "url": "https://www.yelp.com/biz/ginza-express-hartford?adjust_creative=vyhy616UjsMTA_hrWyg_5w&utm_campaign=yelp_api_v3&utm_medium=api_v3_business_search&utm_source=vyhy616UjsMTA_hrWyg_5w", "review_count": 50, "categories": [{"alias": "japanese", "title": "Japanese"}], "rating": 3.5, "coordinates": {"latitude": 41.7668927, "longitude": -72.6748322}, "transactions": ["delivery", "pickup"], "price": "$", "location": {"address1": "89 Asylum St", "address2": "", "address3": "", "city": "Hartford", "zip_code": "06103", "country": "US", "state": "CT", "display_address": ["89 Asylum St", "Hartford, CT 06103"]}, "phone": "+18605951478", "display_phone": "(860) 595-1478", "distance": 1147.981806978564}, {"id": "sqrccSQMznxZejVCgPAeLA", "alias": "sweet-chilli-thai-cuisine-west-hartford-2", "name": "Sweet Chilli Thai Cuisine", "image_url": "https://s3-media4.fl.yelpcdn.com/bphoto/ZmuR7wP_GHFBlu6XDtyNBg/o.jpg", "is_closed": false, "url": "https://www.yelp.com/biz/sweet-chilli-thai-cuisine-west-hartford-2?adjust_creative=vyhy616UjsMTA_hrWyg_5w&utm_campaign=yelp_api_v3&utm_medium=api_v3_business_search&utm_source=vyhy616UjsMTA_hrWyg_5w", "review_count": 162, "categories": [{"alias": "thai", "title": "Thai"}], "rating": 4.0, "coordinates": {"latitude": 41.756375, "longitude": -72.728249}, "transactions": ["delivery", "pickup"], "price": "$$", "location": {"address1": "312 Park Rd", "address2": "", "address3": "", "city": "West Hartford", "zip_code": "06119", "country": "US", "state": "CT", "display_address": ["312 Park Rd", "West Hartford, CT 06119"]}, "phone": "+18602337780", "display_phone": "(860) 233-7780", "distance": 3618.535336333538}, {"id": "f6Igh1TZ2dQniUq-ItG00Q", "alias": "vietnam-restaurant-west-hartford", "name": "Vietnam Restaurant", "image_url": "https://s3-media2.fl.yelpcdn.com/bphoto/_q0Bb7e3rGqhHm3vw1SnvQ/o.jpg", "is_closed": false, "url": "https://www.yelp.com/biz/vietnam-restaurant-west-hartford?adjust_creative=vyhy616UjsMTA_hrWyg_5w&utm_campaign=yelp_api_v3&utm_medium=api_v3_business_search&utm_source=vyhy616UjsMTA_hrWyg_5w", "review_count": 92, "categories": [{"alias": "vietnamese", "title": "Vietnamese"}], "rating": 4.0, "coordinates": {"latitude": 41.73241, "longitude": -72.73281}, "transactions": ["delivery"], "price": "$$", "location": {"address1": "1131 New Britain Ave", "address2": "", "address3": "", "city": "West Hartford", "zip_code": "06110", "country": "US", "state": "CT", "display_address": ["1131 New Britain Ave", "West Hartford, CT 06110"]}, "phone": "+18602367893", "display_phone": "(860) 236-7893", "distance": 5000.363881017984}, {"id": "mGf8jSOkzV7uTUXQiyRDtQ", "alias": "tea-break-west-hartford", "name": "Tea Break", "image_url": "https://s3-media2.fl.yelpcdn.com/bphoto/XY-Irr6CpZ9VTWepzTdkag/o.jpg", "is_closed": false, "url": "https://www.yelp.com/biz/tea-break-west-hartford?adjust_creative=vyhy616UjsMTA_hrWyg_5w&utm_campaign=yelp_api_v3&utm_medium=api_v3_business_search&utm_source=vyhy616UjsMTA_hrWyg_5w", "review_count": 169, "categories": [{"alias": "bubbletea", "title": "Bubble Tea"}], "rating": 4.5, "coordinates": {"latitude": 41.7612342665073, "longitude": -72.7455790485646}, "transactions": ["delivery"], "price": "$", "location": {"address1": "994 Farmington Ave", "address2": null, "address3": "", "city": "West Hartford", "zip_code": "06107", "country": "US", "state": "CT", "display_address": ["994 Farmington Ave", "West Hartford, CT 06107"]}, "phone": "+19179294005", "display_phone": "(917) 929-4005", "distance": 5038.876294741153}, {"id": "FYgG2LHqtoo5c8Xdu9m3SA", "alias": "mecha-noodle-bar-west-hartford-2", "name": "Mecha Noodle Bar", "image_url": "https://s3-media4.fl.yelpcdn.com/bphoto/G-g0nQBTUPiELF7r_VdGlQ/o.jpg", "is_closed": false, "url": "https://www.yelp.com/biz/mecha-noodle-bar-west-hartford-2?adjust_creative=vyhy616UjsMTA_hrWyg_5w&utm_campaign=yelp_api_v3&utm_medium=api_v3_business_search&utm_source=vyhy616UjsMTA_hrWyg_5w", "review_count": 43, "categories": [{"alias": "wine_bars", "title": "Wine Bars"}, {"alias": "ramen", "title": "Ramen"}, {"alias": "cocktailbars", "title": "Cocktail Bars"}], "rating": 4.5, "coordinates": {"latitude": 41.761186, "longitude": -72.743557}, "transactions": ["delivery"], "location": {"address1": "975 Farmington Ave", "address2": null, "address3": null, "city": "West Hartford", "zip_code": "06107", "country": "US", "state": "CT", "display_address": ["975 Farmington Ave", "West Hartford, CT 06107"]}, "phone": "+18603517577", "display_phone": "(860) 351-7577", "distance": 4871.650357235001}, {"id": "C4SrRzbiUps4UZtzWhOigg", "alias": "tisumi-japanese-restaurant-glastonbury", "name": "Tisumi Japanese Restaurant", "image_url": "https://s3-media1.fl.yelpcdn.com/bphoto/K7sZNH1BeqWCSbz9sPxZ2A/o.jpg", "is_closed": false, "url": "https://www.yelp.com/biz/tisumi-japanese-restaurant-glastonbury?adjust_creative=vyhy616UjsMTA_hrWyg_5w&utm_campaign=yelp_api_v3&utm_medium=api_v3_business_search&utm_source=vyhy616UjsMTA_hrWyg_5w", "review_count": 141, "categories": [{"alias": "japanese", "title": "Japanese"}, {"alias": "sushi", "title": "Sushi Bars"}], "rating": 4.0, "coordinates": {"latitude": 41.721055, "longitude": -72.613706}, "transactions": ["delivery", "pickup"], "price": "$$", "location": {"address1": "2850 Main St", "address2": "", "address3": "", "city": "Glastonbury", "zip_code": "06033", "country": "US", "state": "CT", "display_address": ["2850 Main St", "Glastonbury, CT 06033"]}, "phone": "+18604302826", "display_phone": "(860) 430-2826", "distance": 7306.984527526479}, {"id": "X9CMfCnaAprN_mKSJnbFnQ", "alias": "a-dong-supermarket-west-hartford", "name": "A Dong Supermarket", "image_url": "https://s3-media3.fl.yelpcdn.com/bphoto/F5X6UlPuvUSUYa3kBGw1yA/o.jpg", "is_closed": false, "url": "https://www.yelp.com/biz/a-dong-supermarket-west-hartford?adjust_creative=vyhy616UjsMTA_hrWyg_5w&utm_campaign=yelp_api_v3&utm_medium=api_v3_business_search&utm_source=vyhy616UjsMTA_hrWyg_5w", "review_count": 154, "categories": [{"alias": "intlgrocery", "title": "International Grocery"}], "rating": 4.0, "coordinates": {"latitude": 41.728275, "longitude": -72.722383}, "transactions": [], "price": "$", "location": {"address1": "160 Shield St", "address2": "", "address3": "", "city": "West Hartford", "zip_code": "06110", "country": "US", "state": "CT", "display_address": ["160 Shield St", "West Hartford, CT 06110"]}, "phone": "+18609538903", "display_phone": "(860) 953-8903", "distance": 4679.191779197398}, {"id": "pwGrq-VCpWJfgY4pLxKAow", "alias": "new-asia-west-hartford", "name": "New Asia", "image_url": "https://s3-media2.fl.yelpcdn.com/bphoto/M2i57Hg-Z5wojNpllDYfLQ/o.jpg", "is_closed": false, "url": "https://www.yelp.com/biz/new-asia-west-hartford?adjust_creative=vyhy616UjsMTA_hrWyg_5w&utm_campaign=yelp_api_v3&utm_medium=api_v3_business_search&utm_source=vyhy616UjsMTA_hrWyg_5w", "review_count": 50, "categories": [{"alias": "chinese", "title": "Chinese"}], "rating": 4.0, "coordinates": {"latitude": 41.732313, "longitude": -72.734931}, "transactions": ["pickup"], "price": "$", "location": {"address1": "1155 New Britain Ave", "address2": "", "address3": "", "city": "West Hartford", "zip_code": "06110", "country": "US", "state": "CT", "display_address": ["1155 New Britain Ave", "West Hartford, CT 06110"]}, "phone": "+18605217600", "display_phone": "(860) 521-7600", "distance": 5155.74092524969}, {"id": "3br3ZowJ03LtOkVCRpnr1A", "alias": "cosmos-international-west-hartford", "name": "Cosmos International", "image_url": "https://s3-media1.fl.yelpcdn.com/bphoto/hTiwAyE9X4N8Ue_WZSlk9w/o.jpg", "is_closed": false, "url": "https://www.yelp.com/biz/cosmos-international-west-hartford?adjust_creative=vyhy616UjsMTA_hrWyg_5w&utm_campaign=yelp_api_v3&utm_medium=api_v3_business_search&utm_source=vyhy616UjsMTA_hrWyg_5w", "review_count": 42, "categories": [{"alias": "indpak", "title": "Indian"}, {"alias": "intlgrocery", "title": "International Grocery"}], "rating": 4.0, "coordinates": {"latitude": 41.7652586081605, "longitude": -72.7255782928778}, "transactions": [], "price": "$", "location": {"address1": "770 Farmington Ave", "address2": "", "address3": "", "city": "West Hartford", "zip_code": "06119", "country": "US", "state": "CT", "display_address": ["770 Farmington Ave", "West Hartford, CT 06119"]}, "phone": "+18602326600", "display_phone": "(860) 232-6600", "distance": 3431.7867244708295}], "total": 93, "region": {"center": {"longitude": -72.68486022949219, "latitude": 41.75977674302498}}}