{"businesses": [{"id": "JRMBqM82xzMgDfAYRK9wSA", "alias": "tiger-fork-washington", "name": "Tiger Fork", "image_url": "https://s3-media4.fl.yelpcdn.com/bphoto/hVFn8IMfO-GKCUypRdqomw/o.jpg", "is_closed": false, "url": "https://www.yelp.com/biz/tiger-fork-washington?adjust_creative=vyhy616UjsMTA_hrWyg_5w&utm_campaign=yelp_api_v3&utm_medium=api_v3_business_search&utm_source=vyhy616UjsMTA_hrWyg_5w", "review_count": 615, "categories": [{"alias": "chinese", "title": "Chinese"}, {"alias": "hkcafe", "title": "Hong Kong Style Cafe"}, {"alias": "cocktailbars", "title": "Cocktail Bars"}], "rating": 4.0, "coordinates": {"latitude": 38.9066669939671, "longitude": -77.0247446332794}, "transactions": ["delivery"], "price": "$$", "location": {"address1": "922 N St NW", "address2": null, "address3": null, "city": "Washington, DC", "zip_code": "20001", "country": "US", "state": "DC", "display_address": ["922 N St NW", "Washington, DC 20001"]}, "phone": "+12027331152", "display_phone": "(202) 733-1152", "distance": 1775.3744012798218}, {"id": "Sd9A-WKorTYI02gRvWMNjA", "alias": "thip-khao-washington", "name": "Thip Khao", "image_url": "https://s3-media3.fl.yelpcdn.com/bphoto/M8gRwJQr0dXev1oE1OvKcg/o.jpg", "is_closed": false, "url": "https://www.yelp.com/biz/thip-khao-washington?adjust_creative=vyhy616UjsMTA_hrWyg_5w&utm_campaign=yelp_api_v3&utm_medium=api_v3_business_search&utm_source=vyhy616UjsMTA_hrWyg_5w", "review_count": 1152, "categories": [{"alias": "laotian", "title": "Laotian"}], "rating": 4.5, "coordinates": {"latitude": 38.933025306328, "longitude": -77.0329276871505}, "transactions": ["delivery"], "price": "$$", "location": {"address1": "3462 14th St NW", "address2": "", "address3": "", "city": "Washington, DC", "zip_code": "20010", "country": "US", "state": "DC", "display_address": ["3462 14th St NW", "Washington, DC 20010"]}, "phone": "+12023875426", "display_phone": "(202) 387-5426", "distance": 4738.653719705098}, {"id": "Z0v0NOziKoF6g_NzO68Z6g", "alias": "reren-washington", "name": "Reren", "image_url": "https://s3-media2.fl.yelpcdn.com/bphoto/6-sbMDW9QPKpIcBXU5OWkw/o.jpg", "is_closed": false, "url": "https://www.yelp.com/biz/reren-washington?adjust_creative=vyhy616UjsMTA_hrWyg_5w&utm_campaign=yelp_api_v3&utm_medium=api_v3_business_search&utm_source=vyhy616UjsMTA_hrWyg_5w", "review_count": 1918, "categories": [{"alias": "ramen", "title": "Ramen"}, {"alias": "asianfusion", "title": "Asian Fusion"}], "rating": 4.0, "coordinates": {"latitude": 38.900318145752, "longitude": -77.0215911865234}, "transactions": ["pickup", "restaurant_reservation", "delivery"], "price": "$$", "location": {"address1": "817 7th St NW", "address2": null, "address3": "", "city": "Washington, DC", "zip_code": "20001", "country": "US", "state": "DC", "display_address": ["817 7th St NW", "Washington, DC 20001"]}, "phone": "+12022903677", "display_phone": "(202) 290-3677", "distance": 1049.7960502956353}, {"id": "iORMLvXAbFbe9xLDlT_C6g", "alias": "baan-siam-washington", "name": "Baan Siam", "image_url": "https://s3-media2.fl.yelpcdn.com/bphoto/eSfOoeBsNixBBGKHp75X3w/o.jpg", "is_closed": false, "url": "https://www.yelp.com/biz/baan-siam-washington?adjust_creative=vyhy616UjsMTA_hrWyg_5w&utm_campaign=yelp_api_v3&utm_medium=api_v3_business_search&utm_source=vyhy616UjsMTA_hrWyg_5w", "review_count": 129, "categories": [{"alias": "thai", "title": "Thai"}], "rating": 5.0, "coordinates": {"latitude": 38.90147950746981, "longitude": -77.01634228634687}, "transactions": ["delivery"], "location": {"address1": "425 I St NW", "address2": "", "address3": null, "city": "Washington, DC", "zip_code": "20001", "country": "US", "state": "DC", "display_address": ["425 I St NW", "Washington, DC 20001"]}, "phone": "+12025885889", "display_phone": "(202) 588-5889", "distance": 962.7344704490396}, {"id": "HQ404fe3ndkAprE00uxWLA", "alias": "toki-underground-washington", "name": "Toki Underground", "image_url": "https://s3-media1.fl.yelpcdn.com/bphoto/1W-SINIp0ZgFVLPMrL2OTw/o.jpg", "is_closed": false, "url": "https://www.yelp.com/biz/toki-underground-washington?adjust_creative=vyhy616UjsMTA_hrWyg_5w&utm_campaign=yelp_api_v3&utm_medium=api_v3_business_search&utm_source=vyhy616UjsMTA_hrWyg_5w", "review_count": 2265, "categories": [{"alias": "ramen", "title": "Ramen"}], "rating": 4.0, "coordinates": {"latitude": 38.9002596732333, "longitude": -76.9890601862829}, "transactions": ["delivery"], "price": "$$", "location": {"address1": "1234 H St NE", "address2": "", "address3": "", "city": "Washington, DC", "zip_code": "20002", "country": "US", "state": "DC", "display_address": ["1234 H St NE", "Washington, DC 20002"]}, "phone": "+12023883086", "display_phone": "(202) 388-3086", "distance": 2317.7182263847762}, {"id": "wTz5b1FR8Af06LKjf9eTDQ", "alias": "daikaya-washington-11", "name": "Daikaya", "image_url": "https://s3-media1.fl.yelpcdn.com/bphoto/kgyK0IdAq7Bb67KTkcIe_g/o.jpg", "is_closed": false, "url": "https://www.yelp.com/biz/daikaya-washington-11?adjust_creative=vyhy616UjsMTA_hrWyg_5w&utm_campaign=yelp_api_v3&utm_medium=api_v3_business_search&utm_source=vyhy616UjsMTA_hrWyg_5w", "review_count": 840, "categories": [{"alias": "izakaya", "title": "Izakaya"}], "rating": 4.0, "coordinates": {"latitude": 38.8986, "longitude": -77.0195899}, "transactions": ["delivery"], "price": "$$", "location": {"address1": "705 6th St NW", "address2": "Fl 2", "address3": "", "city": "Washington, DC", "zip_code": "20001", "country": "US", "state": "DC", "display_address": ["705 6th St NW", "Fl 2", "Washington, DC 20001"]}, "phone": "+12025891600", "display_phone": "(202) 589-1600", "distance": 781.2375560076646}, {"id": "H0pwrVQsgRra0aM3zyIBzA", "alias": "china-boy-washington", "name": "China Boy", "image_url": "https://s3-media4.fl.yelpcdn.com/bphoto/L2XHCfondz1ATI-fapk7ag/o.jpg", "is_closed": false, "url": "https://www.yelp.com/biz/china-boy-washington?adjust_creative=vyhy616UjsMTA_hrWyg_5w&utm_campaign=yelp_api_v3&utm_medium=api_v3_business_search&utm_source=vyhy616UjsMTA_hrWyg_5w", "review_count": 426, "categories": [{"alias": "chinese", "title": "Chinese"}], "rating": 4.0, "coordinates": {"latitude": 38.90037, "longitude": -77.01957}, "transactions": ["pickup", "delivery"], "price": "$", "location": {"address1": "815 6th St NW", "address2": "", "address3": "", "city": "Washington, DC", "zip_code": "20001", "country": "US", "state": "DC", "display_address": ["815 6th St NW", "Washington, DC 20001"]}, "phone": "+12023711661", "display_phone": "(202) 371-1661", "distance": 944.8112216289236}, {"id": "eqHzWyJ47ysq9S7m_stKuA", "alias": "makan-washington", "name": "Makan", "image_url": "https://s3-media4.fl.yelpcdn.com/bphoto/BCNHbBlGYTJIPpp3Hvlnjw/o.jpg", "is_closed": false, "url": "https://www.yelp.com/biz/makan-washington?adjust_creative=vyhy616UjsMTA_hrWyg_5w&utm_campaign=yelp_api_v3&utm_medium=api_v3_business_search&utm_source=vyhy616UjsMTA_hrWyg_5w", "review_count": 75, "categories": [{"alias": "malaysian", "title": "Malaysian"}], "rating": 4.5, "coordinates": {"latitude": 38.931928, "longitude": -77.028447}, "transactions": ["pickup", "delivery"], "location": {"address1": "3400 11th St NW", "address2": "", "address3": null, "city": "Washington, DC", "zip_code": "20010", "country": "US", "state": "DC", "display_address": ["3400 11th St NW", "Washington, DC 20010"]}, "phone": "", "display_phone": "", "distance": 4502.742434844711}, {"id": "XMZHx2sVXKFQEbQMnu_NqA", "alias": "mandu-washington-2", "name": "Mandu", "image_url": "https://s3-media1.fl.yelpcdn.com/bphoto/zsGekhAY5s3KIr3NCptARQ/o.jpg", "is_closed": false, "url": "https://www.yelp.com/biz/mandu-washington-2?adjust_creative=vyhy616UjsMTA_hrWyg_5w&utm_campaign=yelp_api_v3&utm_medium=api_v3_business_search&utm_source=vyhy616UjsMTA_hrWyg_5w", "review_count": 788, "categories": [{"alias": "korean", "title": "Korean"}, {"alias": "bars", "title": "Bars"}], "rating": 4.0, "coordinates": {"latitude": 38.9025165013075, "longitude": -77.0182084994751}, "transactions": ["delivery"], "price": "$$", "location": {"address1": "453 K St NW", "address2": "", "address3": "", "city": "Washington, DC", "zip_code": "20001", "country": "US", "state": "DC", "display_address": ["453 K St NW", "Washington, DC 20001"]}, "phone": "+12022896899", "display_phone": "(202) 289-6899", "distance": 1115.7691737889154}, {"id": "R-IGoudMDc5VX9MEPTU7ew", "alias": "laos-in-town-washington-3", "name": "Laos In Town", "image_url": "https://s3-media3.fl.yelpcdn.com/bphoto/Jn_jKw-an5sxEE1tK0cq1w/o.jpg", "is_closed": false, "url": "https://www.yelp.com/biz/laos-in-town-washington-3?adjust_creative=vyhy616UjsMTA_hrWyg_5w&utm_campaign=yelp_api_v3&utm_medium=api_v3_business_search&utm_source=vyhy616UjsMTA_hrWyg_5w", "review_count": 270, "categories": [{"alias": "laotian", "title": "Laotian"}, {"alias": "breakfast_brunch", "title": "Breakfast & Brunch"}, {"alias": "beergardens", "title": "Beer Gardens"}], "rating": 4.0, "coordinates": {"latitude": 38.902842618477194, "longitude": -77.00229728650758}, "transactions": ["pickup", "delivery"], "price": "$$", "location": {"address1": "250 K St NE", "address2": "", "address3": null, "city": "Washington, DC", "zip_code": "20002", "country": "US", "state": "DC", "display_address": ["250 K St NE", "Washington, DC 20002"]}, "phone": "+12028646620", "display_phone": "(202) 864-6620", "distance": 1501.4188004670448}, {"id": "lbG5bJcVU3bzrnUP3PeRqw", "alias": "bar-and-lounge-54-washington", "name": "Bar & Lounge 54", "image_url": "https://s3-media2.fl.yelpcdn.com/bphoto/QXqQ2DVZJBJTwnhcoD4plw/o.jpg", "is_closed": false, "url": "https://www.yelp.com/biz/bar-and-lounge-54-washington?adjust_creative=vyhy616UjsMTA_hrWyg_5w&utm_campaign=yelp_api_v3&utm_medium=api_v3_business_search&utm_source=vyhy616UjsMTA_hrWyg_5w", "review_count": 46, "categories": [{"alias": "vietnamese", "title": "Vietnamese"}, {"alias": "asianfusion", "title": "Asian Fusion"}, {"alias": "noodles", "title": "Noodles"}], "rating": 5.0, "coordinates": {"latitude": 38.906088666538, "longitude": -77.0432458955717}, "transactions": ["delivery"], "location": {"address1": "1207 19th St NW", "address2": "", "address3": null, "city": "Washington, DC", "zip_code": "20036", "country": "US", "state": "DC", "display_address": ["1207 19th St NW", "Washington, DC 20036"]}, "phone": "+12027580312", "display_phone": "(202) 758-0312", "distance": 2908.0582070591427}, {"id": "XKu55WVJY1YUZ3c2jnEuoQ", "alias": "the-block-washington", "name": "The Block", "image_url": "https://s3-media4.fl.yelpcdn.com/bphoto/Yl7RLl4X8xh4XrZ0S343Eg/o.jpg", "is_closed": false, "url": "https://www.yelp.com/biz/the-block-washington?adjust_creative=vyhy616UjsMTA_hrWyg_5w&utm_campaign=yelp_api_v3&utm_medium=api_v3_business_search&utm_source=vyhy616UjsMTA_hrWyg_5w", "review_count": 20, "categories": [{"alias": "food_court", "title": "Food Court"}, {"alias": "bars", "title": "Bars"}, {"alias": "asianfusion", "title": "Asian Fusion"}], "rating": 5.0, "coordinates": {"latitude": 38.90433, "longitude": -77.03328}, "transactions": ["pickup", "delivery"], "location": {"address1": "1110 Vermont Ave NW", "address2": "", "address3": null, "city": "Washington, DC", "zip_code": "20005", "country": "US", "state": "DC", "display_address": ["1110 Vermont Ave NW", "Washington, DC 20005"]}, "phone": "+12026817516", "display_phone": "(202) 681-7516", "distance": 2069.027497318723}, {"id": "_HVdlE7-75fLOpxux1tpDg", "alias": "14th-st-cafe-asian-bistro-washington-2", "name": "14th St Cafe Asian Bistro", "image_url": "https://s3-media2.fl.yelpcdn.com/bphoto/78oSGG2YioqxfgkEdwgYYQ/o.jpg", "is_closed": false, "url": "https://www.yelp.com/biz/14th-st-cafe-asian-bistro-washington-2?adjust_creative=vyhy616UjsMTA_hrWyg_5w&utm_campaign=yelp_api_v3&utm_medium=api_v3_business_search&utm_source=vyhy616UjsMTA_hrWyg_5w", "review_count": 226, "categories": [{"alias": "chinese", "title": "Chinese"}], "rating": 4.0, "coordinates": {"latitude": 38.90943, "longitude": -77.0322599}, "transactions": ["delivery"], "price": "$$", "location": {"address1": "1416 14th St NW", "address2": "", "address3": "", "city": "Washington, DC", "zip_code": "20005", "country": "US", "state": "DC", "display_address": ["1416 14th St NW", "Washington, DC 20005"]}, "phone": "+12025880695", "display_phone": "(202) 588-0695", "distance": 2404.840436834349}, {"id": "xcmJSS6LAGWLWAsVK6LALA", "alias": "maketto-washington-2", "name": "Maketto", "image_url": "https://s3-media2.fl.yelpcdn.com/bphoto/FYZKqSRq-IrguwEFLub3GQ/o.jpg", "is_closed": false, "url": "https://www.yelp.com/biz/maketto-washington-2?adjust_creative=vyhy616UjsMTA_hrWyg_5w&utm_campaign=yelp_api_v3&utm_medium=api_v3_business_search&utm_source=vyhy616UjsMTA_hrWyg_5w", "review_count": 1007, "categories": [{"alias": "cafes", "title": "Cafes"}, {"alias": "cambodian", "title": "Cambodian"}, {"alias": "taiwanese", "title": "Taiwanese"}], "rating": 4.0, "coordinates": {"latitude": 38.8998718261719, "longitude": -76.9866714477539}, "transactions": ["pickup", "delivery"], "price": "$$", "location": {"address1": "1351 H St NE", "address2": "", "address3": "", "city": "Washington, DC", "zip_code": "20002", "country": "US", "state": "DC", "display_address": ["1351 H St NE", "Washington, DC 20002"]}, "phone": "+12028389972", "display_phone": "(202) 838-9972", "distance": 2501.3172940345667}, {"id": "3WupV-yujHBW3fG66X-7Dw", "alias": "bobs-shanghai-66-rockville", "name": "Bob's Shanghai 66", "image_url": "https://s3-media2.fl.yelpcdn.com/bphoto/tcXexDFpxfkzAhmwNuJAbw/o.jpg", "is_closed": false, "url": "https://www.yelp.com/biz/bobs-shanghai-66-rockville?adjust_creative=vyhy616UjsMTA_hrWyg_5w&utm_campaign=yelp_api_v3&utm_medium=api_v3_business_search&utm_source=vyhy616UjsMTA_hrWyg_5w", "review_count": 1186, "categories": [{"alias": "shanghainese", "title": "Shanghainese"}, {"alias": "seafood", "title": "Seafood"}, {"alias": "noodles", "title": "Noodles"}], "rating": 4.0, "coordinates": {"latitude": 39.0889926587079, "longitude": -77.1531214361068}, "transactions": ["pickup", "delivery"], "price": "$$", "location": {"address1": "305 N Washington St", "address2": null, "address3": "", "city": "Rockville", "zip_code": "20850", "country": "US", "state": "MD", "display_address": ["305 N Washington St", "Rockville, MD 20850"]}, "phone": "+13012516652", "display_phone": "(301) 251-6652", "distance": 24884.457462784703}, {"id": "zYZTOm80HvrB1fvMWiG2Pw", "alias": "1914-by-kolben-washington", "name": "1914 By Kolben", "image_url": "https://s3-media2.fl.yelpcdn.com/bphoto/vcH4NpPlEqDeTXjVq92qcw/o.jpg", "is_closed": false, "url": "https://www.yelp.com/biz/1914-by-kolben-washington?adjust_creative=vyhy616UjsMTA_hrWyg_5w&utm_campaign=yelp_api_v3&utm_medium=api_v3_business_search&utm_source=vyhy616UjsMTA_hrWyg_5w", "review_count": 56, "categories": [{"alias": "vietnamese", "title": "Vietnamese"}], "rating": 5.0, "coordinates": {"latitude": 38.91604, "longitude": -77.02422}, "transactions": ["pickup", "delivery"], "location": {"address1": "1914 9th St NW", "address2": null, "address3": "", "city": "Washington, DC", "zip_code": "20001", "country": "US", "state": "DC", "display_address": ["1914 9th St NW", "Washington, DC 20001"]}, "phone": "+13012449795", "display_phone": "(301) 244-9795", "distance": 2705.426576920791}, {"id": "1W5lv--XZhZ77yiERbyyLw", "alias": "fahrenheit-asian-mclean", "name": "Fahrenheit Asian", "image_url": "https://s3-media2.fl.yelpcdn.com/bphoto/2L3cLNvBU2IPpDuB2EduqA/o.jpg", "is_closed": false, "url": "https://www.yelp.com/biz/fahrenheit-asian-mclean?adjust_creative=vyhy616UjsMTA_hrWyg_5w&utm_campaign=yelp_api_v3&utm_medium=api_v3_business_search&utm_source=vyhy616UjsMTA_hrWyg_5w", "review_count": 425, "categories": [{"alias": "asianfusion", "title": "Asian Fusion"}, {"alias": "chinese", "title": "Chinese"}, {"alias": "ramen", "title": "Ramen"}], "rating": 3.5, "coordinates": {"latitude": 38.9392659609573, "longitude": -77.1786813404755}, "transactions": ["pickup", "delivery"], "price": "$$", "location": {"address1": "1313 Dolley Madison Blvd", "address2": "Ste 103", "address3": "", "city": "McLean", "zip_code": "22101", "country": "US", "state": "VA", "display_address": ["1313 Dolley Madison Blvd", "Ste 103", "McLean, VA 22101"]}, "phone": "+17036468968", "display_phone": "(703) 646-8968", "distance": 15135.423650385548}, {"id": "TIIRt0r54hNEYoKJ1v7ccA", "alias": "chiko-washington-2", "name": "Chiko", "image_url": "https://s3-media1.fl.yelpcdn.com/bphoto/EsFmb5oMIOd-_qWeBsufBw/o.jpg", "is_closed": false, "url": "https://www.yelp.com/biz/chiko-washington-2?adjust_creative=vyhy616UjsMTA_hrWyg_5w&utm_campaign=yelp_api_v3&utm_medium=api_v3_business_search&utm_source=vyhy616UjsMTA_hrWyg_5w", "review_count": 187, "categories": [{"alias": "chinese", "title": "Chinese"}, {"alias": "korean", "title": "Korean"}], "rating": 4.5, "coordinates": {"latitude": 38.90984, "longitude": -77.04627}, "transactions": ["pickup", "delivery"], "price": "$$", "location": {"address1": "2029 P St NW", "address2": "", "address3": null, "city": "Washington, DC", "zip_code": "20036", "country": "US", "state": "DC", "display_address": ["2029 P St NW", "Washington, DC 20036"]}, "phone": "+12023313040", "display_phone": "(202) 331-3040", "distance": 3351.3273055040004}, {"id": "OMOnQk4bEB9oNWzE4JFopg", "alias": "chiko-washington", "name": "CHIKO", "image_url": "https://s3-media3.fl.yelpcdn.com/bphoto/h7JLD8C1iZ75_2X6xdN0kQ/o.jpg", "is_closed": false, "url": "https://www.yelp.com/biz/chiko-washington?adjust_creative=vyhy616UjsMTA_hrWyg_5w&utm_campaign=yelp_api_v3&utm_medium=api_v3_business_search&utm_source=vyhy616UjsMTA_hrWyg_5w", "review_count": 323, "categories": [{"alias": "chinese", "title": "Chinese"}, {"alias": "korean", "title": "Korean"}], "rating": 4.5, "coordinates": {"latitude": 38.88303, "longitude": -76.9952799}, "transactions": ["pickup", "delivery"], "price": "$$", "location": {"address1": "423 8th St SE", "address2": "", "address3": null, "city": "Washington, DC", "zip_code": "20003", "country": "US", "state": "DC", "display_address": ["423 8th St SE", "Washington, DC 20003"]}, "phone": "+12025589934", "display_phone": "(202) 558-9934", "distance": 1983.0353574733226}, {"id": "gLCGsMhmAOJ0ak8qawkUhg", "alias": "da-hong-pao-washington", "name": "Da Hong Pao", "image_url": "https://s3-media4.fl.yelpcdn.com/bphoto/y5T7dX-trCWIUwwDcGHNNw/o.jpg", "is_closed": false, "url": "https://www.yelp.com/biz/da-hong-pao-washington?adjust_creative=vyhy616UjsMTA_hrWyg_5w&utm_campaign=yelp_api_v3&utm_medium=api_v3_business_search&utm_source=vyhy616UjsMTA_hrWyg_5w", "review_count": 715, "categories": [{"alias": "cantonese", "title": "Cantonese"}, {"alias": "dimsum", "title": "Dim Sum"}, {"alias": "szechuan", "title": "Szechuan"}], "rating": 4.0, "coordinates": {"latitude": 38.9093783217825, "longitude": -77.03165966054}, "transactions": ["delivery"], "price": "$$", "location": {"address1": "1409 14th St NW", "address2": "", "address3": null, "city": "Washington, DC", "zip_code": "20005", "country": "US", "state": "DC", "display_address": ["1409 14th St NW", "Washington, DC 20005"]}, "phone": "+12028467229", "display_phone": "(202) 846-7229", "distance": 2369.407499923752}, {"id": "iXf127pEmc9EhlvKVib2ug", "alias": "isshin-asian-bistro-washington-2", "name": "Isshin Asian Bistro", "image_url": "https://s3-media2.fl.yelpcdn.com/bphoto/ATdVe4d2ihjO7DyXSPzeTA/o.jpg", "is_closed": false, "url": "https://www.yelp.com/biz/isshin-asian-bistro-washington-2?adjust_creative=vyhy616UjsMTA_hrWyg_5w&utm_campaign=yelp_api_v3&utm_medium=api_v3_business_search&utm_source=vyhy616UjsMTA_hrWyg_5w", "review_count": 9, "categories": [{"alias": "chinese", "title": "Chinese"}, {"alias": "ramen", "title": "Ramen"}], "rating": 4.5, "coordinates": {"latitude": 38.92121831517877, "longitude": -77.04247161876404}, "transactions": ["pickup", "delivery"], "location": {"address1": "2418 18th St NW", "address2": null, "address3": "", "city": "Washington, DC", "zip_code": "20009", "country": "US", "state": "DC", "display_address": ["2418 18th St NW", "Washington, DC 20009"]}, "phone": "+12022321818", "display_phone": "(202) 232-1818", "distance": 3981.681426305432}, {"id": "Qt14DkOz6QNb6HoUdBguXw", "alias": "anju-washington", "name": "ANJU", "image_url": "https://s3-media2.fl.yelpcdn.com/bphoto/xcMXuQuwWduOcPKWeeFudw/o.jpg", "is_closed": false, "url": "https://www.yelp.com/biz/anju-washington?adjust_creative=vyhy616UjsMTA_hrWyg_5w&utm_campaign=yelp_api_v3&utm_medium=api_v3_business_search&utm_source=vyhy616UjsMTA_hrWyg_5w", "review_count": 194, "categories": [{"alias": "korean", "title": "Korean"}], "rating": 4.0, "coordinates": {"latitude": 38.91437, "longitude": -77.04149}, "transactions": ["delivery"], "price": "$$", "location": {"address1": "1805 18th St NW", "address2": "", "address3": null, "city": "Washington, DC", "zip_code": "20009", "country": "US", "state": "DC", "display_address": ["1805 18th St NW", "Washington, DC 20009"]}, "phone": "+12028458935", "display_phone": "(202) 845-8935", "distance": 3351.9062081009793}, {"id": "mUzEkBi14OFh7ZLEcCBcxw", "alias": "kumo-asian-bistro-alexandria", "name": "Kumo Asian Bistro", "image_url": "https://s3-media1.fl.yelpcdn.com/bphoto/YH2kbz2rHi0XBCHD3I8Rlw/o.jpg", "is_closed": false, "url": "https://www.yelp.com/biz/kumo-asian-bistro-alexandria?adjust_creative=vyhy616UjsMTA_hrWyg_5w&utm_campaign=yelp_api_v3&utm_medium=api_v3_business_search&utm_source=vyhy616UjsMTA_hrWyg_5w", "review_count": 1006, "categories": [{"alias": "japanese", "title": "Japanese"}, {"alias": "asianfusion", "title": "Asian Fusion"}, {"alias": "sushi", "title": "Sushi Bars"}], "rating": 4.5, "coordinates": {"latitude": 38.765424, "longitude": -77.154345}, "transactions": ["pickup", "delivery"], "price": "$$", "location": {"address1": "7025 Manchester Blvd", "address2": "Ste F", "address3": "", "city": "Alexandria", "zip_code": "22310", "country": "US", "state": "VA", "display_address": ["7025 Manchester Blvd", "Ste F", "Alexandria, VA 22310"]}, "phone": "+17037195866", "display_phone": "(703) 719-5866", "distance": 18712.839451588792}, {"id": "6Vb-44X87oQECPaZlnKmtw", "alias": "thai-signature-alexandria", "name": "Thai Signature", "image_url": "https://s3-media2.fl.yelpcdn.com/bphoto/0vn7sbXQKQvNiPgluaG3CA/o.jpg", "is_closed": false, "url": "https://www.yelp.com/biz/thai-signature-alexandria?adjust_creative=vyhy616UjsMTA_hrWyg_5w&utm_campaign=yelp_api_v3&utm_medium=api_v3_business_search&utm_source=vyhy616UjsMTA_hrWyg_5w", "review_count": 84, "categories": [{"alias": "thai", "title": "Thai"}, {"alias": "bars", "title": "Bars"}, {"alias": "asianfusion", "title": "Asian Fusion"}], "rating": 4.5, "coordinates": {"latitude": 38.80506, "longitude": -77.04783}, "transactions": ["pickup", "delivery"], "location": {"address1": "722 King St", "address2": null, "address3": "", "city": "Alexandria", "zip_code": "22314", "country": "US", "state": "VA", "display_address": ["722 King St", "Alexandria, VA 22314"]}, "phone": "+17038882458", "display_phone": "(703) 888-2458", "distance": 10207.4536397371}, {"id": "1n7Bt8Q9b0Y1PS2dGyasVw", "alias": "gyuzo-japanese-bbq-rockville", "name": "Gyuzo Japanese BBQ", "image_url": "https://s3-media2.fl.yelpcdn.com/bphoto/Scsbk9IpqOmXXKFX0OHtfg/o.jpg", "is_closed": false, "url": "https://www.yelp.com/biz/gyuzo-japanese-bbq-rockville?adjust_creative=vyhy616UjsMTA_hrWyg_5w&utm_campaign=yelp_api_v3&utm_medium=api_v3_business_search&utm_source=vyhy616UjsMTA_hrWyg_5w", "review_count": 240, "categories": [{"alias": "japanese", "title": "Japanese"}, {"alias": "bbq", "title": "Barbeque"}], "rating": 5.0, "coordinates": {"latitude": 39.085852, "longitude": -77.1514738}, "transactions": ["pickup", "restaurant_reservation", "delivery"], "location": {"address1": "33 Maryland Ave", "address2": "Ste B", "address3": "", "city": "Rockville", "zip_code": "20850", "country": "US", "state": "MD", "display_address": ["33 Maryland Ave", "Ste B", "Rockville, MD 20850"]}, "phone": "+12404037670", "display_phone": "(240) 403-7670", "distance": 24510.03892448639}, {"id": "aCIOBhQUFZX2xn6JEkUTyg", "alias": "meokja-meokja-fairfax-5", "name": "Meokja Meokja", "image_url": "https://s3-media4.fl.yelpcdn.com/bphoto/jeeHLjk93fY-HpzGQCI_Nw/o.jpg", "is_closed": false, "url": "https://www.yelp.com/biz/meokja-meokja-fairfax-5?adjust_creative=vyhy616UjsMTA_hrWyg_5w&utm_campaign=yelp_api_v3&utm_medium=api_v3_business_search&utm_source=vyhy616UjsMTA_hrWyg_5w", "review_count": 545, "categories": [{"alias": "korean", "title": "Korean"}, {"alias": "bbq", "title": "Barbeque"}], "rating": 4.5, "coordinates": {"latitude": 38.8642119, "longitude": -77.2768787}, "transactions": ["pickup", "delivery"], "price": "$$", "location": {"address1": "9619 Fairfax Blvd", "address2": "", "address3": null, "city": "Fairfax", "zip_code": "22030", "country": "US", "state": "VA", "display_address": ["9619 Fairfax Blvd", "Fairfax, VA 22030"]}, "phone": "+15714592875", "display_phone": "(571) 459-2875", "distance": 22980.965459930183}, {"id": "cHvf3L4NAklSE4j9agOkHQ", "alias": "astoria-dc-washington", "name": "Astoria DC", "image_url": "https://s3-media2.fl.yelpcdn.com/bphoto/2qdA90dZDm1eaKAC9y7QWQ/o.jpg", "is_closed": false, "url": "https://www.yelp.com/biz/astoria-dc-washington?adjust_creative=vyhy616UjsMTA_hrWyg_5w&utm_campaign=yelp_api_v3&utm_medium=api_v3_business_search&utm_source=vyhy616UjsMTA_hrWyg_5w", "review_count": 135, "categories": [{"alias": "szechuan", "title": "Szechuan"}, {"alias": "cocktailbars", "title": "Cocktail Bars"}], "rating": 4.5, "coordinates": {"latitude": 38.91052, "longitude": -77.03813}, "transactions": [], "price": "$$", "location": {"address1": "1521 17th St NW", "address2": null, "address3": "", "city": "Washington, DC", "zip_code": "20036", "country": "US", "state": "DC", "display_address": ["1521 17th St NW", "Washington, DC 20036"]}, "phone": "+12027540065", "display_phone": "(202) 754-0065", "distance": 2847.828053544616}, {"id": "eQqWrHwvUXc9gs6rDqIMkA", "alias": "mama-chang-fairfax", "name": "Mama Chang", "image_url": "https://s3-media2.fl.yelpcdn.com/bphoto/YHzywH0P3V1cvj4hlreO7Q/o.jpg", "is_closed": false, "url": "https://www.yelp.com/biz/mama-chang-fairfax?adjust_creative=vyhy616UjsMTA_hrWyg_5w&utm_campaign=yelp_api_v3&utm_medium=api_v3_business_search&utm_source=vyhy616UjsMTA_hrWyg_5w", "review_count": 395, "categories": [{"alias": "chinese", "title": "Chinese"}], "rating": 3.5, "coordinates": {"latitude": 38.86203, "longitude": -77.27629}, "transactions": ["delivery"], "price": "$$", "location": {"address1": "3251 Old Lee Hwy", "address2": "", "address3": null, "city": "Fairfax", "zip_code": "22030", "country": "US", "state": "VA", "display_address": ["3251 Old Lee Hwy", "Fairfax, VA 22030"]}, "phone": "+17032685556", "display_phone": "(703) 268-5556", "distance": 22953.338611891508}, {"id": "JIQovrnYjGETxHQD6kAb0Q", "alias": "copycat-co-washington-2", "name": "Copycat Co", "image_url": "https://s3-media4.fl.yelpcdn.com/bphoto/C4BBWj0mjXSR15OXH5CG4A/o.jpg", "is_closed": false, "url": "https://www.yelp.com/biz/copycat-co-washington-2?adjust_creative=vyhy616UjsMTA_hrWyg_5w&utm_campaign=yelp_api_v3&utm_medium=api_v3_business_search&utm_source=vyhy616UjsMTA_hrWyg_5w", "review_count": 629, "categories": [{"alias": "cocktailbars", "title": "Cocktail Bars"}, {"alias": "chinese", "title": "Chinese"}], "rating": 4.5, "coordinates": {"latitude": 38.9004517, "longitude": -76.9910202}, "transactions": ["pickup", "delivery"], "price": "$$", "location": {"address1": "1110 H St NE", "address2": "", "address3": "", "city": "Washington, DC", "zip_code": "20002", "country": "US", "state": "DC", "display_address": ["1110 H St NE", "Washington, DC 20002"]}, "phone": "+12022411952", "display_phone": "(202) 241-1952", "distance": 2165.495777291926}, {"id": "Hq-60L15E6H4vvWoo9JR8w", "alias": "momiji-washington", "name": "Momiji", "image_url": "https://s3-media1.fl.yelpcdn.com/bphoto/9YbtDfcKcd275vFoXoJyVg/o.jpg", "is_closed": false, "url": "https://www.yelp.com/biz/momiji-washington?adjust_creative=vyhy616UjsMTA_hrWyg_5w&utm_campaign=yelp_api_v3&utm_medium=api_v3_business_search&utm_source=vyhy616UjsMTA_hrWyg_5w", "review_count": 1043, "categories": [{"alias": "japanese", "title": "Japanese"}, {"alias": "sushi", "title": "Sushi Bars"}, {"alias": "bars", "title": "Bars"}], "rating": 4.0, "coordinates": {"latitude": 38.900118, "longitude": -77.019165}, "transactions": ["delivery"], "price": "$$", "location": {"address1": "505 H St NW", "address2": "", "address3": null, "city": "Washington, DC", "zip_code": "20001", "country": "US", "state": "DC", "display_address": ["505 H St NW", "Washington, DC 20001"]}, "phone": "+12024088110", "display_phone": "(202) 408-8110", "distance": 903.2569260878817}, {"id": "6ePcjEA00AO9aQPMxSaL_Q", "alias": "donburi-washington", "name": "Donburi", "image_url": "https://s3-media1.fl.yelpcdn.com/bphoto/ujYBMvHqVZcHV7xVR3cYKw/o.jpg", "is_closed": false, "url": "https://www.yelp.com/biz/donburi-washington?adjust_creative=vyhy616UjsMTA_hrWyg_5w&utm_campaign=yelp_api_v3&utm_medium=api_v3_business_search&utm_source=vyhy616UjsMTA_hrWyg_5w", "review_count": 825, "categories": [{"alias": "japanese", "title": "Japanese"}], "rating": 4.5, "coordinates": {"latitude": 38.9216156005859, "longitude": -77.0427017211914}, "transactions": ["pickup", "delivery"], "price": "$$", "location": {"address1": "2438 18th N W", "address2": null, "address3": "", "city": "Washington, DC", "zip_code": "20009", "country": "US", "state": "DC", "display_address": ["2438 18th N W", "Washington, DC 20009"]}, "phone": "+12026291047", "display_phone": "(202) 629-1047", "distance": 4028.656704601329}, {"id": "Lx9N4_5bWxfLTU3f-_8YBw", "alias": "dumplings-and-beyond-washington", "name": "Dumplings & Beyond", "image_url": "https://s3-media1.fl.yelpcdn.com/bphoto/FtCZkelqYvnvYTxWeq6mGA/o.jpg", "is_closed": false, "url": "https://www.yelp.com/biz/dumplings-and-beyond-washington?adjust_creative=vyhy616UjsMTA_hrWyg_5w&utm_campaign=yelp_api_v3&utm_medium=api_v3_business_search&utm_source=vyhy616UjsMTA_hrWyg_5w", "review_count": 468, "categories": [{"alias": "chinese", "title": "Chinese"}], "rating": 4.0, "coordinates": {"latitude": 38.9211850288095, "longitude": -77.0723823064345}, "transactions": ["pickup", "delivery"], "price": "$$", "location": {"address1": "2400 Wisconsin Ave NW", "address2": "Fl 2", "address3": "", "city": "Washington, DC", "zip_code": "20007", "country": "US", "state": "DC", "display_address": ["2400 Wisconsin Ave NW", "Fl 2", "Washington, DC 20007"]}, "phone": "+12023383815", "display_phone": "(202) 338-3815", "distance": 5933.737665934878}, {"id": "uXCtjTFzLX2tt6WaCGcCAg", "alias": "sakuramen-washington", "name": "Sakuramen", "image_url": "https://s3-media2.fl.yelpcdn.com/bphoto/GM4OXSe9-YerFIuYHh3R_g/o.jpg", "is_closed": false, "url": "https://www.yelp.com/biz/sakuramen-washington?adjust_creative=vyhy616UjsMTA_hrWyg_5w&utm_campaign=yelp_api_v3&utm_medium=api_v3_business_search&utm_source=vyhy616UjsMTA_hrWyg_5w", "review_count": 1608, "categories": [{"alias": "asianfusion", "title": "Asian Fusion"}, {"alias": "ramen", "title": "Ramen"}, {"alias": "korean", "title": "Korean"}], "rating": 4.0, "coordinates": {"latitude": 38.9216012545356, "longitude": -77.0420884061516}, "transactions": ["delivery"], "price": "$$", "location": {"address1": "2441 18th St NW", "address2": "", "address3": "", "city": "Washington, DC", "zip_code": "20009", "country": "US", "state": "DC", "display_address": ["2441 18th St NW", "Washington, DC 20009"]}, "phone": "+12026565285", "display_phone": "(202) 656-5285", "distance": 3995.1873057168873}, {"id": "8TcU6v9k3nEKly6WIRMSMA", "alias": "shanghai-lounge-washington", "name": "Shanghai Lounge", "image_url": "https://s3-media1.fl.yelpcdn.com/bphoto/pNgHjJN-S3ShyBHqfALDyQ/o.jpg", "is_closed": false, "url": "https://www.yelp.com/biz/shanghai-lounge-washington?adjust_creative=vyhy616UjsMTA_hrWyg_5w&utm_campaign=yelp_api_v3&utm_medium=api_v3_business_search&utm_source=vyhy616UjsMTA_hrWyg_5w", "review_count": 513, "categories": [{"alias": "chinese", "title": "Chinese"}, {"alias": "asianfusion", "title": "Asian Fusion"}, {"alias": "bars", "title": "Bars"}], "rating": 4.0, "coordinates": {"latitude": 38.914586, "longitude": -77.067402}, "transactions": ["pickup", "delivery"], "price": "$$", "location": {"address1": "1734 Wisconsin Ave NW", "address2": "", "address3": "", "city": "Washington, DC", "zip_code": "20007", "country": "US", "state": "DC", "display_address": ["1734 Wisconsin Ave NW", "Washington, DC 20007"]}, "phone": "+12023381588", "display_phone": "(202) 338-1588", "distance": 5195.413598872974}, {"id": "uTqHUuL8OQy6uJsz7w_l6Q", "alias": "dc-noodles-washington-6", "name": "DC Noodles", "image_url": "https://s3-media3.fl.yelpcdn.com/bphoto/0BTiGJNopi5v9U67DCJQng/o.jpg", "is_closed": false, "url": "https://www.yelp.com/biz/dc-noodles-washington-6?adjust_creative=vyhy616UjsMTA_hrWyg_5w&utm_campaign=yelp_api_v3&utm_medium=api_v3_business_search&utm_source=vyhy616UjsMTA_hrWyg_5w", "review_count": 646, "categories": [{"alias": "noodles", "title": "Noodles"}], "rating": 4.0, "coordinates": {"latitude": 38.91684, "longitude": -77.03254}, "transactions": ["delivery"], "price": "$$", "location": {"address1": "1412 U St NW", "address2": "", "address3": "", "city": "Washington, DC", "zip_code": "20009", "country": "US", "state": "DC", "display_address": ["1412 U St NW", "Washington, DC 20009"]}, "phone": "+12022328424", "display_phone": "(202) 232-8424", "distance": 3094.324088008509}, {"id": "oNwBRaUIU5P19SpmHm_fkw", "alias": "torai-sushi-washington", "name": "Torai Sushi", "image_url": "https://s3-media3.fl.yelpcdn.com/bphoto/lUZSuX5zPqib2tWsWFtWTg/o.jpg", "is_closed": false, "url": "https://www.yelp.com/biz/torai-sushi-washington?adjust_creative=vyhy616UjsMTA_hrWyg_5w&utm_campaign=yelp_api_v3&utm_medium=api_v3_business_search&utm_source=vyhy616UjsMTA_hrWyg_5w", "review_count": 165, "categories": [{"alias": "sushi", "title": "Sushi Bars"}, {"alias": "panasian", "title": "Pan Asian"}], "rating": 4.5, "coordinates": {"latitude": 38.87956, "longitude": -76.99523}, "transactions": ["delivery"], "price": "$$", "location": {"address1": "751 8th St SE", "address2": null, "address3": "", "city": "Washington, DC", "zip_code": "20003", "country": "US", "state": "DC", "display_address": ["751 8th St SE", "Washington, DC 20003"]}, "phone": "+12025252053", "display_phone": "(202) 525-2053", "distance": 2220.268439809373}, {"id": "HR8eAPKfc91VF3gJurp7bg", "alias": "bun-d-up-arlington-2", "name": "Bun\u2019d Up", "image_url": "https://s3-media3.fl.yelpcdn.com/bphoto/CRPhok4fB-XZVtQ624AwFQ/o.jpg", "is_closed": false, "url": "https://www.yelp.com/biz/bun-d-up-arlington-2?adjust_creative=vyhy616UjsMTA_hrWyg_5w&utm_campaign=yelp_api_v3&utm_medium=api_v3_business_search&utm_source=vyhy616UjsMTA_hrWyg_5w", "review_count": 74, "categories": [{"alias": "taiwanese", "title": "Taiwanese"}, {"alias": "asianfusion", "title": "Asian Fusion"}, {"alias": "korean", "title": "Korean"}], "rating": 4.5, "coordinates": {"latitude": 38.863418, "longitude": -77.06229}, "transactions": ["pickup", "delivery"], "price": "$$", "location": {"address1": "1201 S Joyce St", "address2": "", "address3": null, "city": "Arlington", "zip_code": "22202", "country": "US", "state": "VA", "display_address": ["1201 S Joyce St", "Arlington, VA 22202"]}, "phone": "", "display_phone": "", "distance": 5331.560188987075}, {"id": "A-89i7_ipR-QOlg4Z1echQ", "alias": "kaliwa-washington", "name": "Kaliwa", "image_url": "https://s3-media1.fl.yelpcdn.com/bphoto/P93hms7LmcVttxT6kLDA6g/o.jpg", "is_closed": false, "url": "https://www.yelp.com/biz/kaliwa-washington?adjust_creative=vyhy616UjsMTA_hrWyg_5w&utm_campaign=yelp_api_v3&utm_medium=api_v3_business_search&utm_source=vyhy616UjsMTA_hrWyg_5w", "review_count": 562, "categories": [{"alias": "filipino", "title": "Filipino"}, {"alias": "thai", "title": "Thai"}, {"alias": "korean", "title": "Korean"}], "rating": 3.5, "coordinates": {"latitude": 38.8784577, "longitude": -77.0239817}, "transactions": ["pickup", "restaurant_reservation", "delivery"], "price": "$$", "location": {"address1": "751 Wharf St SW", "address2": "", "address3": null, "city": "Washington, DC", "zip_code": "20024", "country": "US", "state": "DC", "display_address": ["751 Wharf St SW", "Washington, DC 20024"]}, "phone": "+12025164739", "display_phone": "(202) 516-4739", "distance": 1815.9602110762687}, {"id": "UdOHrJjqGzdpOUURMrKKtQ", "alias": "soi-38-washington-2", "name": "Soi 38", "image_url": "https://s3-media3.fl.yelpcdn.com/bphoto/8TSeuHJw8dFvtAoCxz8j-g/o.jpg", "is_closed": false, "url": "https://www.yelp.com/biz/soi-38-washington-2?adjust_creative=vyhy616UjsMTA_hrWyg_5w&utm_campaign=yelp_api_v3&utm_medium=api_v3_business_search&utm_source=vyhy616UjsMTA_hrWyg_5w", "review_count": 430, "categories": [{"alias": "thai", "title": "Thai"}], "rating": 4.0, "coordinates": {"latitude": 38.90421, "longitude": -77.047038}, "transactions": ["pickup", "delivery"], "price": "$$", "location": {"address1": "2101 L St NW", "address2": null, "address3": "", "city": "Washington, DC", "zip_code": "20037", "country": "US", "state": "DC", "display_address": ["2101 L St NW", "Washington, DC 20037"]}, "phone": "+12025589215", "display_phone": "(202) 558-9215", "distance": 3106.726345062019}, {"id": "RuRgTODmBdpszjqqCs7AOQ", "alias": "bund-up-washington", "name": "Bun'd Up", "image_url": "https://s3-media4.fl.yelpcdn.com/bphoto/hGi_hp-dSTr7L1ytyXioQA/o.jpg", "is_closed": false, "url": "https://www.yelp.com/biz/bund-up-washington?adjust_creative=vyhy616UjsMTA_hrWyg_5w&utm_campaign=yelp_api_v3&utm_medium=api_v3_business_search&utm_source=vyhy616UjsMTA_hrWyg_5w", "review_count": 70, "categories": [{"alias": "asianfusion", "title": "Asian Fusion"}], "rating": 4.5, "coordinates": {"latitude": 38.9088520448054, "longitude": -76.9979108437959}, "transactions": ["delivery"], "price": "$$", "location": {"address1": "1309 5th St NE", "address2": "", "address3": null, "city": "Washington, DC", "zip_code": "20002", "country": "US", "state": "DC", "display_address": ["1309 5th St NE", "Washington, DC 20002"]}, "phone": "", "display_phone": "", "distance": 2255.7251041751833}, {"id": "JhaUPfsBt_em9jLQf1mvMw", "alias": "silk-road-choyhona-gaithersburg-2", "name": "Silk Road Choyhona", "image_url": "https://s3-media2.fl.yelpcdn.com/bphoto/6m4aiOt3RQ7flkr3Sq0ifA/o.jpg", "is_closed": false, "url": "https://www.yelp.com/biz/silk-road-choyhona-gaithersburg-2?adjust_creative=vyhy616UjsMTA_hrWyg_5w&utm_campaign=yelp_api_v3&utm_medium=api_v3_business_search&utm_source=vyhy616UjsMTA_hrWyg_5w", "review_count": 366, "categories": [{"alias": "salad", "title": "Salad"}, {"alias": "soup", "title": "Soup"}, {"alias": "uzbek", "title": "Uzbek"}], "rating": 4.5, "coordinates": {"latitude": 39.143456, "longitude": -77.218304}, "transactions": ["pickup", "delivery"], "price": "$$", "location": {"address1": "28 Bureau Dr", "address2": "", "address3": "", "city": "Gaithersburg", "zip_code": "20878", "country": "US", "state": "MD", "display_address": ["28 Bureau Dr", "Gaithersburg, MD 20878"]}, "phone": "+13013305262", "display_phone": "(301) 330-5262", "distance": 32965.086671229}, {"id": "AZffrHEAYSvoYBcJzFpSnA", "alias": "abc-pony-washington", "name": "ABC Pony", "image_url": "https://s3-media3.fl.yelpcdn.com/bphoto/req2wgKxAS3FcfYa1Qgisg/o.jpg", "is_closed": false, "url": "https://www.yelp.com/biz/abc-pony-washington?adjust_creative=vyhy616UjsMTA_hrWyg_5w&utm_campaign=yelp_api_v3&utm_medium=api_v3_business_search&utm_source=vyhy616UjsMTA_hrWyg_5w", "review_count": 110, "categories": [{"alias": "asianfusion", "title": "Asian Fusion"}, {"alias": "italian", "title": "Italian"}, {"alias": "bars", "title": "Bars"}], "rating": 4.5, "coordinates": {"latitude": 38.87977, "longitude": -77.0084}, "transactions": ["pickup", "delivery"], "price": "$$", "location": {"address1": "2 I St SE", "address2": null, "address3": "", "city": "Washington, DC", "zip_code": "20003", "country": "US", "state": "DC", "display_address": ["2 I St SE", "Washington, DC 20003"]}, "phone": "+12029138155", "display_phone": "(202) 913-8155", "distance": 1557.5297878758822}, {"id": "VIFbn6IztSXf6pvAGzxhyg", "alias": "pow-pow-washington", "name": "Pow Pow", "image_url": "https://s3-media2.fl.yelpcdn.com/bphoto/_j_uBUdKb7iQb9uabjEYsA/o.jpg", "is_closed": false, "url": "https://www.yelp.com/biz/pow-pow-washington?adjust_creative=vyhy616UjsMTA_hrWyg_5w&utm_campaign=yelp_api_v3&utm_medium=api_v3_business_search&utm_source=vyhy616UjsMTA_hrWyg_5w", "review_count": 339, "categories": [{"alias": "asianfusion", "title": "Asian Fusion"}, {"alias": "kosher", "title": "Kosher"}], "rating": 4.0, "coordinates": {"latitude": 38.8999671936035, "longitude": -76.9885711669922}, "transactions": ["pickup", "delivery"], "price": "$$", "location": {"address1": "1253 H St NE", "address2": null, "address3": "", "city": "Washington, DC", "zip_code": "20002", "country": "US", "state": "DC", "display_address": ["1253 H St NE", "Washington, DC 20002"]}, "phone": "+12023991364", "display_phone": "(202) 399-1364", "distance": 2348.1586223676213}, {"id": "YzdDK9BCtMS_MX6s0cKT9A", "alias": "mandalay-restaurant-and-cafe-silver-spring", "name": "Mandalay Restaurant & Cafe", "image_url": "https://s3-media4.fl.yelpcdn.com/bphoto/lMzl4clj6mUEIvxrvVAo0w/o.jpg", "is_closed": false, "url": "https://www.yelp.com/biz/mandalay-restaurant-and-cafe-silver-spring?adjust_creative=vyhy616UjsMTA_hrWyg_5w&utm_campaign=yelp_api_v3&utm_medium=api_v3_business_search&utm_source=vyhy616UjsMTA_hrWyg_5w", "review_count": 618, "categories": [{"alias": "burmese", "title": "Burmese"}, {"alias": "cafes", "title": "Cafes"}], "rating": 4.0, "coordinates": {"latitude": 38.99368, "longitude": -77.02514}, "transactions": ["delivery"], "price": "$$", "location": {"address1": "930 Bonifant St", "address2": "", "address3": "", "city": "Silver Spring", "zip_code": "20910", "country": "US", "state": "MD", "display_address": ["930 Bonifant St", "Silver Spring, MD 20910"]}, "phone": "+13015850500", "display_phone": "(301) 585-0500", "distance": 11237.582045940917}, {"id": "I1cwajsgXPzfFCsekznsqA", "alias": "bar-bao-arlington", "name": "Bar Bao", "image_url": "https://s3-media2.fl.yelpcdn.com/bphoto/nbM7lkM7po2DEVmgM6wRMQ/o.jpg", "is_closed": false, "url": "https://www.yelp.com/biz/bar-bao-arlington?adjust_creative=vyhy616UjsMTA_hrWyg_5w&utm_campaign=yelp_api_v3&utm_medium=api_v3_business_search&utm_source=vyhy616UjsMTA_hrWyg_5w", "review_count": 628, "categories": [{"alias": "asianfusion", "title": "Asian Fusion"}], "rating": 4.0, "coordinates": {"latitude": 38.886147, "longitude": -77.095928}, "transactions": ["pickup"], "price": "$$", "location": {"address1": "3100 N Clarendon Blvd", "address2": "", "address3": null, "city": "Arlington", "zip_code": "22201", "country": "US", "state": "VA", "display_address": ["3100 N Clarendon Blvd", "Arlington, VA 22201"]}, "phone": "+17036000500", "display_phone": "(703) 600-0500", "distance": 7117.733601894933}, {"id": "bIPNkQMBGAIjBVT_RgkwVA", "alias": "seoulspice-washington-7", "name": "SeoulSpice", "image_url": "https://s3-media2.fl.yelpcdn.com/bphoto/lYlDshjN9S6sCa5fnMccMA/o.jpg", "is_closed": false, "url": "https://www.yelp.com/biz/seoulspice-washington-7?adjust_creative=vyhy616UjsMTA_hrWyg_5w&utm_campaign=yelp_api_v3&utm_medium=api_v3_business_search&utm_source=vyhy616UjsMTA_hrWyg_5w", "review_count": 336, "categories": [{"alias": "korean", "title": "Korean"}, {"alias": "gluten_free", "title": "Gluten-Free"}, {"alias": "comfortfood", "title": "Comfort Food"}], "rating": 4.0, "coordinates": {"latitude": 38.906801, "longitude": -77.004602}, "transactions": ["pickup", "delivery"], "price": "$$", "location": {"address1": "145 N St NE", "address2": "Ste 400", "address3": "", "city": "Washington, DC", "zip_code": "20002", "country": "US", "state": "DC", "display_address": ["145 N St NE", "Ste 400", "Washington, DC 20002"]}, "phone": "+12028176927", "display_phone": "(202) 817-6927", "distance": 1744.3302643925113}, {"id": "xz0bpu2-FgcM-tPM1CKIsQ", "alias": "o-ku-washington-washington", "name": "O-Ku - Washington", "image_url": "https://s3-media4.fl.yelpcdn.com/bphoto/LILCquCYR_XAZdrwcGpfhw/o.jpg", "is_closed": false, "url": "https://www.yelp.com/biz/o-ku-washington-washington?adjust_creative=vyhy616UjsMTA_hrWyg_5w&utm_campaign=yelp_api_v3&utm_medium=api_v3_business_search&utm_source=vyhy616UjsMTA_hrWyg_5w", "review_count": 327, "categories": [{"alias": "sushi", "title": "Sushi Bars"}, {"alias": "japanese", "title": "Japanese"}, {"alias": "asianfusion", "title": "Asian Fusion"}], "rating": 4.5, "coordinates": {"latitude": 38.9082216, "longitude": -76.9986557}, "transactions": ["delivery"], "price": "$$$", "location": {"address1": "1274 5th St NE", "address2": null, "address3": "", "city": "Washington, DC", "zip_code": "20002", "country": "US", "state": "DC", "display_address": ["1274 5th St NE", "Washington, DC 20002"]}, "phone": "+12028888790", "display_phone": "(202) 888-8790", "distance": 2160.7442007631944}, {"id": "q1zSpYNSXbdy2ePp4R3Vnw", "alias": "kisso-asian-bistro-alexandria", "name": "Kisso Asian Bistro", "image_url": "https://s3-media1.fl.yelpcdn.com/bphoto/tDpBMMNPzs0J4E4yVPYnMg/o.jpg", "is_closed": false, "url": "https://www.yelp.com/biz/kisso-asian-bistro-alexandria?adjust_creative=vyhy616UjsMTA_hrWyg_5w&utm_campaign=yelp_api_v3&utm_medium=api_v3_business_search&utm_source=vyhy616UjsMTA_hrWyg_5w", "review_count": 115, "categories": [{"alias": "sushi", "title": "Sushi Bars"}, {"alias": "chinese", "title": "Chinese"}, {"alias": "asianfusion", "title": "Asian Fusion"}], "rating": 4.5, "coordinates": {"latitude": 38.80439, "longitude": -77.04268}, "transactions": ["pickup", "delivery"], "location": {"address1": "300 King St", "address2": "", "address3": null, "city": "Alexandria", "zip_code": "22314", "country": "US", "state": "VA", "display_address": ["300 King St", "Alexandria, VA 22314"]}, "phone": "+17038881513", "display_phone": "(703) 888-1513", "distance": 10162.732932052659}, {"id": "I0dN1vALiyhXcs4Sgi6pQg", "alias": "a-and-j-restaurant-rockville-3", "name": "A & J Restaurant", "image_url": "https://s3-media2.fl.yelpcdn.com/bphoto/2x3rDVcNXF7SUGXeSHtKUw/o.jpg", "is_closed": false, "url": "https://www.yelp.com/biz/a-and-j-restaurant-rockville-3?adjust_creative=vyhy616UjsMTA_hrWyg_5w&utm_campaign=yelp_api_v3&utm_medium=api_v3_business_search&utm_source=vyhy616UjsMTA_hrWyg_5w", "review_count": 885, "categories": [{"alias": "chinese", "title": "Chinese"}, {"alias": "taiwanese", "title": "Taiwanese"}, {"alias": "noodles", "title": "Noodles"}], "rating": 4.0, "coordinates": {"latitude": 39.06872, "longitude": -77.13084}, "transactions": ["delivery"], "price": "$", "location": {"address1": "1319 Rockville Pike", "address2": "Ste C", "address3": "", "city": "Rockville", "zip_code": "20852", "country": "US", "state": "MD", "display_address": ["1319 Rockville Pike", "Ste C", "Rockville, MD 20852"]}, "phone": "+13012517878", "display_phone": "(301) 251-7878", "distance": 21980.774266387994}, {"id": "dD1y-S-PlBe4FyY6FusUPg", "alias": "imm-thai-on-h-washington-2", "name": "Imm Thai on H", "image_url": "https://s3-media3.fl.yelpcdn.com/bphoto/5CZmbLWRmA2_1PyCJeqRsA/o.jpg", "is_closed": false, "url": "https://www.yelp.com/biz/imm-thai-on-h-washington-2?adjust_creative=vyhy616UjsMTA_hrWyg_5w&utm_campaign=yelp_api_v3&utm_medium=api_v3_business_search&utm_source=vyhy616UjsMTA_hrWyg_5w", "review_count": 294, "categories": [{"alias": "sushi", "title": "Sushi Bars"}, {"alias": "thai", "title": "Thai"}], "rating": 4.0, "coordinates": {"latitude": 38.900446, "longitude": -76.986283}, "transactions": ["pickup", "delivery"], "price": "$$", "location": {"address1": "1360 H St NE", "address2": "", "address3": "", "city": "Washington, DC", "zip_code": "20002", "country": "US", "state": "DC", "display_address": ["1360 H St NE", "Washington, DC 20002"]}, "phone": "+12027485536", "display_phone": "(202) 748-5536", "distance": 2551.001606502653}], "total": 1900, "region": {"center": {"longitude": -77.01416015625, "latitude": 38.89298961361182}}}