{"businesses": [{"id": "SYcdJP123caYVCkZ27BIOw", "alias": "southeast-kitchen-wilmington", "name": "Southeast Kitchen", "image_url": "https://s3-media4.fl.yelpcdn.com/bphoto/vc2fZJbOJY7kuN6xxDjkVw/o.jpg", "is_closed": false, "url": "https://www.yelp.com/biz/southeast-kitchen-wilmington?adjust_creative=vyhy616UjsMTA_hrWyg_5w&utm_campaign=yelp_api_v3&utm_medium=api_v3_business_search&utm_source=vyhy616UjsMTA_hrWyg_5w", "review_count": 229, "categories": [{"alias": "vietnamese", "title": "Vietnamese"}, {"alias": "thai", "title": "Thai"}], "rating": 4.0, "coordinates": {"latitude": 39.759952, "longitude": -75.564244}, "transactions": ["delivery"], "price": "$$", "location": {"address1": "1901 Delaware Ave", "address2": "", "address3": "", "city": "Wilmington", "zip_code": "19806", "country": "US", "state": "DE", "display_address": ["1901 Delaware Ave", "Wilmington, DE 19806"]}, "phone": "+13026917728", "display_phone": "(302) 691-7728", "distance": 939.0072066339528}, {"id": "K6SQfxBapNAIVr_C73ohlw", "alias": "rasa-sayang-wilmington", "name": "Rasa Sayang", "image_url": "https://s3-media1.fl.yelpcdn.com/bphoto/lN0qyFCCWxxEQZt8S-nymA/o.jpg", "is_closed": false, "url": "https://www.yelp.com/biz/rasa-sayang-wilmington?adjust_creative=vyhy616UjsMTA_hrWyg_5w&utm_campaign=yelp_api_v3&utm_medium=api_v3_business_search&utm_source=vyhy616UjsMTA_hrWyg_5w", "review_count": 251, "categories": [{"alias": "malaysian", "title": "Malaysian"}, {"alias": "thai", "title": "Thai"}], "rating": 4.0, "coordinates": {"latitude": 39.780752, "longitude": -75.544136}, "transactions": ["delivery", "pickup"], "price": "$$", "location": {"address1": "1601 Concord Pike", "address2": "Ste 73", "address3": "", "city": "Wilmington", "zip_code": "19803", "country": "US", "state": "DE", "display_address": ["1601 Concord Pike", "Ste 73", "Wilmington, DE 19803"]}, "phone": "+13025435286", "display_phone": "(302) 543-5286", "distance": 2226.6517658592466}, {"id": "VbzoVWEPSfzaIGBq4KlVwQ", "alias": "soybean-asian-grille-wilmington", "name": "Soybean Asian Grille", "image_url": "https://s3-media2.fl.yelpcdn.com/bphoto/aNY0dxu9K7lYB1Zx1lyy0w/o.jpg", "is_closed": false, "url": "https://www.yelp.com/biz/soybean-asian-grille-wilmington?adjust_creative=vyhy616UjsMTA_hrWyg_5w&utm_campaign=yelp_api_v3&utm_medium=api_v3_business_search&utm_source=vyhy616UjsMTA_hrWyg_5w", "review_count": 159, "categories": [{"alias": "thai", "title": "Thai"}, {"alias": "chinese", "title": "Chinese"}, {"alias": "asianfusion", "title": "Asian Fusion"}], "rating": 4.5, "coordinates": {"latitude": 39.7392170075027, "longitude": -75.6925452853584}, "transactions": ["delivery", "pickup"], "price": "$$", "location": {"address1": "4702 Limestone Rd", "address2": "", "address3": "", "city": "Wilmington", "zip_code": "19808", "country": "US", "state": "DE", "display_address": ["4702 Limestone Rd", "Wilmington, DE 19808"]}, "phone": "+13026360800", "display_phone": "(302) 636-0800", "distance": 11404.301974991815}, {"id": "qJcmu67ZEQ4bd1m9Kh_T1w", "alias": "kalbi-asian-bistro-wilmington", "name": "Kalbi Asian Bistro", "image_url": "https://s3-media1.fl.yelpcdn.com/bphoto/Xz71uDgimbo1JRUzazAhLA/o.jpg", "is_closed": false, "url": "https://www.yelp.com/biz/kalbi-asian-bistro-wilmington?adjust_creative=vyhy616UjsMTA_hrWyg_5w&utm_campaign=yelp_api_v3&utm_medium=api_v3_business_search&utm_source=vyhy616UjsMTA_hrWyg_5w", "review_count": 102, "categories": [{"alias": "korean", "title": "Korean"}], "rating": 3.5, "coordinates": {"latitude": 39.73893, "longitude": -75.60866}, "transactions": ["delivery"], "price": "$$", "location": {"address1": "2011 Kirkwood Hwy", "address2": "", "address3": "", "city": "Wilmington", "zip_code": "19805", "country": "US", "state": "DE", "display_address": ["2011 Kirkwood Hwy", "Wilmington, DE 19805"]}, "phone": "+13029984310", "display_phone": "(302) 998-4310", "distance": 4997.370939085818}, {"id": "jpEhAUyitrgwDatsgeBgXg", "alias": "bangkok-house-restaurant-wilmington", "name": "Bangkok House Restaurant", "image_url": "https://s3-media2.fl.yelpcdn.com/bphoto/6MJSH56vTiFALTUZGOFMVw/o.jpg", "is_closed": false, "url": "https://www.yelp.com/biz/bangkok-house-restaurant-wilmington?adjust_creative=vyhy616UjsMTA_hrWyg_5w&utm_campaign=yelp_api_v3&utm_medium=api_v3_business_search&utm_source=vyhy616UjsMTA_hrWyg_5w", "review_count": 71, "categories": [{"alias": "thai", "title": "Thai"}], "rating": 4.0, "coordinates": {"latitude": 39.747164, "longitude": -75.5742093}, "transactions": ["delivery", "pickup"], "price": "$$", "location": {"address1": "104 N Union St", "address2": "", "address3": "", "city": "Wilmington", "zip_code": "19805", "country": "US", "state": "DE", "display_address": ["104 N Union St", "Wilmington, DE 19805"]}, "phone": "+13026548555", "display_phone": "(302) 654-8555", "distance": 2491.750352585146}, {"id": "Te4yTJ7blab4s_JTAF71Iw", "alias": "sakura-japanese-sushi-restaurant-wilmington-4", "name": "Sakura Japanese Sushi Restaurant", "image_url": "https://s3-media2.fl.yelpcdn.com/bphoto/cLn4WDryhxDKbF6_m9lVSg/o.jpg", "is_closed": false, "url": "https://www.yelp.com/biz/sakura-japanese-sushi-restaurant-wilmington-4?adjust_creative=vyhy616UjsMTA_hrWyg_5w&utm_campaign=yelp_api_v3&utm_medium=api_v3_business_search&utm_source=vyhy616UjsMTA_hrWyg_5w", "review_count": 170, "categories": [{"alias": "sushi", "title": "Sushi Bars"}, {"alias": "japanese", "title": "Japanese"}, {"alias": "noodles", "title": "Noodles"}], "rating": 4.5, "coordinates": {"latitude": 39.7396, "longitude": -75.60085}, "transactions": ["delivery"], "price": "$$", "location": {"address1": "1203 Kirkwood Hwy", "address2": "", "address3": "", "city": "Wilmington", "zip_code": "19805", "country": "US", "state": "DE", "display_address": ["1203 Kirkwood Hwy", "Wilmington, DE 19805"]}, "phone": "+13025882323", "display_phone": "(302) 588-2323", "distance": 4445.074004568402}, {"id": "VkHexf3mBy-8hu2vsSVd4g", "alias": "yong-kang-street-newark", "name": "Yong Kang Street", "image_url": "https://s3-media3.fl.yelpcdn.com/bphoto/HiHY-4vMCQMSGxAZSAV-3w/o.jpg", "is_closed": false, "url": "https://www.yelp.com/biz/yong-kang-street-newark?adjust_creative=vyhy616UjsMTA_hrWyg_5w&utm_campaign=yelp_api_v3&utm_medium=api_v3_business_search&utm_source=vyhy616UjsMTA_hrWyg_5w", "review_count": 95, "categories": [{"alias": "sushi", "title": "Sushi Bars"}, {"alias": "asianfusion", "title": "Asian Fusion"}, {"alias": "ramen", "title": "Ramen"}], "rating": 4.0, "coordinates": {"latitude": 39.679591, "longitude": -75.651851}, "transactions": ["delivery", "pickup"], "price": "$$", "location": {"address1": "132 Christiana Mall", "address2": "", "address3": null, "city": "Newark", "zip_code": "19702", "country": "US", "state": "DE", "display_address": ["132 Christiana Mall", "Newark, DE 19702"]}, "phone": "+13027816001", "display_phone": "(302) 781-6001", "distance": 12373.901353043308}, {"id": "KbB46s78-nkFqwWB0UbLxg", "alias": "lily-asian-cuisine-sushi-and-grill-kennett-square-4", "name": "Lily Asian Cuisine Sushi & Grill", "image_url": "https://s3-media4.fl.yelpcdn.com/bphoto/JNSH9ex2x7cG81k7PeoMxg/o.jpg", "is_closed": false, "url": "https://www.yelp.com/biz/lily-asian-cuisine-sushi-and-grill-kennett-square-4?adjust_creative=vyhy616UjsMTA_hrWyg_5w&utm_campaign=yelp_api_v3&utm_medium=api_v3_business_search&utm_source=vyhy616UjsMTA_hrWyg_5w", "review_count": 170, "categories": [{"alias": "sushi", "title": "Sushi Bars"}, {"alias": "japanese", "title": "Japanese"}, {"alias": "asianfusion", "title": "Asian Fusion"}], "rating": 4.0, "coordinates": {"latitude": 39.8464, "longitude": -75.71178}, "transactions": ["delivery", "pickup"], "price": "$$", "location": {"address1": "104 W State St", "address2": "", "address3": "", "city": "Kennett Square", "zip_code": "19348", "country": "US", "state": "PA", "display_address": ["104 W State St", "Kennett Square, PA 19348"]}, "phone": "+16109253700", "display_phone": "(610) 925-3700", "distance": 15285.843746995868}, {"id": "WNjgS5H-64kIprMOPnVkaQ", "alias": "koy-restaurant-glen-mills-2", "name": "Koy Restaurant", "image_url": "https://s3-media2.fl.yelpcdn.com/bphoto/maIqlx22kSkctVeut0crtw/o.jpg", "is_closed": false, "url": "https://www.yelp.com/biz/koy-restaurant-glen-mills-2?adjust_creative=vyhy616UjsMTA_hrWyg_5w&utm_campaign=yelp_api_v3&utm_medium=api_v3_business_search&utm_source=vyhy616UjsMTA_hrWyg_5w", "review_count": 35, "categories": [{"alias": "japanese", "title": "Japanese"}, {"alias": "sushi", "title": "Sushi Bars"}, {"alias": "vietnamese", "title": "Vietnamese"}], "rating": 4.5, "coordinates": {"latitude": 39.858038, "longitude": -75.542155}, "transactions": ["delivery"], "location": {"address1": "391 Wilmington West Chester Pike", "address2": "Ste 5&6", "address3": "", "city": "Glen Mills", "zip_code": "19342", "country": "US", "state": "PA", "display_address": ["391 Wilmington West Chester Pike", "Ste 5&6", "Glen Mills, PA 19342"]}, "phone": "+14848004986", "display_phone": "(484) 800-4986", "distance": 10151.79596751828}, {"id": "okdrZUqb1VD_C-5EYj40Bw", "alias": "ramen-kumamoto-newark", "name": "Ramen Kumamoto", "image_url": "https://s3-media3.fl.yelpcdn.com/bphoto/Qe_Q6oeYo2w5xT_yOhgCNw/o.jpg", "is_closed": false, "url": "https://www.yelp.com/biz/ramen-kumamoto-newark?adjust_creative=vyhy616UjsMTA_hrWyg_5w&utm_campaign=yelp_api_v3&utm_medium=api_v3_business_search&utm_source=vyhy616UjsMTA_hrWyg_5w", "review_count": 392, "categories": [{"alias": "ramen", "title": "Ramen"}], "rating": 4.5, "coordinates": {"latitude": 39.6831160056787, "longitude": -75.7462319320131}, "transactions": ["delivery", "pickup"], "price": "$$", "location": {"address1": "165 E Main St", "address2": "", "address3": "", "city": "Newark", "zip_code": "19711", "country": "US", "state": "DE", "display_address": ["165 E Main St", "Newark, DE 19711"]}, "phone": "+13027330888", "display_phone": "(302) 733-0888", "distance": 18195.058452655896}, {"id": "8ANjPd5LtyPtja3h0QnXUw", "alias": "asian-house-new-castle", "name": "Asian House", "image_url": "https://s3-media4.fl.yelpcdn.com/bphoto/9nXauc8cXYAz3kwIImoYxw/o.jpg", "is_closed": false, "url": "https://www.yelp.com/biz/asian-house-new-castle?adjust_creative=vyhy616UjsMTA_hrWyg_5w&utm_campaign=yelp_api_v3&utm_medium=api_v3_business_search&utm_source=vyhy616UjsMTA_hrWyg_5w", "review_count": 79, "categories": [{"alias": "asianfusion", "title": "Asian Fusion"}, {"alias": "sushi", "title": "Sushi Bars"}], "rating": 4.5, "coordinates": {"latitude": 39.6416196935916, "longitude": -75.6248381454101}, "transactions": ["delivery"], "price": "$$", "location": {"address1": "1222 Beaver Brook Plz", "address2": "", "address3": "", "city": "New Castle", "zip_code": "19720", "country": "US", "state": "DE", "display_address": ["1222 Beaver Brook Plz", "New Castle, DE 19720"]}, "phone": "+13022761897", "display_phone": "(302) 276-1897", "distance": 15007.186031318797}, {"id": "fLeD_h6uD4yEN2ciI08RiA", "alias": "bubble-shack-wilmington", "name": "Bubble Shack", "image_url": "https://s3-media1.fl.yelpcdn.com/bphoto/GZejWeWgg2mSm7p19ZtbGw/o.jpg", "is_closed": false, "url": "https://www.yelp.com/biz/bubble-shack-wilmington?adjust_creative=vyhy616UjsMTA_hrWyg_5w&utm_campaign=yelp_api_v3&utm_medium=api_v3_business_search&utm_source=vyhy616UjsMTA_hrWyg_5w", "review_count": 94, "categories": [{"alias": "vietnamese", "title": "Vietnamese"}, {"alias": "bubbletea", "title": "Bubble Tea"}, {"alias": "asianfusion", "title": "Asian Fusion"}], "rating": 4.5, "coordinates": {"latitude": 39.8006, "longitude": -75.54761}, "transactions": ["delivery", "pickup"], "price": "$", "location": {"address1": "3205 Concord Pike", "address2": null, "address3": "", "city": "Wilmington", "zip_code": "19803", "country": "US", "state": "DE", "display_address": ["3205 Concord Pike", "Wilmington, DE 19803"]}, "phone": "+13028873087", "display_phone": "(302) 887-3087", "distance": 3893.3532057077196}, {"id": "UwwimB6EoAsKJ6BCVBifVw", "alias": "masamoto-sushi-and-asian-grill-chadds-ford", "name": "Masamoto Sushi & Asian Grill", "image_url": "https://s3-media4.fl.yelpcdn.com/bphoto/MbnUB0xrsKvEPr6GBjj2oA/o.jpg", "is_closed": false, "url": "https://www.yelp.com/biz/masamoto-sushi-and-asian-grill-chadds-ford?adjust_creative=vyhy616UjsMTA_hrWyg_5w&utm_campaign=yelp_api_v3&utm_medium=api_v3_business_search&utm_source=vyhy616UjsMTA_hrWyg_5w", "review_count": 192, "categories": [{"alias": "sushi", "title": "Sushi Bars"}, {"alias": "asianfusion", "title": "Asian Fusion"}], "rating": 4.0, "coordinates": {"latitude": 39.868747, "longitude": -75.545233}, "transactions": [], "price": "$$", "location": {"address1": "Keystone Plz", "address2": "", "address3": "1810 Wilmington Pike", "city": "Chadds Ford", "zip_code": "19342", "country": "US", "state": "PA", "display_address": ["Keystone Plz", "1810 Wilmington Pike", "Chadds Ford, PA 19342"]}, "phone": "+16103585538", "display_phone": "(610) 358-5538", "distance": 11281.643904619781}, {"id": "YvkadIJ-G9OPpnCOSW2ISg", "alias": "le-shio-wilmington", "name": "Le Shio", "image_url": "https://s3-media2.fl.yelpcdn.com/bphoto/_QOC9rGkzk0B8Dh8SgvrmA/o.jpg", "is_closed": false, "url": "https://www.yelp.com/biz/le-shio-wilmington?adjust_creative=vyhy616UjsMTA_hrWyg_5w&utm_campaign=yelp_api_v3&utm_medium=api_v3_business_search&utm_source=vyhy616UjsMTA_hrWyg_5w", "review_count": 197, "categories": [{"alias": "asianfusion", "title": "Asian Fusion"}], "rating": 3.5, "coordinates": {"latitude": 39.79212, "longitude": -75.5460499}, "transactions": ["delivery"], "price": "$$", "location": {"address1": "2303 Concord Pike", "address2": "", "address3": "", "city": "Wilmington", "zip_code": "19803", "country": "US", "state": "DE", "display_address": ["2303 Concord Pike", "Wilmington, DE 19803"]}, "phone": "+13028880145", "display_phone": "(302) 888-0145", "distance": 3081.498569127607}, {"id": "VlzexKYF6St7-N4tAoGBqg", "alias": "pinang-asian-cuisine-newark", "name": "Pinang Asian Cuisine", "image_url": "https://s3-media1.fl.yelpcdn.com/bphoto/sb5PHdBZs_24oQyMH_Ao4g/o.jpg", "is_closed": false, "url": "https://www.yelp.com/biz/pinang-asian-cuisine-newark?adjust_creative=vyhy616UjsMTA_hrWyg_5w&utm_campaign=yelp_api_v3&utm_medium=api_v3_business_search&utm_source=vyhy616UjsMTA_hrWyg_5w", "review_count": 136, "categories": [{"alias": "malaysian", "title": "Malaysian"}, {"alias": "asianfusion", "title": "Asian Fusion"}, {"alias": "thai", "title": "Thai"}], "rating": 4.0, "coordinates": {"latitude": 39.7114628, "longitude": -75.7422018}, "transactions": ["delivery", "pickup"], "price": "$$", "location": {"address1": "218 Louviers Dr", "address2": "", "address3": "Shoppes At Louviers", "city": "Newark", "zip_code": "19711", "country": "US", "state": "DE", "display_address": ["218 Louviers Dr", "Shoppes At Louviers", "Newark, DE 19711"]}, "phone": "+13023682298", "display_phone": "(302) 368-2298", "distance": 16417.531664589747}, {"id": "152JQDYumtZAFlTsmFAxaA", "alias": "nooddi-thai-chef-glen-mills", "name": "Nooddi Thai Chef", "image_url": "https://s3-media1.fl.yelpcdn.com/bphoto/Fh5ShOLrKx0etkni2slxCA/o.jpg", "is_closed": false, "url": "https://www.yelp.com/biz/nooddi-thai-chef-glen-mills?adjust_creative=vyhy616UjsMTA_hrWyg_5w&utm_campaign=yelp_api_v3&utm_medium=api_v3_business_search&utm_source=vyhy616UjsMTA_hrWyg_5w", "review_count": 126, "categories": [{"alias": "thai", "title": "Thai"}], "rating": 4.0, "coordinates": {"latitude": 39.85775896513128, "longitude": -75.54315800268527}, "transactions": [], "price": "$$", "location": {"address1": "364 Wilmington Pike", "address2": "", "address3": "Spring Water Plz", "city": "Glen Mills", "zip_code": "19342", "country": "US", "state": "PA", "display_address": ["364 Wilmington Pike", "Spring Water Plz", "Glen Mills, PA 19342"]}, "phone": "+16103618086", "display_phone": "(610) 361-8086", "distance": 10105.418145150352}, {"id": "lwJllJ5e4CLHdliOPEfgGg", "alias": "rice-restaurant-wilmington-2", "name": "Rice Restaurant", "image_url": "https://s3-media1.fl.yelpcdn.com/bphoto/v4oO2cCsbK84ipCxhWLD_A/o.jpg", "is_closed": false, "url": "https://www.yelp.com/biz/rice-restaurant-wilmington-2?adjust_creative=vyhy616UjsMTA_hrWyg_5w&utm_campaign=yelp_api_v3&utm_medium=api_v3_business_search&utm_source=vyhy616UjsMTA_hrWyg_5w", "review_count": 126, "categories": [{"alias": "japanese", "title": "Japanese"}, {"alias": "chinese", "title": "Chinese"}], "rating": 4.0, "coordinates": {"latitude": 39.7214965820312, "longitude": -75.6550979614258}, "transactions": ["delivery", "pickup"], "price": "$$", "location": {"address1": "2015 Limestone Rd", "address2": "", "address3": "", "city": "Wilmington", "zip_code": "19808", "country": "US", "state": "DE", "display_address": ["2015 Limestone Rd", "Wilmington, DE 19808"]}, "phone": "+13029997423", "display_phone": "(302) 999-7423", "distance": 9333.190555201329}, {"id": "yFxxhrdtDfmNF4xcXeem8A", "alias": "takumi-wilmington", "name": "Takumi", "image_url": "https://s3-media3.fl.yelpcdn.com/bphoto/o8RlMAgUVQvH4UdGsYfxiQ/o.jpg", "is_closed": false, "url": "https://www.yelp.com/biz/takumi-wilmington?adjust_creative=vyhy616UjsMTA_hrWyg_5w&utm_campaign=yelp_api_v3&utm_medium=api_v3_business_search&utm_source=vyhy616UjsMTA_hrWyg_5w", "review_count": 185, "categories": [{"alias": "sushi", "title": "Sushi Bars"}, {"alias": "chinese", "title": "Chinese"}, {"alias": "japanese", "title": "Japanese"}], "rating": 3.5, "coordinates": {"latitude": 39.780521, "longitude": -75.543378}, "transactions": ["delivery", "pickup"], "price": "$$", "location": {"address1": "1601 Concord Pike", "address2": "", "address3": "Independence Mall", "city": "Wilmington", "zip_code": "19803", "country": "US", "state": "DE", "display_address": ["1601 Concord Pike", "Independence Mall", "Wilmington, DE 19803"]}, "phone": "+13026588887", "display_phone": "(302) 658-8887", "distance": 2263.754136484764}, {"id": "yJ2585fQD8lcuckZ4QIdmw", "alias": "pho-bami-wilmington", "name": "Pho Bami", "image_url": "https://s3-media1.fl.yelpcdn.com/bphoto/MCUXgePFWjsxWUQKKvU5_Q/o.jpg", "is_closed": false, "url": "https://www.yelp.com/biz/pho-bami-wilmington?adjust_creative=vyhy616UjsMTA_hrWyg_5w&utm_campaign=yelp_api_v3&utm_medium=api_v3_business_search&utm_source=vyhy616UjsMTA_hrWyg_5w", "review_count": 70, "categories": [{"alias": "vietnamese", "title": "Vietnamese"}], "rating": 4.5, "coordinates": {"latitude": 39.790015, "longitude": -75.545765}, "transactions": ["delivery", "pickup"], "location": {"address1": "2113 Concord Pike", "address2": "", "address3": null, "city": "Wilmington", "zip_code": "19803", "country": "US", "state": "DE", "display_address": ["2113 Concord Pike", "Wilmington, DE 19803"]}, "phone": "+13022597788", "display_phone": "(302) 259-7788", "distance": 2925.9145511018783}, {"id": "ramBBnf8_ZAZ16aUnSUMJg", "alias": "toms-dim-sum-media", "name": "Tom's Dim Sum", "image_url": "https://s3-media2.fl.yelpcdn.com/bphoto/sniOjOjMXs5TxZV4mSqKwg/o.jpg", "is_closed": false, "url": "https://www.yelp.com/biz/toms-dim-sum-media?adjust_creative=vyhy616UjsMTA_hrWyg_5w&utm_campaign=yelp_api_v3&utm_medium=api_v3_business_search&utm_source=vyhy616UjsMTA_hrWyg_5w", "review_count": 280, "categories": [{"alias": "dimsum", "title": "Dim Sum"}, {"alias": "shanghainese", "title": "Shanghainese"}], "rating": 4.0, "coordinates": {"latitude": 39.918103, "longitude": -75.388817}, "transactions": ["delivery", "pickup"], "price": "$$", "location": {"address1": "13 E State St", "address2": "", "address3": null, "city": "Media", "zip_code": "19063", "country": "US", "state": "PA", "display_address": ["13 E State St", "Media, PA 19063"]}, "phone": "+16105666688", "display_phone": "(610) 566-6688", "distance": 22413.280177245164}, {"id": "3lz2SeaByGnNHkqefOOw7g", "alias": "hachi-asian-fusion-wilmington", "name": "Hachi Asian Fusion", "image_url": "https://s3-media2.fl.yelpcdn.com/bphoto/BiVfXyaENjQpnEGhaJee3A/o.jpg", "is_closed": false, "url": "https://www.yelp.com/biz/hachi-asian-fusion-wilmington?adjust_creative=vyhy616UjsMTA_hrWyg_5w&utm_campaign=yelp_api_v3&utm_medium=api_v3_business_search&utm_source=vyhy616UjsMTA_hrWyg_5w", "review_count": 37, "categories": [{"alias": "asianfusion", "title": "Asian Fusion"}, {"alias": "sushi", "title": "Sushi Bars"}], "rating": 4.0, "coordinates": {"latitude": 39.71463, "longitude": -75.62979}, "transactions": ["delivery", "pickup"], "location": {"address1": "1724 W Newport Pike", "address2": null, "address3": "", "city": "Wilmington", "zip_code": "19804", "country": "US", "state": "DE", "display_address": ["1724 W Newport Pike", "Wilmington, DE 19804"]}, "phone": "+13022560757", "display_phone": "(302) 256-0757", "distance": 8211.71756949078}, {"id": "gfIj5FvIejEiex4WV04wIQ", "alias": "ubon-thai-cuisine-wilmington", "name": "Ubon Thai Cuisine", "image_url": "https://s3-media4.fl.yelpcdn.com/bphoto/adbrVvrJXRdMqdHJ2Ond3w/o.jpg", "is_closed": false, "url": "https://www.yelp.com/biz/ubon-thai-cuisine-wilmington?adjust_creative=vyhy616UjsMTA_hrWyg_5w&utm_campaign=yelp_api_v3&utm_medium=api_v3_business_search&utm_source=vyhy616UjsMTA_hrWyg_5w", "review_count": 193, "categories": [{"alias": "thai", "title": "Thai"}, {"alias": "bars", "title": "Bars"}], "rating": 3.5, "coordinates": {"latitude": 39.72936, "longitude": -75.56237}, "transactions": ["delivery", "pickup"], "price": "$$", "location": {"address1": "936 Justinson St", "address2": "", "address3": "", "city": "Wilmington", "zip_code": "19801", "country": "US", "state": "DE", "display_address": ["936 Justinson St", "Wilmington, DE 19801"]}, "phone": "+13026561706", "display_phone": "(302) 656-1706", "distance": 4342.065928236316}, {"id": "4KeDI6AarKx-kA-GSoADIQ", "alias": "korean-barbecue-and-sushi-bar-newark", "name": "Korean Barbecue & Sushi Bar", "image_url": "https://s3-media2.fl.yelpcdn.com/bphoto/VQNjCKeTI7X6lnyLkOW_gA/o.jpg", "is_closed": false, "url": "https://www.yelp.com/biz/korean-barbecue-and-sushi-bar-newark?adjust_creative=vyhy616UjsMTA_hrWyg_5w&utm_campaign=yelp_api_v3&utm_medium=api_v3_business_search&utm_source=vyhy616UjsMTA_hrWyg_5w", "review_count": 80, "categories": [{"alias": "korean", "title": "Korean"}, {"alias": "sushi", "title": "Sushi Bars"}, {"alias": "bbq", "title": "Barbeque"}], "rating": 3.5, "coordinates": {"latitude": 39.6936554902102, "longitude": -75.7195161647183}, "transactions": [], "price": "$$", "location": {"address1": "3 Liberty Plz", "address2": "", "address3": "", "city": "Newark", "zip_code": "19711", "country": "US", "state": "DE", "display_address": ["3 Liberty Plz", "Newark, DE 19711"]}, "phone": "+13024559100", "display_phone": "(302) 455-9100", "distance": 15634.637015183296}, {"id": "nUwlAKUoxCJb3SDAxpymbA", "alias": "mimi-teriyaki-wilmington", "name": "Mimi Teriyaki", "image_url": "https://s3-media1.fl.yelpcdn.com/bphoto/ku57zspGXORRKDX6EP6mEg/o.jpg", "is_closed": false, "url": "https://www.yelp.com/biz/mimi-teriyaki-wilmington?adjust_creative=vyhy616UjsMTA_hrWyg_5w&utm_campaign=yelp_api_v3&utm_medium=api_v3_business_search&utm_source=vyhy616UjsMTA_hrWyg_5w", "review_count": 11, "categories": [{"alias": "chinese", "title": "Chinese"}, {"alias": "japanese", "title": "Japanese"}], "rating": 4.5, "coordinates": {"latitude": 39.746023, "longitude": -75.549364}, "transactions": ["delivery"], "location": {"address1": "925 N Orange St", "address2": "", "address3": null, "city": "Wilmington", "zip_code": "19801", "country": "US", "state": "DE", "display_address": ["925 N Orange St", "Wilmington, DE 19801"]}, "phone": "+13026552400", "display_phone": "(302) 655-2400", "distance": 2811.408073541244}, {"id": "msp4nQ9YPzSA7d6fVbSrAA", "alias": "tree-garden-wilmington", "name": "Tree Garden", "image_url": "https://s3-media1.fl.yelpcdn.com/bphoto/JbZfUYQSkH8F5dpPezGPnQ/o.jpg", "is_closed": false, "url": "https://www.yelp.com/biz/tree-garden-wilmington?adjust_creative=vyhy616UjsMTA_hrWyg_5w&utm_campaign=yelp_api_v3&utm_medium=api_v3_business_search&utm_source=vyhy616UjsMTA_hrWyg_5w", "review_count": 55, "categories": [{"alias": "japanese", "title": "Japanese"}, {"alias": "sushi", "title": "Sushi Bars"}, {"alias": "chinese", "title": "Chinese"}], "rating": 4.0, "coordinates": {"latitude": 39.73246, "longitude": -75.66634}, "transactions": ["delivery", "pickup"], "price": "$$", "location": {"address1": "1317 McKennans Church Rd", "address2": "", "address3": "", "city": "Wilmington", "zip_code": "19808", "country": "US", "state": "DE", "display_address": ["1317 McKennans Church Rd", "Wilmington, DE 19808"]}, "phone": "+13029998878", "display_phone": "(302) 999-8878", "distance": 9570.397350194808}, {"id": "y_ErDiWeXxyYcL1_U966qQ", "alias": "yi-palace-wilmington", "name": "Yi Palace", "image_url": "https://s3-media1.fl.yelpcdn.com/bphoto/iFsGTRlGQXyzGjb4bjmbNQ/o.jpg", "is_closed": false, "url": "https://www.yelp.com/biz/yi-palace-wilmington?adjust_creative=vyhy616UjsMTA_hrWyg_5w&utm_campaign=yelp_api_v3&utm_medium=api_v3_business_search&utm_source=vyhy616UjsMTA_hrWyg_5w", "review_count": 112, "categories": [{"alias": "chinese", "title": "Chinese"}], "rating": 3.5, "coordinates": {"latitude": 39.814853, "longitude": -75.548638}, "transactions": ["delivery"], "price": "$$", "location": {"address1": "4435 Concord Pike", "address2": "", "address3": "", "city": "Wilmington", "zip_code": "19803", "country": "US", "state": "DE", "display_address": ["4435 Concord Pike", "Wilmington, DE 19803"]}, "phone": "+13024776900", "display_phone": "(302) 477-6900", "distance": 5344.441001394992}, {"id": "ncYKcEcZAS8RiBhxyfztNw", "alias": "americana-asian-kitchen-garnet-valley", "name": "Americana Asian Kitchen", "image_url": "https://s3-media2.fl.yelpcdn.com/bphoto/ct3PlKTq-UnxXCdQ5ySVbQ/o.jpg", "is_closed": false, "url": "https://www.yelp.com/biz/americana-asian-kitchen-garnet-valley?adjust_creative=vyhy616UjsMTA_hrWyg_5w&utm_campaign=yelp_api_v3&utm_medium=api_v3_business_search&utm_source=vyhy616UjsMTA_hrWyg_5w", "review_count": 24, "categories": [{"alias": "asianfusion", "title": "Asian Fusion"}, {"alias": "chinese", "title": "Chinese"}, {"alias": "thai", "title": "Thai"}], "rating": 4.0, "coordinates": {"latitude": 39.8436974875939, "longitude": -75.5155684053898}, "transactions": ["delivery", "pickup"], "location": {"address1": "1104 Naamans Creek Rd", "address2": "", "address3": null, "city": "Garnet Valley", "zip_code": "19060", "country": "US", "state": "PA", "display_address": ["1104 Naamans Creek Rd", "Garnet Valley, PA 19060"]}, "phone": "+16103581800", "display_phone": "(610) 358-1800", "distance": 9364.725659992215}, {"id": "Xjal8g4PsYinAfeQ8RWf4Q", "alias": "wasabi2-west-chester-3", "name": "Wasabi2", "image_url": "https://s3-media2.fl.yelpcdn.com/bphoto/CCR2W95QfwkQJy3Rnmdn9w/o.jpg", "is_closed": false, "url": "https://www.yelp.com/biz/wasabi2-west-chester-3?adjust_creative=vyhy616UjsMTA_hrWyg_5w&utm_campaign=yelp_api_v3&utm_medium=api_v3_business_search&utm_source=vyhy616UjsMTA_hrWyg_5w", "review_count": 79, "categories": [{"alias": "chinese", "title": "Chinese"}, {"alias": "sushi", "title": "Sushi Bars"}, {"alias": "japanese", "title": "Japanese"}], "rating": 4.5, "coordinates": {"latitude": 39.9023389, "longitude": -75.5615392}, "transactions": ["delivery", "pickup"], "price": "$$", "location": {"address1": "1375 Dilworthtown Crossing", "address2": null, "address3": "", "city": "West Chester", "zip_code": "19382", "country": "US", "state": "PA", "display_address": ["1375 Dilworthtown Crossing", "West Chester, PA 19382"]}, "phone": "+16103990999", "display_phone": "(610) 399-0999", "distance": 15052.556978384986}, {"id": "KzGXMHnlrknUhEjNyD8yZQ", "alias": "pho-cali-wilmington", "name": "Pho Cali", "image_url": "https://s3-media3.fl.yelpcdn.com/bphoto/MqqgdWo2xFsj9DdEi1g94g/o.jpg", "is_closed": false, "url": "https://www.yelp.com/biz/pho-cali-wilmington?adjust_creative=vyhy616UjsMTA_hrWyg_5w&utm_campaign=yelp_api_v3&utm_medium=api_v3_business_search&utm_source=vyhy616UjsMTA_hrWyg_5w", "review_count": 119, "categories": [{"alias": "vietnamese", "title": "Vietnamese"}], "rating": 3.5, "coordinates": {"latitude": 39.7285205101321, "longitude": -75.6532075061309}, "transactions": ["delivery", "pickup"], "price": "$", "location": {"address1": "4373 Kirkwood Hwy", "address2": "", "address3": "", "city": "Wilmington", "zip_code": "19808", "country": "US", "state": "DE", "display_address": ["4373 Kirkwood Hwy", "Wilmington, DE 19808"]}, "phone": "+13029998107", "display_phone": "(302) 999-8107", "distance": 8773.473749524717}, {"id": "kfXc2ltpRCkqA4yV87jj7A", "alias": "kapow-kitchen-garnet-valley", "name": "Kapow Kitchen", "image_url": "https://s3-media2.fl.yelpcdn.com/bphoto/6iTMbX79MrNHCqOCho4puw/o.jpg", "is_closed": false, "url": "https://www.yelp.com/biz/kapow-kitchen-garnet-valley?adjust_creative=vyhy616UjsMTA_hrWyg_5w&utm_campaign=yelp_api_v3&utm_medium=api_v3_business_search&utm_source=vyhy616UjsMTA_hrWyg_5w", "review_count": 31, "categories": [{"alias": "thai", "title": "Thai"}, {"alias": "foodtrucks", "title": "Food Trucks"}, {"alias": "asianfusion", "title": "Asian Fusion"}], "rating": 4.0, "coordinates": {"latitude": 39.840771, "longitude": -75.496239}, "transactions": ["delivery"], "price": "$$", "location": {"address1": "1362 Naamans Creek Rd", "address2": "", "address3": "Booths Corner Farmers Market", "city": "Garnet Valley", "zip_code": "19060", "country": "US", "state": "PA", "display_address": ["1362 Naamans Creek Rd", "Booths Corner Farmers Market", "Garnet Valley, PA 19060"]}, "phone": "+14844808442", "display_phone": "(484) 480-8442", "distance": 9946.239331668448}, {"id": "byc92hBKz0DKvjcpl76LRQ", "alias": "jasmine-asian-cuisine-wilmington", "name": "Jasmine Asian cuisine", "image_url": "https://s3-media2.fl.yelpcdn.com/bphoto/7it8fqTO68Nky_uu-oygTA/o.jpg", "is_closed": false, "url": "https://www.yelp.com/biz/jasmine-asian-cuisine-wilmington?adjust_creative=vyhy616UjsMTA_hrWyg_5w&utm_campaign=yelp_api_v3&utm_medium=api_v3_business_search&utm_source=vyhy616UjsMTA_hrWyg_5w", "review_count": 140, "categories": [{"alias": "sushi", "title": "Sushi Bars"}, {"alias": "chinese", "title": "Chinese"}, {"alias": "japanese", "title": "Japanese"}], "rating": 3.0, "coordinates": {"latitude": 39.803831, "longitude": -75.5497}, "transactions": ["delivery", "pickup"], "price": "$$", "location": {"address1": "3618 Concord Pike", "address2": "", "address3": "", "city": "Wilmington", "zip_code": "19803", "country": "US", "state": "DE", "display_address": ["3618 Concord Pike", "Wilmington, DE 19803"]}, "phone": "+13024795618", "display_phone": "(302) 479-5618", "distance": 4142.667196971297}, {"id": "Ct_g_xmNh1wvpfTD-QLI8Q", "alias": "vpho-newark", "name": "vPho", "image_url": "https://s3-media1.fl.yelpcdn.com/bphoto/b0WY2Y1CManL9bbRfeI4kg/o.jpg", "is_closed": false, "url": "https://www.yelp.com/biz/vpho-newark?adjust_creative=vyhy616UjsMTA_hrWyg_5w&utm_campaign=yelp_api_v3&utm_medium=api_v3_business_search&utm_source=vyhy616UjsMTA_hrWyg_5w", "review_count": 195, "categories": [{"alias": "vietnamese", "title": "Vietnamese"}, {"alias": "salad", "title": "Salad"}, {"alias": "acaibowls", "title": "Acai Bowls"}], "rating": 4.5, "coordinates": {"latitude": 39.708392, "longitude": -75.68442}, "transactions": ["delivery", "pickup"], "price": "$$", "location": {"address1": "2671 Kirkwood Hwy", "address2": null, "address3": "", "city": "Newark", "zip_code": "19711", "country": "US", "state": "DE", "display_address": ["2671 Kirkwood Hwy", "Newark, DE 19711"]}, "phone": "+13023693993", "display_phone": "(302) 369-3993", "distance": 12222.331023097286}, {"id": "ELgR35KIlpuTMeWi6tFP7g", "alias": "mikimotos-japanese-restaurant-and-sushi-bar-wilmington", "name": "Mikimotos Japanese Restaurant & Sushi Bar", "image_url": "https://s3-media2.fl.yelpcdn.com/bphoto/hs_WCPl64xKQhcJWKMD_Gg/o.jpg", "is_closed": false, "url": "https://www.yelp.com/biz/mikimotos-japanese-restaurant-and-sushi-bar-wilmington?adjust_creative=vyhy616UjsMTA_hrWyg_5w&utm_campaign=yelp_api_v3&utm_medium=api_v3_business_search&utm_source=vyhy616UjsMTA_hrWyg_5w", "review_count": 262, "categories": [{"alias": "japanese", "title": "Japanese"}, {"alias": "sushi", "title": "Sushi Bars"}, {"alias": "bars", "title": "Bars"}], "rating": 3.0, "coordinates": {"latitude": 39.74932033, "longitude": -75.54999427}, "transactions": ["delivery"], "price": "$$", "location": {"address1": "1212 N Washington St", "address2": "", "address3": "", "city": "Wilmington", "zip_code": "19801", "country": "US", "state": "DE", "display_address": ["1212 N Washington St", "Wilmington, DE 19801"]}, "phone": "+13026568638", "display_phone": "(302) 656-8638", "distance": 2463.0237642910806}, {"id": "SRg4QRR7xQrZ6cp9u8VX9g", "alias": "potstickers-asian-grill-newark", "name": "Potstickers Asian Grill", "image_url": "https://s3-media4.fl.yelpcdn.com/bphoto/RWSzFAx2ykaVd4wO6vEbKA/o.jpg", "is_closed": false, "url": "https://www.yelp.com/biz/potstickers-asian-grill-newark?adjust_creative=vyhy616UjsMTA_hrWyg_5w&utm_campaign=yelp_api_v3&utm_medium=api_v3_business_search&utm_source=vyhy616UjsMTA_hrWyg_5w", "review_count": 207, "categories": [{"alias": "chinese", "title": "Chinese"}, {"alias": "sushi", "title": "Sushi Bars"}, {"alias": "asianfusion", "title": "Asian Fusion"}], "rating": 3.5, "coordinates": {"latitude": 39.6908343509452, "longitude": -75.6607381306885}, "transactions": ["delivery", "pickup"], "price": "$$", "location": {"address1": "1247 Churchmans Rd", "address2": "", "address3": "Centre Point Plaza II", "city": "Newark", "zip_code": "19713", "country": "US", "state": "DE", "display_address": ["1247 Churchmans Rd", "Centre Point Plaza II", "Newark, DE 19713"]}, "phone": "+13027310188", "display_phone": "(302) 731-0188", "distance": 11911.773180046901}, {"id": "5R6YO6K9PkthkTbXqV9slQ", "alias": "sakura-japanese-restaurant-wilmington-4", "name": "Sakura Japanese Restaurant", "image_url": "https://s3-media3.fl.yelpcdn.com/bphoto/6NIXbTnNwZ6pBfutL4JvfA/o.jpg", "is_closed": false, "url": "https://www.yelp.com/biz/sakura-japanese-restaurant-wilmington-4?adjust_creative=vyhy616UjsMTA_hrWyg_5w&utm_campaign=yelp_api_v3&utm_medium=api_v3_business_search&utm_source=vyhy616UjsMTA_hrWyg_5w", "review_count": 77, "categories": [{"alias": "sushi", "title": "Sushi Bars"}, {"alias": "japanese", "title": "Japanese"}, {"alias": "noodles", "title": "Noodles"}], "rating": 4.0, "coordinates": {"latitude": 39.72293109212358, "longitude": -75.6620611}, "transactions": ["delivery", "pickup"], "price": "$$", "location": {"address1": "4713 Kirkwood Hwy", "address2": null, "address3": "", "city": "Wilmington", "zip_code": "19808", "country": "US", "state": "DE", "display_address": ["4713 Kirkwood Hwy", "Wilmington, DE 19808"]}, "phone": "+13026608981", "display_phone": "(302) 660-8981", "distance": 9742.211751327986}, {"id": "AVYuQ6DTqpqsB141r3lH4w", "alias": "hibachi-grill-and-supreme-sushi-buffet-wilmington", "name": "Hibachi Grill & Supreme Sushi Buffet", "image_url": "https://s3-media2.fl.yelpcdn.com/bphoto/Wk1zIsBwmOT3p4DDTUYq5A/o.jpg", "is_closed": false, "url": "https://www.yelp.com/biz/hibachi-grill-and-supreme-sushi-buffet-wilmington?adjust_creative=vyhy616UjsMTA_hrWyg_5w&utm_campaign=yelp_api_v3&utm_medium=api_v3_business_search&utm_source=vyhy616UjsMTA_hrWyg_5w", "review_count": 80, "categories": [{"alias": "buffets", "title": "Buffets"}, {"alias": "chinese", "title": "Chinese"}, {"alias": "japanese", "title": "Japanese"}], "rating": 3.0, "coordinates": {"latitude": 39.72791, "longitude": -75.65361}, "transactions": [], "price": "$$", "location": {"address1": "4403 Kirkwood Hwy", "address2": "", "address3": "", "city": "Wilmington", "zip_code": "19808", "country": "US", "state": "DE", "display_address": ["4403 Kirkwood Hwy", "Wilmington, DE 19808"]}, "phone": "+13029981888", "display_phone": "(302) 998-1888", "distance": 8779.413983565104}, {"id": "p5OEYAsKeMjNKZI-gZiQrg", "alias": "oriental-pearl-restaurant-boothwyn", "name": "Oriental Pearl Restaurant", "image_url": "https://s3-media3.fl.yelpcdn.com/bphoto/CZDTqzQmey3VPvb21D6uXw/o.jpg", "is_closed": false, "url": "https://www.yelp.com/biz/oriental-pearl-restaurant-boothwyn?adjust_creative=vyhy616UjsMTA_hrWyg_5w&utm_campaign=yelp_api_v3&utm_medium=api_v3_business_search&utm_source=vyhy616UjsMTA_hrWyg_5w", "review_count": 148, "categories": [{"alias": "vietnamese", "title": "Vietnamese"}, {"alias": "chinese", "title": "Chinese"}, {"alias": "thai", "title": "Thai"}], "rating": 4.0, "coordinates": {"latitude": 39.83988, "longitude": -75.44219}, "transactions": ["delivery"], "price": "$$", "location": {"address1": "3601 Chichester Ave", "address2": "", "address3": "", "city": "Boothwyn", "zip_code": "19061", "country": "US", "state": "PA", "display_address": ["3601 Chichester Ave", "Boothwyn, PA 19061"]}, "phone": "+14844806538", "display_phone": "(484) 480-6538", "distance": 13129.915935369829}, {"id": "riwJWxj4850tGBhRahDt7g", "alias": "sushi-sumo-newark", "name": "Sushi Sumo", "image_url": "https://s3-media2.fl.yelpcdn.com/bphoto/xzPFAPl_aJyEedGL5gCmog/o.jpg", "is_closed": false, "url": "https://www.yelp.com/biz/sushi-sumo-newark?adjust_creative=vyhy616UjsMTA_hrWyg_5w&utm_campaign=yelp_api_v3&utm_medium=api_v3_business_search&utm_source=vyhy616UjsMTA_hrWyg_5w", "review_count": 177, "categories": [{"alias": "japanese", "title": "Japanese"}, {"alias": "sushi", "title": "Sushi Bars"}], "rating": 4.5, "coordinates": {"latitude": 39.7080887, "longitude": -75.68466017270902}, "transactions": ["delivery"], "price": "$$", "location": {"address1": "2653 Kirkwood Hwy", "address2": "", "address3": "", "city": "Newark", "zip_code": "19711", "country": "US", "state": "DE", "display_address": ["2653 Kirkwood Hwy", "Newark, DE 19711"]}, "phone": "+13023661188", "display_phone": "(302) 366-1188", "distance": 12257.977632921087}, {"id": "oS70RVt-RegY3Ts0hLASQA", "alias": "saap-lao-thai-cuisine-new-castle", "name": "Saap Lao Thai Cuisine", "image_url": "https://s3-media2.fl.yelpcdn.com/bphoto/tbTRbShcYy-FebdK0SlQQQ/o.jpg", "is_closed": false, "url": "https://www.yelp.com/biz/saap-lao-thai-cuisine-new-castle?adjust_creative=vyhy616UjsMTA_hrWyg_5w&utm_campaign=yelp_api_v3&utm_medium=api_v3_business_search&utm_source=vyhy616UjsMTA_hrWyg_5w", "review_count": 48, "categories": [{"alias": "thai", "title": "Thai"}, {"alias": "laotian", "title": "Laotian"}], "rating": 4.5, "coordinates": {"latitude": 39.661812, "longitude": -75.639754}, "transactions": ["delivery", "pickup"], "price": "$$", "location": {"address1": "287 Christiana Rd", "address2": "", "address3": "", "city": "New Castle", "zip_code": "19720", "country": "US", "state": "DE", "display_address": ["287 Christiana Rd", "New Castle, DE 19720"]}, "phone": "+13023221306", "display_phone": "(302) 322-1306", "distance": 13466.445075476946}, {"id": "WjfKT9KFRIufHXQkXp8Kzg", "alias": "hong-hing-chinese-restaurant-wilmington", "name": "Hong Hing Chinese Restaurant", "image_url": "https://s3-media2.fl.yelpcdn.com/bphoto/Qra8m743_olFsV7Wx8VNRA/o.jpg", "is_closed": false, "url": "https://www.yelp.com/biz/hong-hing-chinese-restaurant-wilmington?adjust_creative=vyhy616UjsMTA_hrWyg_5w&utm_campaign=yelp_api_v3&utm_medium=api_v3_business_search&utm_source=vyhy616UjsMTA_hrWyg_5w", "review_count": 35, "categories": [{"alias": "chinese", "title": "Chinese"}], "rating": 4.0, "coordinates": {"latitude": 39.7416458129883, "longitude": -75.582389831543}, "transactions": ["delivery", "pickup"], "price": "$", "location": {"address1": "707 S Union St", "address2": "", "address3": "", "city": "Wilmington", "zip_code": "19805", "country": "US", "state": "DE", "display_address": ["707 S Union St", "Wilmington, DE 19805"]}, "phone": "+13024219868", "display_phone": "(302) 421-9868", "distance": 3331.987162550035}, {"id": "J1vj7-l7v4jYXxSR6ffPkA", "alias": "kyoto-japanese-restaurant-wilmington", "name": "Kyoto Japanese Restaurant", "image_url": "https://s3-media3.fl.yelpcdn.com/bphoto/LSaAlvH9okKeTn2ZT44ikQ/o.jpg", "is_closed": false, "url": "https://www.yelp.com/biz/kyoto-japanese-restaurant-wilmington?adjust_creative=vyhy616UjsMTA_hrWyg_5w&utm_campaign=yelp_api_v3&utm_medium=api_v3_business_search&utm_source=vyhy616UjsMTA_hrWyg_5w", "review_count": 47, "categories": [{"alias": "japanese", "title": "Japanese"}, {"alias": "sushi", "title": "Sushi Bars"}], "rating": 3.5, "coordinates": {"latitude": 39.7346537540451, "longitude": -75.69082071307}, "transactions": ["delivery", "pickup"], "price": "$$", "location": {"address1": "4563 Linden Hill Rd", "address2": "", "address3": "", "city": "Wilmington", "zip_code": "19808", "country": "US", "state": "DE", "display_address": ["4563 Linden Hill Rd", "Wilmington, DE 19808"]}, "phone": "+13023689882", "display_phone": "(302) 368-9882", "distance": 11419.866902607038}, {"id": "YRr-6VxrgKBZI0yXTF47Vw", "alias": "kungfu-hotpot-newark", "name": "Kungfu Hotpot", "image_url": "https://s3-media1.fl.yelpcdn.com/bphoto/Zbu7Dh70OQA0tkna23XpYw/o.jpg", "is_closed": false, "url": "https://www.yelp.com/biz/kungfu-hotpot-newark?adjust_creative=vyhy616UjsMTA_hrWyg_5w&utm_campaign=yelp_api_v3&utm_medium=api_v3_business_search&utm_source=vyhy616UjsMTA_hrWyg_5w", "review_count": 35, "categories": [{"alias": "hotpot", "title": "Hot Pot"}, {"alias": "szechuan", "title": "Szechuan"}], "rating": 4.5, "coordinates": {"latitude": 39.684888, "longitude": -75.743365}, "transactions": ["delivery", "pickup"], "price": "$$", "location": {"address1": "230 E Main St", "address2": "Ste 207", "address3": "", "city": "Newark", "zip_code": "19711", "country": "US", "state": "DE", "display_address": ["230 E Main St", "Ste 207", "Newark, DE 19711"]}, "phone": "+13023689688", "display_phone": "(302) 368-9688", "distance": 17882.99575910517}, {"id": "h3mMPUeFLnd6JjlztFBRXg", "alias": "hunan-asian-cuisine-wilmington", "name": "Hunan Asian Cuisine", "image_url": "https://s3-media1.fl.yelpcdn.com/bphoto/RmRv2rYsEUl1U-8B9pFYMw/o.jpg", "is_closed": false, "url": "https://www.yelp.com/biz/hunan-asian-cuisine-wilmington?adjust_creative=vyhy616UjsMTA_hrWyg_5w&utm_campaign=yelp_api_v3&utm_medium=api_v3_business_search&utm_source=vyhy616UjsMTA_hrWyg_5w", "review_count": 34, "categories": [{"alias": "chinese", "title": "Chinese"}, {"alias": "malaysian", "title": "Malaysian"}, {"alias": "thai", "title": "Thai"}], "rating": 3.5, "coordinates": {"latitude": 39.805243, "longitude": -75.506314}, "transactions": ["delivery"], "price": "$$", "location": {"address1": "1812 Marsh Rd", "address2": "Ste 8", "address3": "Branmar Plaza", "city": "Wilmington", "zip_code": "19810", "country": "US", "state": "DE", "display_address": ["1812 Marsh Rd", "Ste 8", "Branmar Plaza", "Wilmington, DE 19810"]}, "phone": "+13024758300", "display_phone": "(302) 475-8300", "distance": 6452.802217477661}, {"id": "knBn5dtaLxML4jNQ3BMX7A", "alias": "pho-ever-cafe-newark-2", "name": "Pho Ever Cafe", "image_url": "https://s3-media4.fl.yelpcdn.com/bphoto/9W4KZnbEOpFEVCqd5kzS1Q/o.jpg", "is_closed": false, "url": "https://www.yelp.com/biz/pho-ever-cafe-newark-2?adjust_creative=vyhy616UjsMTA_hrWyg_5w&utm_campaign=yelp_api_v3&utm_medium=api_v3_business_search&utm_source=vyhy616UjsMTA_hrWyg_5w", "review_count": 102, "categories": [{"alias": "vietnamese", "title": "Vietnamese"}, {"alias": "soup", "title": "Soup"}, {"alias": "bubbletea", "title": "Bubble Tea"}], "rating": 4.0, "coordinates": {"latitude": 39.685102, "longitude": -75.744414}, "transactions": ["delivery", "pickup"], "location": {"address1": "230 E Main St", "address2": "Ste 618", "address3": "", "city": "Newark", "zip_code": "19711", "country": "US", "state": "DE", "display_address": ["230 E Main St", "Ste 618", "Newark, DE 19711"]}, "phone": "+13025256118", "display_phone": "(302) 525-6118", "distance": 17947.415760908258}, {"id": "t1QMEcxuqNbD_IQct2pkWg", "alias": "dim-sum-mania-media", "name": "Dim Sum Mania", "image_url": "https://s3-media2.fl.yelpcdn.com/bphoto/a4CMtDkzlovuUmHwUhaITQ/o.jpg", "is_closed": false, "url": "https://www.yelp.com/biz/dim-sum-mania-media?adjust_creative=vyhy616UjsMTA_hrWyg_5w&utm_campaign=yelp_api_v3&utm_medium=api_v3_business_search&utm_source=vyhy616UjsMTA_hrWyg_5w", "review_count": 94, "categories": [{"alias": "dimsum", "title": "Dim Sum"}], "rating": 4.0, "coordinates": {"latitude": 39.91807, "longitude": -75.388657}, "transactions": ["delivery", "pickup", "restaurant_reservation"], "price": "$$", "location": {"address1": "", "address2": "17-19 E State St", "address3": null, "city": "Media", "zip_code": "19063", "country": "US", "state": "PA", "display_address": ["17-19 E State St", "Media, PA 19063"]}, "phone": "+16105578757", "display_phone": "(610) 557-8757", "distance": 22417.547010279868}, {"id": "kje7KzyDiP7ye1mMbj2qaQ", "alias": "colorful-yun-nan-newark", "name": "Colorful Yun Nan", "image_url": "https://s3-media3.fl.yelpcdn.com/bphoto/EyqoBGcsbisty5q0eUwpCw/o.jpg", "is_closed": false, "url": "https://www.yelp.com/biz/colorful-yun-nan-newark?adjust_creative=vyhy616UjsMTA_hrWyg_5w&utm_campaign=yelp_api_v3&utm_medium=api_v3_business_search&utm_source=vyhy616UjsMTA_hrWyg_5w", "review_count": 51, "categories": [{"alias": "chinese", "title": "Chinese"}, {"alias": "noodles", "title": "Noodles"}, {"alias": "soup", "title": "Soup"}], "rating": 3.5, "coordinates": {"latitude": 39.6830651, "longitude": -75.751016}, "transactions": ["delivery", "pickup"], "price": "$$", "location": {"address1": "59 E Main St", "address2": "", "address3": "", "city": "Newark", "zip_code": "19711", "country": "US", "state": "DE", "display_address": ["59 E Main St", "Newark, DE 19711"]}, "phone": "+13028941998", "display_phone": "(302) 894-1998", "distance": 18543.313578897152}, {"id": "eSIpWX2r37csb4VXDZ38lw", "alias": "da-shin-bistro-media", "name": "Da Shin Bistro", "image_url": "https://s3-media2.fl.yelpcdn.com/bphoto/0wLs63gGHHp6HpaTK8uwfw/o.jpg", "is_closed": false, "url": "https://www.yelp.com/biz/da-shin-bistro-media?adjust_creative=vyhy616UjsMTA_hrWyg_5w&utm_campaign=yelp_api_v3&utm_medium=api_v3_business_search&utm_source=vyhy616UjsMTA_hrWyg_5w", "review_count": 78, "categories": [{"alias": "chinese", "title": "Chinese"}, {"alias": "thai", "title": "Thai"}], "rating": 4.0, "coordinates": {"latitude": 39.9053774, "longitude": -75.4157641}, "transactions": ["pickup"], "price": "$$", "location": {"address1": "190 S New Middletown Rd", "address2": "", "address3": "", "city": "Media", "zip_code": "19063", "country": "US", "state": "PA", "display_address": ["190 S New Middletown Rd", "Media, PA 19063"]}, "phone": "+16108910907", "display_phone": "(610) 891-0907", "distance": 19813.97549574034}, {"id": "AHQSq5ZdYVQUleXgPwHHhg", "alias": "teriyaki-madness-wilmington", "name": "Teriyaki Madness", "image_url": "https://s3-media4.fl.yelpcdn.com/bphoto/1xgLLzkdgAiGlH305J3gFQ/o.jpg", "is_closed": false, "url": "https://www.yelp.com/biz/teriyaki-madness-wilmington?adjust_creative=vyhy616UjsMTA_hrWyg_5w&utm_campaign=yelp_api_v3&utm_medium=api_v3_business_search&utm_source=vyhy616UjsMTA_hrWyg_5w", "review_count": 21, "categories": [{"alias": "asianfusion", "title": "Asian Fusion"}, {"alias": "japanese", "title": "Japanese"}], "rating": 3.0, "coordinates": {"latitude": 39.80172, "longitude": -75.5478444}, "transactions": ["delivery", "pickup"], "location": {"address1": "3311 Concord Pike", "address2": "", "address3": null, "city": "Wilmington", "zip_code": "19803", "country": "US", "state": "DE", "display_address": ["3311 Concord Pike", "Wilmington, DE 19803"]}, "phone": "+13025707124", "display_phone": "(302) 570-7124", "distance": 3974.552937501844}, {"id": "Z53I9xwy0aMRy577GuM1KQ", "alias": "kapow-food-truck-wilmington-3", "name": "Kapow Food Truck", "image_url": "https://s3-media1.fl.yelpcdn.com/bphoto/51uEPSVRyhBXT3_CIVnWog/o.jpg", "is_closed": false, "url": "https://www.yelp.com/biz/kapow-food-truck-wilmington-3?adjust_creative=vyhy616UjsMTA_hrWyg_5w&utm_campaign=yelp_api_v3&utm_medium=api_v3_business_search&utm_source=vyhy616UjsMTA_hrWyg_5w", "review_count": 10, "categories": [{"alias": "foodtrucks", "title": "Food Trucks"}, {"alias": "asianfusion", "title": "Asian Fusion"}], "rating": 4.0, "coordinates": {"latitude": 39.7600643, "longitude": -75.5595188}, "transactions": [], "price": "$$", "location": {"address1": "1701 Louvering Ave", "address2": "", "address3": "", "city": "Wilmington", "zip_code": "19806", "country": "US", "state": "DE", "display_address": ["1701 Louvering Ave", "Wilmington, DE 19806"]}, "phone": "+13025214710", "display_phone": "(302) 521-4710", "distance": 1024.5526706874837}, {"id": "OfUF725s1RaoaEOPY3hwZg", "alias": "poke-bros-wilmington-wilmington", "name": "Poke Bros - Wilmington", "image_url": "https://s3-media1.fl.yelpcdn.com/bphoto/GMsnVd58WeUde9HDqhwqRA/o.jpg", "is_closed": false, "url": "https://www.yelp.com/biz/poke-bros-wilmington-wilmington?adjust_creative=vyhy616UjsMTA_hrWyg_5w&utm_campaign=yelp_api_v3&utm_medium=api_v3_business_search&utm_source=vyhy616UjsMTA_hrWyg_5w", "review_count": 42, "categories": [{"alias": "poke", "title": "Poke"}, {"alias": "japanese", "title": "Japanese"}, {"alias": "hawaiian", "title": "Hawaiian"}], "rating": 3.5, "coordinates": {"latitude": 39.79027, "longitude": -75.54633}, "transactions": ["delivery", "pickup"], "location": {"address1": "2117 Concord Pike", "address2": "", "address3": null, "city": "Wilmington", "zip_code": "19803", "country": "US", "state": "DE", "display_address": ["2117 Concord Pike", "Wilmington, DE 19803"]}, "phone": "+13024768640", "display_phone": "(302) 476-8640", "distance": 2916.4907859930613}], "total": 112, "region": {"center": {"longitude": -75.56465148925781, "latitude": 39.76839089289902}}}