{"businesses": [{"id": "COgw5a3B_fwmN0BbZObJwg", "alias": "urban-wu-atlanta-2", "name": "Urban Wu", "image_url": "https://s3-media2.fl.yelpcdn.com/bphoto/50X---AGNRSol39Xm-cXPQ/o.jpg", "is_closed": false, "url": "https://www.yelp.com/biz/urban-wu-atlanta-2?adjust_creative=vyhy616UjsMTA_hrWyg_5w&utm_campaign=yelp_api_v3&utm_medium=api_v3_business_search&utm_source=vyhy616UjsMTA_hrWyg_5w", "review_count": 276, "categories": [{"alias": "szechuan", "title": "Szechuan"}], "rating": 4.0, "coordinates": {"latitude": 33.84671, "longitude": -84.374065}, "transactions": ["delivery", "pickup"], "price": "$$", "location": {"address1": "3330 Piedmont Rd NE", "address2": null, "address3": "", "city": "Atlanta", "zip_code": "30305", "country": "US", "state": "GA", "display_address": ["3330 Piedmont Rd NE", "Atlanta, GA 30305"]}, "phone": "+14048168008", "display_phone": "(404) 816-8008", "distance": 3724.8993807957845}, {"id": "JTGjHr9ii1TWq0TNLFkiQw", "alias": "blossom-tree-atlanta", "name": "Blossom Tree", "image_url": "https://s3-media3.fl.yelpcdn.com/bphoto/JSvShvXLDWzD5XPKFDUMNQ/o.jpg", "is_closed": false, "url": "https://www.yelp.com/biz/blossom-tree-atlanta?adjust_creative=vyhy616UjsMTA_hrWyg_5w&utm_campaign=yelp_api_v3&utm_medium=api_v3_business_search&utm_source=vyhy616UjsMTA_hrWyg_5w", "review_count": 347, "categories": [{"alias": "korean", "title": "Korean"}], "rating": 4.5, "coordinates": {"latitude": 33.7554945955001, "longitude": -84.3891076100377}, "transactions": ["delivery", "pickup"], "price": "$$", "location": {"address1": "64 Peachtree St NW", "address2": "", "address3": "", "city": "Atlanta", "zip_code": "30303", "country": "US", "state": "GA", "display_address": ["64 Peachtree St NW", "Atlanta, GA 30303"]}, "phone": "+14042237500", "display_phone": "(404) 223-7500", "distance": 6575.5351546276925}, {"id": "xoZz5CbcuLVTSPPolmkDGw", "alias": "food-terminal-atlanta", "name": "Food Terminal", "image_url": "https://s3-media1.fl.yelpcdn.com/bphoto/I7XQFQFX_cPTHjWy1RJmkQ/o.jpg", "is_closed": false, "url": "https://www.yelp.com/biz/food-terminal-atlanta?adjust_creative=vyhy616UjsMTA_hrWyg_5w&utm_campaign=yelp_api_v3&utm_medium=api_v3_business_search&utm_source=vyhy616UjsMTA_hrWyg_5w", "review_count": 143, "categories": [{"alias": "malaysian", "title": "Malaysian"}, {"alias": "panasian", "title": "Pan Asian"}, {"alias": "chinese", "title": "Chinese"}], "rating": 4.5, "coordinates": {"latitude": 33.778829, "longitude": -84.410034}, "transactions": ["pickup", "delivery"], "price": "$$", "location": {"address1": "1000 Marietta St NW", "address2": null, "address3": "", "city": "Atlanta", "zip_code": "30318", "country": "US", "state": "GA", "display_address": ["1000 Marietta St NW", "Atlanta, GA 30318"]}, "phone": "+16784008155", "display_phone": "(678) 400-8155", "distance": 5092.734814247117}, {"id": "MzPjBeeJGcvwyyRENZU89g", "alias": "sukoshi-atlanta-atlanta", "name": "Sukoshi Atlanta", "image_url": "https://s3-media2.fl.yelpcdn.com/bphoto/73gdexrCOZn_0ZIfCY5RJA/o.jpg", "is_closed": false, "url": "https://www.yelp.com/biz/sukoshi-atlanta-atlanta?adjust_creative=vyhy616UjsMTA_hrWyg_5w&utm_campaign=yelp_api_v3&utm_medium=api_v3_business_search&utm_source=vyhy616UjsMTA_hrWyg_5w", "review_count": 46, "categories": [{"alias": "sushi", "title": "Sushi Bars"}, {"alias": "ramen", "title": "Ramen"}], "rating": 3.5, "coordinates": {"latitude": 33.7863036728799, "longitude": -84.3830002425048}, "transactions": ["delivery", "pickup"], "location": {"address1": "1201 Peachtree St NE", "address2": "Ste 140", "address3": null, "city": "Atlanta", "zip_code": "30309", "country": "US", "state": "GA", "display_address": ["1201 Peachtree St NE", "Ste 140", "Atlanta, GA 30309"]}, "phone": "+14044001160", "display_phone": "(404) 400-1160", "distance": 2974.4798874266944}, {"id": "rNmAxOkEJ07_YHAxHKyH4Q", "alias": "hawkers-asian-street-food-atlanta-atlanta", "name": "Hawkers Asian Street Food - Atlanta", "image_url": "https://s3-media1.fl.yelpcdn.com/bphoto/vMhUoxfWicjVDsKjOsoR-w/o.jpg", "is_closed": false, "url": "https://www.yelp.com/biz/hawkers-asian-street-food-atlanta-atlanta?adjust_creative=vyhy616UjsMTA_hrWyg_5w&utm_campaign=yelp_api_v3&utm_medium=api_v3_business_search&utm_source=vyhy616UjsMTA_hrWyg_5w", "review_count": 359, "categories": [{"alias": "panasian", "title": "Pan Asian"}, {"alias": "malaysian", "title": "Malaysian"}, {"alias": "tapasmallplates", "title": "Tapas/Small Plates"}], "rating": 4.0, "coordinates": {"latitude": 33.756326, "longitude": -84.36546}, "transactions": ["delivery"], "price": "$$", "location": {"address1": "661 Auburn Ave NE", "address2": "Ste 180", "address3": "", "city": "Atlanta", "zip_code": "30312", "country": "US", "state": "GA", "display_address": ["661 Auburn Ave NE", "Ste 180", "Atlanta, GA 30312"]}, "phone": "+14708091586", "display_phone": "(470) 809-1586", "distance": 6370.41980991086}, {"id": "JaLiJqWN38o3px1Gx5_tLg", "alias": "mushi-ni-atlanta-3", "name": "Mushi Ni", "image_url": "https://s3-media3.fl.yelpcdn.com/bphoto/52L-3ble6DhOSr8tS3a2lw/o.jpg", "is_closed": false, "url": "https://www.yelp.com/biz/mushi-ni-atlanta-3?adjust_creative=vyhy616UjsMTA_hrWyg_5w&utm_campaign=yelp_api_v3&utm_medium=api_v3_business_search&utm_source=vyhy616UjsMTA_hrWyg_5w", "review_count": 221, "categories": [{"alias": "asianfusion", "title": "Asian Fusion"}, {"alias": "panasian", "title": "Pan Asian"}, {"alias": "popuprestaurants", "title": "Pop-Up Restaurants"}], "rating": 5.0, "coordinates": {"latitude": 33.7408966692525, "longitude": -84.3465438601188}, "transactions": ["delivery"], "price": "$$", "location": {"address1": "477 Flat Shoals Ave SE", "address2": null, "address3": null, "city": "Atlanta", "zip_code": "30316", "country": "US", "state": "GA", "display_address": ["477 Flat Shoals Ave SE", "Atlanta, GA 30316"]}, "phone": "+14044056005", "display_phone": "(404) 405-6005", "distance": 8421.811122285297}, {"id": "U-i6cq-yFRVJC4pIKSLX9Q", "alias": "poor-calvins-atlanta-15", "name": "Poor Calvin's", "image_url": "https://s3-media3.fl.yelpcdn.com/bphoto/OqNT3uMiq-ZvhkPmJz_2eA/o.jpg", "is_closed": false, "url": "https://www.yelp.com/biz/poor-calvins-atlanta-15?adjust_creative=vyhy616UjsMTA_hrWyg_5w&utm_campaign=yelp_api_v3&utm_medium=api_v3_business_search&utm_source=vyhy616UjsMTA_hrWyg_5w", "review_count": 3489, "categories": [{"alias": "asianfusion", "title": "Asian Fusion"}, {"alias": "southern", "title": "Southern"}, {"alias": "comfortfood", "title": "Comfort Food"}], "rating": 4.5, "coordinates": {"latitude": 33.7684, "longitude": -84.38226}, "transactions": ["delivery", "pickup"], "price": "$$", "location": {"address1": "510 Piedmont Ave NE", "address2": null, "address3": "", "city": "Atlanta", "zip_code": "30308", "country": "US", "state": "GA", "display_address": ["510 Piedmont Ave NE", "Atlanta, GA 30308"]}, "phone": "+14042544051", "display_phone": "(404) 254-4051", "distance": 5038.783352167851}, {"id": "2mFCztBSJ_DpmfrK2uhbOQ", "alias": "anhs-kitchen-atlanta-2", "name": "Anh's Kitchen", "image_url": "https://s3-media2.fl.yelpcdn.com/bphoto/lXXeTvCFVtQjq1M8iQN_YA/o.jpg", "is_closed": false, "url": "https://www.yelp.com/biz/anhs-kitchen-atlanta-2?adjust_creative=vyhy616UjsMTA_hrWyg_5w&utm_campaign=yelp_api_v3&utm_medium=api_v3_business_search&utm_source=vyhy616UjsMTA_hrWyg_5w", "review_count": 198, "categories": [{"alias": "vietnamese", "title": "Vietnamese"}], "rating": 4.0, "coordinates": {"latitude": 33.777992950174, "longitude": -84.3839473021981}, "transactions": ["delivery", "pickup"], "price": "$$", "location": {"address1": "855 Peachtree St NE", "address2": "Unit 2", "address3": null, "city": "Atlanta", "zip_code": "30308", "country": "US", "state": "GA", "display_address": ["855 Peachtree St NE", "Unit 2", "Atlanta, GA 30308"]}, "phone": "+14049896886", "display_phone": "(404) 989-6886", "distance": 4030.746097900839}, {"id": "jx0yeEipLwhKDlwWcyGt9Q", "alias": "26-thai-kitchen-and-bar-atlanta-4", "name": "26 Thai Kitchen & Bar", "image_url": "https://s3-media1.fl.yelpcdn.com/bphoto/_N7mFBHhWGNHqaTvnauzXw/o.jpg", "is_closed": false, "url": "https://www.yelp.com/biz/26-thai-kitchen-and-bar-atlanta-4?adjust_creative=vyhy616UjsMTA_hrWyg_5w&utm_campaign=yelp_api_v3&utm_medium=api_v3_business_search&utm_source=vyhy616UjsMTA_hrWyg_5w", "review_count": 714, "categories": [{"alias": "thai", "title": "Thai"}, {"alias": "bars", "title": "Bars"}], "rating": 4.5, "coordinates": {"latitude": 33.822383, "longitude": -84.369119}, "transactions": ["pickup", "delivery"], "price": "$$", "location": {"address1": "541 Main St NE", "address2": "F170", "address3": null, "city": "Atlanta", "zip_code": "30324", "country": "US", "state": "GA", "display_address": ["541 Main St NE", "F170", "Atlanta, GA 30324"]}, "phone": "+14044005995", "display_phone": "(404) 400-5995", "distance": 1092.3452641001813}, {"id": "kzXrQKJpN2JyLd68iwH3hg", "alias": "little-bangkok-atlanta", "name": "Little Bangkok", "image_url": "https://s3-media1.fl.yelpcdn.com/bphoto/0vyHiWquSQAAXSwrE2iRQQ/o.jpg", "is_closed": false, "url": "https://www.yelp.com/biz/little-bangkok-atlanta?adjust_creative=vyhy616UjsMTA_hrWyg_5w&utm_campaign=yelp_api_v3&utm_medium=api_v3_business_search&utm_source=vyhy616UjsMTA_hrWyg_5w", "review_count": 774, "categories": [{"alias": "chinese", "title": "Chinese"}, {"alias": "thai", "title": "Thai"}], "rating": 4.0, "coordinates": {"latitude": 33.81593, "longitude": -84.35219}, "transactions": ["delivery"], "price": "$$", "location": {"address1": "2225 Cheshire Bridge Rd Ne", "address2": "", "address3": "", "city": "Atlanta", "zip_code": "30324", "country": "US", "state": "GA", "display_address": ["2225 Cheshire Bridge Rd Ne", "Atlanta, GA 30324"]}, "phone": "+14043151530", "display_phone": "(404) 315-1530", "distance": 1996.18363113888}, {"id": "bCY3Jn1_p9GbCwnDzU-nDA", "alias": "hsus-atlanta-atlanta", "name": "Hsu's Atlanta", "image_url": "https://s3-media3.fl.yelpcdn.com/bphoto/ty9SHQdW8ue204AbOrkq9g/o.jpg", "is_closed": false, "url": "https://www.yelp.com/biz/hsus-atlanta-atlanta?adjust_creative=vyhy616UjsMTA_hrWyg_5w&utm_campaign=yelp_api_v3&utm_medium=api_v3_business_search&utm_source=vyhy616UjsMTA_hrWyg_5w", "review_count": 362, "categories": [{"alias": "chinese", "title": "Chinese"}, {"alias": "noodles", "title": "Noodles"}], "rating": 4.0, "coordinates": {"latitude": 33.75947016572161, "longitude": -84.38628074334237}, "transactions": ["delivery", "pickup"], "price": "$$", "location": {"address1": "192 Peachtree Center Ave NE", "address2": "", "address3": "", "city": "Atlanta", "zip_code": "30303", "country": "US", "state": "GA", "display_address": ["192 Peachtree Center Ave NE", "Atlanta, GA 30303"]}, "phone": "+14046592788", "display_phone": "(404) 659-2788", "distance": 6089.285399726852}, {"id": "VGHMNIccTuq_xBrHmxkoCQ", "alias": "bao-bun-hibachi-atlanta", "name": "Bao Bun Hibachi", "image_url": "https://s3-media3.fl.yelpcdn.com/bphoto/qbrbo_EmU6Uqnu9H2rKIWQ/o.jpg", "is_closed": false, "url": "https://www.yelp.com/biz/bao-bun-hibachi-atlanta?adjust_creative=vyhy616UjsMTA_hrWyg_5w&utm_campaign=yelp_api_v3&utm_medium=api_v3_business_search&utm_source=vyhy616UjsMTA_hrWyg_5w", "review_count": 98, "categories": [{"alias": "asianfusion", "title": "Asian Fusion"}, {"alias": "taiwanese", "title": "Taiwanese"}, {"alias": "chinese", "title": "Chinese"}], "rating": 4.5, "coordinates": {"latitude": 33.80116, "longitude": -84.4147}, "transactions": ["delivery"], "price": "$", "location": {"address1": "1715 Howell Mill Rd", "address2": "Ste #C15-A", "address3": "", "city": "Atlanta", "zip_code": "30318", "country": "US", "state": "GA", "display_address": ["1715 Howell Mill Rd", "Ste #C15-A", "Atlanta, GA 30318"]}, "phone": "+14043515502", "display_phone": "(404) 351-5502", "distance": 3864.6414079356423}, {"id": "14nIlMhxTXWnJg0Glrr-PQ", "alias": "top-spice-atlanta-3", "name": "Top Spice", "image_url": "https://s3-media3.fl.yelpcdn.com/bphoto/Co30hWeYQ1tUPrlkUs0DMQ/o.jpg", "is_closed": false, "url": "https://www.yelp.com/biz/top-spice-atlanta-3?adjust_creative=vyhy616UjsMTA_hrWyg_5w&utm_campaign=yelp_api_v3&utm_medium=api_v3_business_search&utm_source=vyhy616UjsMTA_hrWyg_5w", "review_count": 517, "categories": [{"alias": "thai", "title": "Thai"}, {"alias": "malaysian", "title": "Malaysian"}], "rating": 4.0, "coordinates": {"latitude": 33.8133641942674, "longitude": -84.3100500804954}, "transactions": ["delivery", "pickup"], "price": "$$", "location": {"address1": "3007 N Druid Hills Rd NE", "address2": "", "address3": "", "city": "Atlanta", "zip_code": "30329", "country": "US", "state": "GA", "display_address": ["3007 N Druid Hills Rd NE", "Atlanta, GA 30329"]}, "phone": "+14047280588", "display_phone": "(404) 728-0588", "distance": 5873.665543746733}, {"id": "Z6a-a9OihhTxVfon5jMP5w", "alias": "bun-mi-vietnamese-grill-atlanta-3", "name": "Bun Mi Vietnamese Grill", "image_url": "https://s3-media2.fl.yelpcdn.com/bphoto/OMbO31OxjrsRyZ0W4rt5qg/o.jpg", "is_closed": false, "url": "https://www.yelp.com/biz/bun-mi-vietnamese-grill-atlanta-3?adjust_creative=vyhy616UjsMTA_hrWyg_5w&utm_campaign=yelp_api_v3&utm_medium=api_v3_business_search&utm_source=vyhy616UjsMTA_hrWyg_5w", "review_count": 148, "categories": [{"alias": "vietnamese", "title": "Vietnamese"}, {"alias": "sandwiches", "title": "Sandwiches"}, {"alias": "noodles", "title": "Noodles"}], "rating": 4.5, "coordinates": {"latitude": 33.8157669, "longitude": -84.3903581}, "transactions": ["delivery", "pickup"], "price": "$", "location": {"address1": "2277 Peachtree Rd", "address2": "Ste H", "address3": "", "city": "Atlanta", "zip_code": "30309", "country": "US", "state": "GA", "display_address": ["2277 Peachtree Rd", "Ste H", "Atlanta, GA 30309"]}, "phone": "+16787059156", "display_phone": "(678) 705-9156", "distance": 1571.605439480173}, {"id": "rP5BlDwL9lHL-JK_wTeOlg", "alias": "osha-thai-sushi-galleria-atlanta-2", "name": "Osha Thai Sushi Galleria", "image_url": "https://s3-media3.fl.yelpcdn.com/bphoto/aHk9Hxm5laao6hAdS92HTg/o.jpg", "is_closed": false, "url": "https://www.yelp.com/biz/osha-thai-sushi-galleria-atlanta-2?adjust_creative=vyhy616UjsMTA_hrWyg_5w&utm_campaign=yelp_api_v3&utm_medium=api_v3_business_search&utm_source=vyhy616UjsMTA_hrWyg_5w", "review_count": 88, "categories": [{"alias": "sushi", "title": "Sushi Bars"}, {"alias": "bars", "title": "Bars"}, {"alias": "tapasmallplates", "title": "Tapas/Small Plates"}], "rating": 4.0, "coordinates": {"latitude": 33.804821900927266, "longitude": -84.39413418223565}, "transactions": ["delivery", "pickup"], "location": {"address1": "1820 Peachtree Rd NW", "address2": "Ste 1", "address3": null, "city": "Atlanta", "zip_code": "30309", "country": "US", "state": "GA", "display_address": ["1820 Peachtree Rd NW", "Ste 1", "Atlanta, GA 30309"]}, "phone": "+14043828088", "display_phone": "(404) 382-8088", "distance": 2111.999833855245}, {"id": "uB7IZ1v0tdIckr8gH82R0g", "alias": "la-mei-zi-doraville", "name": "La Mei Zi", "image_url": "https://s3-media1.fl.yelpcdn.com/bphoto/-9-cSueyGXcbHAYH9givPA/o.jpg", "is_closed": false, "url": "https://www.yelp.com/biz/la-mei-zi-doraville?adjust_creative=vyhy616UjsMTA_hrWyg_5w&utm_campaign=yelp_api_v3&utm_medium=api_v3_business_search&utm_source=vyhy616UjsMTA_hrWyg_5w", "review_count": 494, "categories": [{"alias": "chinese", "title": "Chinese"}, {"alias": "taiwanese", "title": "Taiwanese"}], "rating": 4.5, "coordinates": {"latitude": 33.8927899012153, "longitude": -84.2862031236291}, "transactions": ["pickup", "delivery"], "price": "$$", "location": {"address1": "5150 Buford Hwy", "address2": "Ste C-310", "address3": "", "city": "Doraville", "zip_code": "30340", "country": "US", "state": "GA", "display_address": ["5150 Buford Hwy", "Ste C-310", "Doraville, GA 30340"]}, "phone": "+17706760225", "display_phone": "(770) 676-0225", "distance": 11977.906646793781}, {"id": "qx7-TEoNazwE1BcZLCIJ9w", "alias": "silom-thai-and-sushi-atlanta", "name": "Silom Thai & Sushi", "image_url": "https://s3-media2.fl.yelpcdn.com/bphoto/fLtQfwcO6zHJmmguWEfloA/o.jpg", "is_closed": false, "url": "https://www.yelp.com/biz/silom-thai-and-sushi-atlanta?adjust_creative=vyhy616UjsMTA_hrWyg_5w&utm_campaign=yelp_api_v3&utm_medium=api_v3_business_search&utm_source=vyhy616UjsMTA_hrWyg_5w", "review_count": 154, "categories": [{"alias": "thai", "title": "Thai"}, {"alias": "sushi", "title": "Sushi Bars"}, {"alias": "tapasmallplates", "title": "Tapas/Small Plates"}], "rating": 4.5, "coordinates": {"latitude": 33.846287, "longitude": -84.3586822}, "transactions": ["delivery", "pickup"], "price": "$$", "location": {"address1": "3345 Lenox Rd NE", "address2": null, "address3": "", "city": "Atlanta", "zip_code": "30326", "country": "US", "state": "GA", "display_address": ["3345 Lenox Rd NE", "Atlanta, GA 30326"]}, "phone": "+14045493948", "display_phone": "(404) 549-3948", "distance": 3928.1797286153587}, {"id": "jrk6pBeLhBVaO1fE4oOo8A", "alias": "hai-decatur-2", "name": "Hai", "image_url": "https://s3-media2.fl.yelpcdn.com/bphoto/oIdFhn0_GVKstyF8l3Ol3A/o.jpg", "is_closed": false, "url": "https://www.yelp.com/biz/hai-decatur-2?adjust_creative=vyhy616UjsMTA_hrWyg_5w&utm_campaign=yelp_api_v3&utm_medium=api_v3_business_search&utm_source=vyhy616UjsMTA_hrWyg_5w", "review_count": 198, "categories": [{"alias": "chinese", "title": "Chinese"}], "rating": 4.0, "coordinates": {"latitude": 33.792031, "longitude": -84.286616}, "transactions": ["delivery", "pickup"], "price": "$$", "location": {"address1": "2641 N Decatur Rd", "address2": null, "address3": "", "city": "Decatur", "zip_code": "30033", "country": "US", "state": "GA", "display_address": ["2641 N Decatur Rd", "Decatur, GA 30033"]}, "phone": "+14702257172", "display_phone": "(470) 225-7172", "distance": 8372.694839991575}, {"id": "zofErJnOL4I0QKoVr_ZN6g", "alias": "pho-dai-loi-2-atlanta", "name": "Pho Dai Loi 2", "image_url": "https://s3-media1.fl.yelpcdn.com/bphoto/drGDlgs_232-OTA1U2TdFQ/o.jpg", "is_closed": false, "url": "https://www.yelp.com/biz/pho-dai-loi-2-atlanta?adjust_creative=vyhy616UjsMTA_hrWyg_5w&utm_campaign=yelp_api_v3&utm_medium=api_v3_business_search&utm_source=vyhy616UjsMTA_hrWyg_5w", "review_count": 1038, "categories": [{"alias": "vietnamese", "title": "Vietnamese"}], "rating": 4.0, "coordinates": {"latitude": 33.86517905104348, "longitude": -84.3050091257995}, "transactions": ["delivery"], "price": "$$", "location": {"address1": "4186 Buford Hwy NE", "address2": "Ste G", "address3": "", "city": "Atlanta", "zip_code": "30345", "country": "US", "state": "GA", "display_address": ["4186 Buford Hwy NE", "Ste G", "Atlanta, GA 30345"]}, "phone": "+14046332111", "display_phone": "(404) 633-2111", "distance": 8576.267076833601}, {"id": "yNRCLu9ESXu9M9R-nO_fEQ", "alias": "ruby-chows-atlanta", "name": "Ruby Chow's", "image_url": "https://s3-media1.fl.yelpcdn.com/bphoto/-ISBovByjYqdz5i9E7ohAw/o.jpg", "is_closed": false, "url": "https://www.yelp.com/biz/ruby-chows-atlanta?adjust_creative=vyhy616UjsMTA_hrWyg_5w&utm_campaign=yelp_api_v3&utm_medium=api_v3_business_search&utm_source=vyhy616UjsMTA_hrWyg_5w", "review_count": 109, "categories": [{"alias": "asianfusion", "title": "Asian Fusion"}], "rating": 4.5, "coordinates": {"latitude": 33.771632, "longitude": -84.368128}, "transactions": ["delivery", "pickup"], "location": {"address1": "620 Glen Iris Dr NE", "address2": "Ste C-1", "address3": null, "city": "Atlanta", "zip_code": "30308", "country": "US", "state": "GA", "display_address": ["620 Glen Iris Dr NE", "Ste C-1", "Atlanta, GA 30308"]}, "phone": "+14045857829", "display_phone": "(404) 585-7829", "distance": 4651.442009725291}, {"id": "uhIQYIk5LpBlRho9n_D_7g", "alias": "bangkok-station-atlanta", "name": "Bangkok Station", "image_url": "https://s3-media3.fl.yelpcdn.com/bphoto/aXGHgXXKmD3xJnQIsCUmLg/o.jpg", "is_closed": false, "url": "https://www.yelp.com/biz/bangkok-station-atlanta?adjust_creative=vyhy616UjsMTA_hrWyg_5w&utm_campaign=yelp_api_v3&utm_medium=api_v3_business_search&utm_source=vyhy616UjsMTA_hrWyg_5w", "review_count": 402, "categories": [{"alias": "thai", "title": "Thai"}, {"alias": "salad", "title": "Salad"}, {"alias": "cocktailbars", "title": "Cocktail Bars"}], "rating": 4.0, "coordinates": {"latitude": 33.8373431, "longitude": -84.3701132}, "transactions": ["delivery"], "price": "$$", "location": {"address1": "550 Pharr Rd", "address2": "Ste 101", "address3": "", "city": "Atlanta", "zip_code": "30305", "country": "US", "state": "GA", "display_address": ["550 Pharr Rd", "Ste 101", "Atlanta, GA 30305"]}, "phone": "+14043434665", "display_phone": "(404) 343-4665", "distance": 2702.6869616820654}, {"id": "wDYyVHKAL-OWyogfkqmdpg", "alias": "o-mi-ga-atlanta", "name": "O Mi Ga", "image_url": "https://s3-media4.fl.yelpcdn.com/bphoto/ATahzbGOuWMUKhH5k_ipEA/o.jpg", "is_closed": false, "url": "https://www.yelp.com/biz/o-mi-ga-atlanta?adjust_creative=vyhy616UjsMTA_hrWyg_5w&utm_campaign=yelp_api_v3&utm_medium=api_v3_business_search&utm_source=vyhy616UjsMTA_hrWyg_5w", "review_count": 22, "categories": [{"alias": "vietnamese", "title": "Vietnamese"}, {"alias": "soup", "title": "Soup"}], "rating": 4.0, "coordinates": {"latitude": 33.754308, "longitude": -84.379911}, "transactions": ["delivery", "pickup"], "location": {"address1": "209 Edgewood Ave SE", "address2": "", "address3": null, "city": "Atlanta", "zip_code": "30303", "country": "US", "state": "GA", "display_address": ["209 Edgewood Ave SE", "Atlanta, GA 30303"]}, "phone": "+14049631082", "display_phone": "(404) 963-1082", "distance": 6575.641678257374}, {"id": "YES12b8B0afEx-SWv-o1nw", "alias": "dua-vietnamese-atlanta", "name": "Dua Vietnamese", "image_url": "https://s3-media1.fl.yelpcdn.com/bphoto/j52YFkCQPnSKcfxBxVzU0A/o.jpg", "is_closed": false, "url": "https://www.yelp.com/biz/dua-vietnamese-atlanta?adjust_creative=vyhy616UjsMTA_hrWyg_5w&utm_campaign=yelp_api_v3&utm_medium=api_v3_business_search&utm_source=vyhy616UjsMTA_hrWyg_5w", "review_count": 400, "categories": [{"alias": "vietnamese", "title": "Vietnamese"}, {"alias": "salad", "title": "Salad"}, {"alias": "noodles", "title": "Noodles"}], "rating": 4.0, "coordinates": {"latitude": 33.7555787158321, "longitude": -84.3893662792789}, "transactions": ["delivery", "pickup"], "price": "$$", "location": {"address1": "53 Broad St NW", "address2": "", "address3": "", "city": "Atlanta", "zip_code": "30303", "country": "US", "state": "GA", "display_address": ["53 Broad St NW", "Atlanta, GA 30303"]}, "phone": "+14045898889", "display_phone": "(404) 589-8889", "distance": 6571.6557493403425}, {"id": "dgnA9CPdjjcRYxzfbr4EMA", "alias": "pheast-a-far-east-street-feast-atlanta", "name": "Ph'East - A Far East Street Feast", "image_url": "https://s3-media2.fl.yelpcdn.com/bphoto/EWLEPgcTkKVF4MM1JYdthQ/o.jpg", "is_closed": false, "url": "https://www.yelp.com/biz/pheast-a-far-east-street-feast-atlanta?adjust_creative=vyhy616UjsMTA_hrWyg_5w&utm_campaign=yelp_api_v3&utm_medium=api_v3_business_search&utm_source=vyhy616UjsMTA_hrWyg_5w", "review_count": 38, "categories": [{"alias": "asianfusion", "title": "Asian Fusion"}, {"alias": "coffee", "title": "Coffee & Tea"}], "rating": 4.5, "coordinates": {"latitude": 33.8879747837868, "longitude": -84.4705334399185}, "transactions": [], "location": {"address1": "925 Battery Ave", "address2": "Ste 1100", "address3": null, "city": "Atlanta", "zip_code": "30339", "country": "US", "state": "GA", "display_address": ["925 Battery Ave", "Ste 1100", "Atlanta, GA 30339"]}, "phone": "+16782478137", "display_phone": "(678) 247-8137", "distance": 12214.429833544167}, {"id": "YB7mBTPgHRSq_MGr2UQ1qA", "alias": "pijiu-belly-atlanta", "name": "Pijiu Belly", "image_url": "https://s3-media2.fl.yelpcdn.com/bphoto/hGlIWM844ZFzmlKelgU1pQ/o.jpg", "is_closed": false, "url": "https://www.yelp.com/biz/pijiu-belly-atlanta?adjust_creative=vyhy616UjsMTA_hrWyg_5w&utm_campaign=yelp_api_v3&utm_medium=api_v3_business_search&utm_source=vyhy616UjsMTA_hrWyg_5w", "review_count": 421, "categories": [{"alias": "burgers", "title": "Burgers"}, {"alias": "pubs", "title": "Pubs"}, {"alias": "asianfusion", "title": "Asian Fusion"}], "rating": 4.0, "coordinates": {"latitude": 33.781325, "longitude": -84.409632}, "transactions": ["delivery", "pickup"], "price": "$$", "location": {"address1": "678 10th St NW", "address2": "", "address3": "", "city": "Atlanta", "zip_code": "30318", "country": "US", "state": "GA", "display_address": ["678 10th St NW", "Atlanta, GA 30318"]}, "phone": "+14043436828", "display_phone": "(404) 343-6828", "distance": 4862.285342721389}, {"id": "kPiQ9kI_eP6LUob-Pv6AWg", "alias": "boruboru-sandy-springs-atlanta", "name": "Boruboru - Sandy Springs", "image_url": "https://s3-media1.fl.yelpcdn.com/bphoto/SP1qberkQeJENN_PDOvFFg/o.jpg", "is_closed": false, "url": "https://www.yelp.com/biz/boruboru-sandy-springs-atlanta?adjust_creative=vyhy616UjsMTA_hrWyg_5w&utm_campaign=yelp_api_v3&utm_medium=api_v3_business_search&utm_source=vyhy616UjsMTA_hrWyg_5w", "review_count": 23, "categories": [{"alias": "japanese", "title": "Japanese"}, {"alias": "poke", "title": "Poke"}, {"alias": "sushi", "title": "Sushi Bars"}], "rating": 4.5, "coordinates": {"latitude": 33.91811, "longitude": -84.38077}, "transactions": ["delivery", "pickup"], "price": "$$", "location": {"address1": "5980 Roswell Rd NE", "address2": null, "address3": "", "city": "Atlanta", "zip_code": "30328", "country": "US", "state": "GA", "display_address": ["5980 Roswell Rd NE", "Atlanta, GA 30328"]}, "phone": "+14702708909", "display_phone": "(470) 270-8909", "distance": 11724.419628471296}, {"id": "85s4Qh0VUxKCRFnEkHeXRA", "alias": "le-colonial-atlanta-atlanta-2", "name": "Le Colonial - Atlanta", "image_url": "https://s3-media2.fl.yelpcdn.com/bphoto/hSyJKftn8X2hlouScsR1Vg/o.jpg", "is_closed": false, "url": "https://www.yelp.com/biz/le-colonial-atlanta-atlanta-2?adjust_creative=vyhy616UjsMTA_hrWyg_5w&utm_campaign=yelp_api_v3&utm_medium=api_v3_business_search&utm_source=vyhy616UjsMTA_hrWyg_5w", "review_count": 193, "categories": [{"alias": "bars", "title": "Bars"}, {"alias": "vietnamese", "title": "Vietnamese"}, {"alias": "french", "title": "French"}], "rating": 4.0, "coordinates": {"latitude": 33.837408, "longitude": -84.380267}, "transactions": ["delivery", "pickup"], "location": {"address1": "3035 Peachtree Rd NE", "address2": "Ste A201", "address3": null, "city": "Atlanta", "zip_code": "30305", "country": "US", "state": "GA", "display_address": ["3035 Peachtree Rd NE", "Ste A201", "Atlanta, GA 30305"]}, "phone": "+14043410500", "display_phone": "(404) 341-0500", "distance": 2759.3847130676377}, {"id": "6wGHem2o7migh4syWmmB8A", "alias": "ginya-izakaya-atlanta-4", "name": "Ginya Izakaya", "image_url": "https://s3-media1.fl.yelpcdn.com/bphoto/XKj5-mVls2YBfTH0bCgd5A/o.jpg", "is_closed": false, "url": "https://www.yelp.com/biz/ginya-izakaya-atlanta-4?adjust_creative=vyhy616UjsMTA_hrWyg_5w&utm_campaign=yelp_api_v3&utm_medium=api_v3_business_search&utm_source=vyhy616UjsMTA_hrWyg_5w", "review_count": 477, "categories": [{"alias": "sushi", "title": "Sushi Bars"}, {"alias": "ramen", "title": "Ramen"}, {"alias": "izakaya", "title": "Izakaya"}], "rating": 4.0, "coordinates": {"latitude": 33.8004825392379, "longitude": -84.4084178937034}, "transactions": ["pickup", "delivery"], "price": "$$", "location": {"address1": "1700 Northside Dr NW", "address2": "Ste A-5", "address3": "", "city": "Atlanta", "zip_code": "30318", "country": "US", "state": "GA", "display_address": ["1700 Northside Dr NW", "Ste A-5", "Atlanta, GA 30318"]}, "phone": "+14703555621", "display_phone": "(470) 355-5621", "distance": 3512.3760278820064}, {"id": "fuMKWLOTXH-Q8Om6hVNeKA", "alias": "gu-s-kitchen-chamblee", "name": "Gu\u2019s Kitchen", "image_url": "https://s3-media2.fl.yelpcdn.com/bphoto/ZPMAbYi5U0fmIQr8Odjdgw/o.jpg", "is_closed": false, "url": "https://www.yelp.com/biz/gu-s-kitchen-chamblee?adjust_creative=vyhy616UjsMTA_hrWyg_5w&utm_campaign=yelp_api_v3&utm_medium=api_v3_business_search&utm_source=vyhy616UjsMTA_hrWyg_5w", "review_count": 227, "categories": [{"alias": "szechuan", "title": "Szechuan"}], "rating": 4.0, "coordinates": {"latitude": 33.88443, "longitude": -84.28765}, "transactions": ["delivery", "pickup"], "price": "$$", "location": {"address1": "4897 Buford Hwy", "address2": "Ste 104", "address3": "", "city": "Chamblee", "zip_code": "30341", "country": "US", "state": "GA", "display_address": ["4897 Buford Hwy", "Ste 104", "Chamblee, GA 30341"]}, "phone": "+14702992388", "display_phone": "(470) 299-2388", "distance": 11215.053969680554}, {"id": "mAbeo_MHU7MF2kv7P0mxYQ", "alias": "co-atlanta-5", "name": "CO", "image_url": "https://s3-media4.fl.yelpcdn.com/bphoto/ZoMh2BGa_BGNmDqji763-w/o.jpg", "is_closed": false, "url": "https://www.yelp.com/biz/co-atlanta-5?adjust_creative=vyhy616UjsMTA_hrWyg_5w&utm_campaign=yelp_api_v3&utm_medium=api_v3_business_search&utm_source=vyhy616UjsMTA_hrWyg_5w", "review_count": 330, "categories": [{"alias": "vietnamese", "title": "Vietnamese"}, {"alias": "sushi", "title": "Sushi Bars"}, {"alias": "noodles", "title": "Noodles"}], "rating": 4.0, "coordinates": {"latitude": 33.772891, "longitude": -84.351836}, "transactions": ["delivery", "pickup"], "price": "$$", "location": {"address1": "675 N Highland Ave NE", "address2": "Ste 6000", "address3": null, "city": "Atlanta", "zip_code": "30306", "country": "US", "state": "GA", "display_address": ["675 N Highland Ave NE", "Ste 6000", "Atlanta, GA 30306"]}, "phone": "+14044740262", "display_phone": "(404) 474-0262", "distance": 4915.032384235015}, {"id": "txuBUsi_VMKTCezmEm81qQ", "alias": "makimono-atlanta-2", "name": "Makimono", "image_url": "https://s3-media2.fl.yelpcdn.com/bphoto/wTUGOrDxmAN6RyXbWkiElw/o.jpg", "is_closed": false, "url": "https://www.yelp.com/biz/makimono-atlanta-2?adjust_creative=vyhy616UjsMTA_hrWyg_5w&utm_campaign=yelp_api_v3&utm_medium=api_v3_business_search&utm_source=vyhy616UjsMTA_hrWyg_5w", "review_count": 142, "categories": [{"alias": "japanese", "title": "Japanese"}, {"alias": "asianfusion", "title": "Asian Fusion"}, {"alias": "korean", "title": "Korean"}], "rating": 4.0, "coordinates": {"latitude": 33.756519, "longitude": -84.364207}, "transactions": ["delivery", "pickup"], "price": "$$", "location": {"address1": "99 Krog St NE", "address2": "Ste X", "address3": null, "city": "Atlanta", "zip_code": "30307", "country": "US", "state": "GA", "display_address": ["99 Krog St NE", "Ste X", "Atlanta, GA 30307"]}, "phone": "+14703559556", "display_phone": "(470) 355-9556", "distance": 6363.915068964461}, {"id": "XnnZywAYuHxUkS6Fk3MrlQ", "alias": "vietvana-pho-noodle-house-atlanta-atlanta", "name": "Vietvana Pho Noodle House - Atlanta", "image_url": "https://s3-media3.fl.yelpcdn.com/bphoto/12a2fs333y0bA34W2VK3TA/o.jpg", "is_closed": false, "url": "https://www.yelp.com/biz/vietvana-pho-noodle-house-atlanta-atlanta?adjust_creative=vyhy616UjsMTA_hrWyg_5w&utm_campaign=yelp_api_v3&utm_medium=api_v3_business_search&utm_source=vyhy616UjsMTA_hrWyg_5w", "review_count": 47, "categories": [{"alias": "vietnamese", "title": "Vietnamese"}, {"alias": "noodles", "title": "Noodles"}, {"alias": "sandwiches", "title": "Sandwiches"}], "rating": 4.0, "coordinates": {"latitude": 33.77741, "longitude": -84.3901}, "transactions": ["pickup", "delivery"], "price": "$$", "location": {"address1": "848 Spring St NW", "address2": "Ste A", "address3": "", "city": "Atlanta", "zip_code": "30308", "country": "US", "state": "GA", "display_address": ["848 Spring St NW", "Ste A", "Atlanta, GA 30308"]}, "phone": "+14049632087", "display_phone": "(404) 963-2087", "distance": 4165.522137044494}, {"id": "iw0L8SqeaDM_AQW7a5_8rw", "alias": "bonchon-fayetteville-fayetteville-3", "name": "Bonchon Fayetteville", "image_url": "https://s3-media3.fl.yelpcdn.com/bphoto/tyb6Q1909dcRRZVwkrqdFw/o.jpg", "is_closed": false, "url": "https://www.yelp.com/biz/bonchon-fayetteville-fayetteville-3?adjust_creative=vyhy616UjsMTA_hrWyg_5w&utm_campaign=yelp_api_v3&utm_medium=api_v3_business_search&utm_source=vyhy616UjsMTA_hrWyg_5w", "review_count": 209, "categories": [{"alias": "chicken_wings", "title": "Chicken Wings"}, {"alias": "korean", "title": "Korean"}, {"alias": "asianfusion", "title": "Asian Fusion"}], "rating": 4.0, "coordinates": {"latitude": 33.479782, "longitude": -84.439514}, "transactions": [], "price": "$$", "location": {"address1": "120 Suite C Pavilion Pkwy", "address2": "Ste C", "address3": null, "city": "Fayetteville", "zip_code": "30214", "country": "US", "state": "GA", "display_address": ["120 Suite C Pavilion Pkwy", "Ste C", "Fayetteville, GA 30214"]}, "phone": "+16788293682", "display_phone": "(678) 829-3682", "distance": 37574.09413968151}, {"id": "UW1NFjJ8S4W0uCy8M6Vpog", "alias": "mamak-doraville-3", "name": "Mamak", "image_url": "https://s3-media1.fl.yelpcdn.com/bphoto/qqqXQV9PsBBVyN94U5COtA/o.jpg", "is_closed": false, "url": "https://www.yelp.com/biz/mamak-doraville-3?adjust_creative=vyhy616UjsMTA_hrWyg_5w&utm_campaign=yelp_api_v3&utm_medium=api_v3_business_search&utm_source=vyhy616UjsMTA_hrWyg_5w", "review_count": 597, "categories": [{"alias": "malaysian", "title": "Malaysian"}, {"alias": "chinese", "title": "Chinese"}], "rating": 4.0, "coordinates": {"latitude": 33.8934542170406, "longitude": -84.2847600951791}, "transactions": ["delivery"], "price": "$$", "location": {"address1": "5150 Buford Hwy", "address2": "Ste A-170", "address3": "", "city": "Doraville", "zip_code": "30340", "country": "US", "state": "GA", "display_address": ["5150 Buford Hwy", "Ste A-170", "Doraville, GA 30340"]}, "phone": "+16783953192", "display_phone": "(678) 395-3192", "distance": 12122.364948655411}, {"id": "ihR6AFW0XxutTHIALOHNLQ", "alias": "so-kong-dong-tofu-house-atlanta", "name": "So Kong Dong Tofu House", "image_url": "https://s3-media4.fl.yelpcdn.com/bphoto/n288M3ZSzv2o2WILFCNmxQ/o.jpg", "is_closed": false, "url": "https://www.yelp.com/biz/so-kong-dong-tofu-house-atlanta?adjust_creative=vyhy616UjsMTA_hrWyg_5w&utm_campaign=yelp_api_v3&utm_medium=api_v3_business_search&utm_source=vyhy616UjsMTA_hrWyg_5w", "review_count": 833, "categories": [{"alias": "korean", "title": "Korean"}, {"alias": "bbq", "title": "Barbeque"}], "rating": 4.0, "coordinates": {"latitude": 33.8969524286201, "longitude": -84.2824442419861}, "transactions": ["delivery"], "price": "$$", "location": {"address1": "5280 Buford Hwy NE", "address2": "Ste C", "address3": "", "city": "Atlanta", "zip_code": "30340", "country": "US", "state": "GA", "display_address": ["5280 Buford Hwy NE", "Ste C", "Atlanta, GA 30340"]}, "phone": "+16782050555", "display_phone": "(678) 205-0555", "distance": 12553.767008837523}, {"id": "oPoBBnSQlil1SWkX802asA", "alias": "momonoki-atlanta-17", "name": "Momonoki", "image_url": "https://s3-media1.fl.yelpcdn.com/bphoto/MKQCM1xgIJsV8vi7mKKzeg/o.jpg", "is_closed": false, "url": "https://www.yelp.com/biz/momonoki-atlanta-17?adjust_creative=vyhy616UjsMTA_hrWyg_5w&utm_campaign=yelp_api_v3&utm_medium=api_v3_business_search&utm_source=vyhy616UjsMTA_hrWyg_5w", "review_count": 373, "categories": [{"alias": "cafes", "title": "Cafes"}, {"alias": "ramen", "title": "Ramen"}], "rating": 4.0, "coordinates": {"latitude": 33.779748110268365, "longitude": -84.39012731764342}, "transactions": ["delivery", "pickup"], "price": "$$", "location": {"address1": "95 8th St NW", "address2": "Ste 100", "address3": null, "city": "Atlanta", "zip_code": "30309", "country": "US", "state": "GA", "display_address": ["95 8th St NW", "Ste 100", "Atlanta, GA 30309"]}, "phone": "+14043903025", "display_phone": "(404) 390-3025", "distance": 4021.4014814962343}, {"id": "lj1PkEP1jchQzUoy_2s0Rw", "alias": "kwans-deli-and-korean-kitchen-atlanta-2", "name": "Kwan's Deli and Korean Kitchen", "image_url": "https://s3-media4.fl.yelpcdn.com/bphoto/ozg5dmAjC4T521_wpsXPDA/o.jpg", "is_closed": false, "url": "https://www.yelp.com/biz/kwans-deli-and-korean-kitchen-atlanta-2?adjust_creative=vyhy616UjsMTA_hrWyg_5w&utm_campaign=yelp_api_v3&utm_medium=api_v3_business_search&utm_source=vyhy616UjsMTA_hrWyg_5w", "review_count": 345, "categories": [{"alias": "delis", "title": "Delis"}, {"alias": "korean", "title": "Korean"}, {"alias": "tradamerican", "title": "American (Traditional)"}], "rating": 4.0, "coordinates": {"latitude": 33.76089682176553, "longitude": -84.39419350429588}, "transactions": ["delivery", "pickup"], "price": "$$", "location": {"address1": "267 Marietta St NW", "address2": "Ste 100", "address3": "", "city": "Atlanta", "zip_code": "30313", "country": "US", "state": "GA", "display_address": ["267 Marietta St NW", "Ste 100", "Atlanta, GA 30313"]}, "phone": "+14045229796", "display_phone": "(404) 522-9796", "distance": 6119.932667814157}, {"id": "57d0Gmx4JKuKQWyJYu0yfg", "alias": "jinya-ramen-bar-buckhead-atlanta", "name": "JINYA Ramen Bar - Buckhead", "image_url": "https://s3-media2.fl.yelpcdn.com/bphoto/eDR7SKzxgYnXexoHWJ-vsw/o.jpg", "is_closed": false, "url": "https://www.yelp.com/biz/jinya-ramen-bar-buckhead-atlanta?adjust_creative=vyhy616UjsMTA_hrWyg_5w&utm_campaign=yelp_api_v3&utm_medium=api_v3_business_search&utm_source=vyhy616UjsMTA_hrWyg_5w", "review_count": 900, "categories": [{"alias": "ramen", "title": "Ramen"}, {"alias": "noodles", "title": "Noodles"}], "rating": 4.5, "coordinates": {"latitude": 33.85660857970986, "longitude": -84.38271659804009}, "transactions": ["pickup", "delivery"], "price": "$$", "location": {"address1": "3714 Roswell Rd", "address2": "Unit 35", "address3": "", "city": "Atlanta", "zip_code": "30342", "country": "US", "state": "GA", "display_address": ["3714 Roswell Rd", "Unit 35", "Atlanta, GA 30342"]}, "phone": "+14042544770", "display_phone": "(404) 254-4770", "distance": 4897.845049430538}, {"id": "xnwnhDdc11R2X8Ww-02nNg", "alias": "food-terminal-chamblee-2", "name": "Food Terminal", "image_url": "https://s3-media4.fl.yelpcdn.com/bphoto/Cm5hqXoQPxmsifaikKNsJQ/o.jpg", "is_closed": false, "url": "https://www.yelp.com/biz/food-terminal-chamblee-2?adjust_creative=vyhy616UjsMTA_hrWyg_5w&utm_campaign=yelp_api_v3&utm_medium=api_v3_business_search&utm_source=vyhy616UjsMTA_hrWyg_5w", "review_count": 1455, "categories": [{"alias": "malaysian", "title": "Malaysian"}, {"alias": "asianfusion", "title": "Asian Fusion"}, {"alias": "breakfast_brunch", "title": "Breakfast & Brunch"}], "rating": 4.0, "coordinates": {"latitude": 33.88809, "longitude": -84.2886599}, "transactions": ["delivery"], "price": "$$", "location": {"address1": "5000 Buford Hwy NE", "address2": "Ste B201", "address3": null, "city": "Chamblee", "zip_code": "30341", "country": "US", "state": "GA", "display_address": ["5000 Buford Hwy NE", "Ste B201", "Chamblee, GA 30341"]}, "phone": "+16783536110", "display_phone": "(678) 353-6110", "distance": 11437.188023941311}, {"id": "aVNwcn-nfVYP_-cU3kNMWQ", "alias": "26-thai-kitchen-at-the-battery-atlanta-4", "name": "26 Thai Kitchen at The Battery", "image_url": "https://s3-media4.fl.yelpcdn.com/bphoto/0B4iJs45J10JBVMJwNLH9g/o.jpg", "is_closed": false, "url": "https://www.yelp.com/biz/26-thai-kitchen-at-the-battery-atlanta-4?adjust_creative=vyhy616UjsMTA_hrWyg_5w&utm_campaign=yelp_api_v3&utm_medium=api_v3_business_search&utm_source=vyhy616UjsMTA_hrWyg_5w", "review_count": 15, "categories": [{"alias": "thai", "title": "Thai"}, {"alias": "asianfusion", "title": "Asian Fusion"}], "rating": 4.0, "coordinates": {"latitude": 33.88728502643899, "longitude": -84.4705862}, "transactions": ["delivery", "pickup"], "location": {"address1": "925 Battery Ave SE", "address2": "Ste 1100-3", "address3": "Ph'East Food Hall", "city": "Atlanta", "zip_code": "30339", "country": "US", "state": "GA", "display_address": ["925 Battery Ave SE", "Ste 1100-3", "Ph'East Food Hall", "Atlanta, GA 30339"]}, "phone": "+16784016415", "display_phone": "(678) 401-6415", "distance": 12165.971590193636}, {"id": "vBKwHwBqkFdxw4VetbYSxQ", "alias": "kang-nam-japanese-restaurant-atlanta", "name": "Kang Nam Japanese Restaurant", "image_url": "https://s3-media3.fl.yelpcdn.com/bphoto/s1e-HvyY3oKv3vztDmbuzg/o.jpg", "is_closed": false, "url": "https://www.yelp.com/biz/kang-nam-japanese-restaurant-atlanta?adjust_creative=vyhy616UjsMTA_hrWyg_5w&utm_campaign=yelp_api_v3&utm_medium=api_v3_business_search&utm_source=vyhy616UjsMTA_hrWyg_5w", "review_count": 384, "categories": [{"alias": "korean", "title": "Korean"}, {"alias": "japanese", "title": "Japanese"}], "rating": 4.0, "coordinates": {"latitude": 33.9065, "longitude": -84.26862}, "transactions": ["delivery"], "price": "$$", "location": {"address1": "5715 Buford Hwy NE", "address2": "Ste 101", "address3": "", "city": "Atlanta", "zip_code": "30340", "country": "US", "state": "GA", "display_address": ["5715 Buford Hwy NE", "Ste 101", "Atlanta, GA 30340"]}, "phone": "+17704553464", "display_phone": "(770) 455-3464", "distance": 14205.890844439262}, {"id": "euI6ZYkupS89zSzMI-uzQw", "alias": "hi-pot-doraville-doraville", "name": "Hi Pot Doraville", "image_url": "https://s3-media3.fl.yelpcdn.com/bphoto/HMYUv-_yCGz7uQsvn1F_nw/o.jpg", "is_closed": false, "url": "https://www.yelp.com/biz/hi-pot-doraville-doraville?adjust_creative=vyhy616UjsMTA_hrWyg_5w&utm_campaign=yelp_api_v3&utm_medium=api_v3_business_search&utm_source=vyhy616UjsMTA_hrWyg_5w", "review_count": 181, "categories": [{"alias": "taiwanese", "title": "Taiwanese"}, {"alias": "hotpot", "title": "Hot Pot"}, {"alias": "ramen", "title": "Ramen"}], "rating": 4.5, "coordinates": {"latitude": 33.8908506450845, "longitude": -84.2853294293409}, "transactions": ["delivery", "pickup"], "price": "$$", "location": {"address1": "5091 Buford Hwy NE", "address2": "Unit B & C", "address3": "", "city": "Doraville", "zip_code": "30340", "country": "US", "state": "GA", "display_address": ["5091 Buford Hwy NE", "Unit B & C", "Doraville, GA 30340"]}, "phone": "+17706744056", "display_phone": "(770) 674-4056", "distance": 11906.499925151938}, {"id": "4pG0kfb_AQdJ8NJ9Qe872g", "alias": "le-fat-atlanta", "name": "Le Fat", "image_url": "https://s3-media2.fl.yelpcdn.com/bphoto/QmTQkOl7jL1P-C1UghGplQ/o.jpg", "is_closed": false, "url": "https://www.yelp.com/biz/le-fat-atlanta?adjust_creative=vyhy616UjsMTA_hrWyg_5w&utm_campaign=yelp_api_v3&utm_medium=api_v3_business_search&utm_source=vyhy616UjsMTA_hrWyg_5w", "review_count": 386, "categories": [{"alias": "vietnamese", "title": "Vietnamese"}, {"alias": "noodles", "title": "Noodles"}, {"alias": "soup", "title": "Soup"}], "rating": 4.0, "coordinates": {"latitude": 33.7782571443005, "longitude": -84.4090312890244}, "transactions": ["delivery", "pickup"], "price": "$$", "location": {"address1": "935 Marietta St NW", "address2": "Ste A", "address3": "", "city": "Atlanta", "zip_code": "30318", "country": "US", "state": "GA", "display_address": ["935 Marietta St NW", "Ste A", "Atlanta, GA 30318"]}, "phone": "+14044399850", "display_phone": "(404) 439-9850", "distance": 5080.49676053976}, {"id": "BAB735SRygEeGeFGVZCVSw", "alias": "chong-qing-hot-pot-chamblee", "name": "Chong Qing Hot Pot", "image_url": "https://s3-media2.fl.yelpcdn.com/bphoto/BeC3yw6F-eRbSJ18YA-G3w/o.jpg", "is_closed": false, "url": "https://www.yelp.com/biz/chong-qing-hot-pot-chamblee?adjust_creative=vyhy616UjsMTA_hrWyg_5w&utm_campaign=yelp_api_v3&utm_medium=api_v3_business_search&utm_source=vyhy616UjsMTA_hrWyg_5w", "review_count": 328, "categories": [{"alias": "szechuan", "title": "Szechuan"}, {"alias": "hotpot", "title": "Hot Pot"}, {"alias": "asianfusion", "title": "Asian Fusion"}], "rating": 4.5, "coordinates": {"latitude": 33.890609, "longitude": -84.299608}, "transactions": ["delivery", "pickup"], "price": "$", "location": {"address1": "5385 New Peachtree Rd", "address2": "", "address3": "", "city": "Chamblee", "zip_code": "30341", "country": "US", "state": "GA", "display_address": ["5385 New Peachtree Rd", "Chamblee, GA 30341"]}, "phone": "+17709361379", "display_phone": "(770) 936-1379", "distance": 10958.548210476001}, {"id": "NeoTlmuusyIkKCjST0VD2g", "alias": "lifting-noodles-ramen-atlanta", "name": "Lifting Noodles Ramen", "image_url": "https://s3-media4.fl.yelpcdn.com/bphoto/hK5ULphRX_QDiW8NSKYY-A/o.jpg", "is_closed": false, "url": "https://www.yelp.com/biz/lifting-noodles-ramen-atlanta?adjust_creative=vyhy616UjsMTA_hrWyg_5w&utm_campaign=yelp_api_v3&utm_medium=api_v3_business_search&utm_source=vyhy616UjsMTA_hrWyg_5w", "review_count": 123, "categories": [{"alias": "ramen", "title": "Ramen"}], "rating": 4.5, "coordinates": {"latitude": 33.74075, "longitude": -84.3467299}, "transactions": ["delivery"], "price": "$$", "location": {"address1": "477 Flat Shoals Ave SE", "address2": "", "address3": null, "city": "Atlanta", "zip_code": "30316", "country": "US", "state": "GA", "display_address": ["477 Flat Shoals Ave SE", "Atlanta, GA 30316"]}, "phone": "+14045582052", "display_phone": "(404) 558-2052", "distance": 8415.765724633307}, {"id": "VdcQMPVIIfsiHU2FUOyDNQ", "alias": "sweet-spot-doraville-2", "name": "Sweet Spot", "image_url": "https://s3-media2.fl.yelpcdn.com/bphoto/RMRlYUDunY8HjffWBFQOsQ/o.jpg", "is_closed": false, "url": "https://www.yelp.com/biz/sweet-spot-doraville-2?adjust_creative=vyhy616UjsMTA_hrWyg_5w&utm_campaign=yelp_api_v3&utm_medium=api_v3_business_search&utm_source=vyhy616UjsMTA_hrWyg_5w", "review_count": 205, "categories": [{"alias": "desserts", "title": "Desserts"}, {"alias": "asianfusion", "title": "Asian Fusion"}, {"alias": "hkcafe", "title": "Hong Kong Style Cafe"}], "rating": 4.5, "coordinates": {"latitude": 33.907386, "longitude": -84.287352}, "transactions": ["delivery", "pickup"], "price": "$", "location": {"address1": "6035 Peachtree Rd", "address2": "Ste A-115", "address3": "", "city": "Doraville", "zip_code": "30341", "country": "US", "state": "GA", "display_address": ["6035 Peachtree Rd", "Ste A-115", "Doraville, GA 30341"]}, "phone": "+16786157913", "display_phone": "(678) 615-7913", "distance": 13157.292300778086}, {"id": "BqhZF2zlLa8qF9VHRJpqhw", "alias": "tasty-china-smyrna", "name": "Tasty China", "image_url": "https://s3-media2.fl.yelpcdn.com/bphoto/hzsvy2lFlnvQN5cNQoIRxA/o.jpg", "is_closed": false, "url": "https://www.yelp.com/biz/tasty-china-smyrna?adjust_creative=vyhy616UjsMTA_hrWyg_5w&utm_campaign=yelp_api_v3&utm_medium=api_v3_business_search&utm_source=vyhy616UjsMTA_hrWyg_5w", "review_count": 195, "categories": [{"alias": "szechuan", "title": "Szechuan"}, {"alias": "vegetarian", "title": "Vegetarian"}], "rating": 4.0, "coordinates": {"latitude": 33.9070179859514, "longitude": -84.5288950949907}, "transactions": ["delivery"], "price": "$$", "location": {"address1": "1860 Atlanta Rd SE", "address2": "", "address3": null, "city": "Smyrna", "zip_code": "30080", "country": "US", "state": "GA", "display_address": ["1860 Atlanta Rd SE", "Smyrna, GA 30080"]}, "phone": "+17706272390", "display_phone": "(770) 627-2390", "distance": 17729.750858993182}, {"id": "I8mHWZuVbnxrwNykeo2lMA", "alias": "warung-indonesian-halal-restaurant-doraville", "name": "Warung Indonesian Halal Restaurant", "image_url": "https://s3-media2.fl.yelpcdn.com/bphoto/SDYl7l9oYKthD8kghOXVYQ/o.jpg", "is_closed": false, "url": "https://www.yelp.com/biz/warung-indonesian-halal-restaurant-doraville?adjust_creative=vyhy616UjsMTA_hrWyg_5w&utm_campaign=yelp_api_v3&utm_medium=api_v3_business_search&utm_source=vyhy616UjsMTA_hrWyg_5w", "review_count": 28, "categories": [{"alias": "indonesian", "title": "Indonesian"}, {"alias": "halal", "title": "Halal"}], "rating": 4.5, "coordinates": {"latitude": 33.899547, "longitude": -84.279197}, "transactions": ["delivery", "pickup"], "location": {"address1": "5382 Buford Hwy NE", "address2": "", "address3": null, "city": "Doraville", "zip_code": "30340", "country": "US", "state": "GA", "display_address": ["5382 Buford Hwy NE", "Doraville, GA 30340"]}, "phone": "+14045731736", "display_phone": "(404) 573-1736", "distance": 12966.519726408551}, {"id": "JnNdEhN7Ixr4NcsbvVZ0Nw", "alias": "thrill-korean-steak-and-bar-sandy-spring", "name": "Thrill Korean Steak and Bar", "image_url": "https://s3-media3.fl.yelpcdn.com/bphoto/92CCiPQatblFmeIdMWZpGQ/o.jpg", "is_closed": false, "url": "https://www.yelp.com/biz/thrill-korean-steak-and-bar-sandy-spring?adjust_creative=vyhy616UjsMTA_hrWyg_5w&utm_campaign=yelp_api_v3&utm_medium=api_v3_business_search&utm_source=vyhy616UjsMTA_hrWyg_5w", "review_count": 242, "categories": [{"alias": "korean", "title": "Korean"}, {"alias": "bars", "title": "Bars"}, {"alias": "steak", "title": "Steakhouses"}], "rating": 4.5, "coordinates": {"latitude": 33.917761, "longitude": -84.381834}, "transactions": ["delivery"], "location": {"address1": "5958 Roswell Rd", "address2": null, "address3": "", "city": "Sandy Spring", "zip_code": "30328", "country": "US", "state": "GA", "display_address": ["5958 Roswell Rd", "Sandy Spring, GA 30328"]}, "phone": "+14043431823", "display_phone": "(404) 343-1823", "distance": 11649.853003730183}, {"id": "9x8tQvdczbrNaTsQJWRiCQ", "alias": "ponko-chicken-atlanta-3", "name": "Ponko Chicken", "image_url": "https://s3-media1.fl.yelpcdn.com/bphoto/QVBytQ8bwM3HKCpxOTEcQw/o.jpg", "is_closed": false, "url": "https://www.yelp.com/biz/ponko-chicken-atlanta-3?adjust_creative=vyhy616UjsMTA_hrWyg_5w&utm_campaign=yelp_api_v3&utm_medium=api_v3_business_search&utm_source=vyhy616UjsMTA_hrWyg_5w", "review_count": 233, "categories": [{"alias": "asianfusion", "title": "Asian Fusion"}, {"alias": "chickenshop", "title": "Chicken Shop"}], "rating": 4.5, "coordinates": {"latitude": 33.779541, "longitude": -84.3871251}, "transactions": ["delivery", "pickup"], "price": "$$", "location": {"address1": "915 West Peachtree St", "address2": "Ste 6", "address3": "", "city": "Atlanta", "zip_code": "30309", "country": "US", "state": "GA", "display_address": ["915 West Peachtree St", "Ste 6", "Atlanta, GA 30309"]}, "phone": "+14049752316", "display_phone": "(404) 975-2316", "distance": 3916.155764631494}], "total": 1300, "region": {"center": {"longitude": -84.37362670898438, "latitude": 33.81321311652279}}}