{"businesses": [{"id": "ZKKaP4Lx-dexf4T1aCsBKw", "alias": "modita-indianapolis-2", "name": "Modita", "image_url": "https://s3-media2.fl.yelpcdn.com/bphoto/neTGuBk352TaiRk3_14cAw/o.jpg", "is_closed": false, "url": "https://www.yelp.com/biz/modita-indianapolis-2?adjust_creative=vyhy616UjsMTA_hrWyg_5w&utm_campaign=yelp_api_v3&utm_medium=api_v3_business_search&utm_source=vyhy616UjsMTA_hrWyg_5w", "review_count": 28, "categories": [{"alias": "sushi", "title": "Sushi Bars"}, {"alias": "noodles", "title": "Noodles"}, {"alias": "panasian", "title": "Pan Asian"}], "rating": 4.5, "coordinates": {"latitude": 39.77983, "longitude": -86.14376}, "transactions": [], "location": {"address1": "850 Massachusetts Ave", "address2": "Ste 110", "address3": null, "city": "Indianapolis", "zip_code": "46204", "country": "US", "state": "IN", "display_address": ["850 Massachusetts Ave", "Ste 110", "Indianapolis, IN 46204"]}, "phone": "+13173160470", "display_phone": "(317) 316-0470", "distance": 25445.729288218205}, {"id": "MpkCQTOV6D3XGRPbtQPj5Q", "alias": "pho-36-avon", "name": "Pho 36", "image_url": "https://s3-media4.fl.yelpcdn.com/bphoto/_wSpsHM4s9y4UkGR0rOWpA/o.jpg", "is_closed": false, "url": "https://www.yelp.com/biz/pho-36-avon?adjust_creative=vyhy616UjsMTA_hrWyg_5w&utm_campaign=yelp_api_v3&utm_medium=api_v3_business_search&utm_source=vyhy616UjsMTA_hrWyg_5w", "review_count": 226, "categories": [{"alias": "vietnamese", "title": "Vietnamese"}, {"alias": "noodles", "title": "Noodles"}, {"alias": "soup", "title": "Soup"}], "rating": 4.5, "coordinates": {"latitude": 39.7631044346348, "longitude": -86.3519488545074}, "transactions": ["delivery"], "price": "$", "location": {"address1": "9655 E US Hwy 36", "address2": "Ste C", "address3": "", "city": "Avon", "zip_code": "46123", "country": "US", "state": "IN", "display_address": ["9655 E US Hwy 36", "Ste C", "Avon, IN 46123"]}, "phone": "+13172731830", "display_phone": "(317) 273-1830", "distance": 7562.95519180679}, {"id": "Tmmf74MfbNNFNvFNuavxrQ", "alias": "bangkok-kitchen-thai-restaurant-avon", "name": "Bangkok Kitchen Thai Restaurant", "image_url": "https://s3-media2.fl.yelpcdn.com/bphoto/rkxXdVaW0FhF_Fw6i3KF8Q/o.jpg", "is_closed": false, "url": "https://www.yelp.com/biz/bangkok-kitchen-thai-restaurant-avon?adjust_creative=vyhy616UjsMTA_hrWyg_5w&utm_campaign=yelp_api_v3&utm_medium=api_v3_business_search&utm_source=vyhy616UjsMTA_hrWyg_5w", "review_count": 193, "categories": [{"alias": "thai", "title": "Thai"}, {"alias": "wine_bars", "title": "Wine Bars"}, {"alias": "cocktailbars", "title": "Cocktail Bars"}], "rating": 4.5, "coordinates": {"latitude": 39.76239010309374, "longitude": -86.35727510214598}, "transactions": ["delivery", "pickup"], "price": "$$", "location": {"address1": "9269 E US 36 Hwy", "address2": null, "address3": "", "city": "Avon", "zip_code": "46123", "country": "US", "state": "IN", "display_address": ["9269 E US 36 Hwy", "Avon, IN 46123"]}, "phone": "+13174385887", "display_phone": "(317) 438-5887", "distance": 7108.563627770447}, {"id": "Xmwmq_2uG5_oEllphCIB0Q", "alias": "asia-wok-danville", "name": "Asia Wok", "image_url": "https://s3-media4.fl.yelpcdn.com/bphoto/zOv8kCmZ5okfmqCruPXaYw/o.jpg", "is_closed": false, "url": "https://www.yelp.com/biz/asia-wok-danville?adjust_creative=vyhy616UjsMTA_hrWyg_5w&utm_campaign=yelp_api_v3&utm_medium=api_v3_business_search&utm_source=vyhy616UjsMTA_hrWyg_5w", "review_count": 20, "categories": [{"alias": "chinese", "title": "Chinese"}, {"alias": "sushi", "title": "Sushi Bars"}], "rating": 4.0, "coordinates": {"latitude": 39.758897, "longitude": -86.511239}, "transactions": ["delivery"], "location": {"address1": "671 E Main St", "address2": "", "address3": null, "city": "Danville", "zip_code": "46122", "country": "US", "state": "IN", "display_address": ["671 E Main St", "Danville, IN 46122"]}, "phone": "+13173863233", "display_phone": "(317) 386-3233", "distance": 6084.570994533403}, {"id": "K5vjOT07DI5jWeRSEyF88w", "alias": "no-1-chinese-restaurant-danville-2", "name": "No. 1 Chinese Restaurant", "image_url": "https://s3-media3.fl.yelpcdn.com/bphoto/bW9h_us6IakG20QfY39I9Q/o.jpg", "is_closed": false, "url": "https://www.yelp.com/biz/no-1-chinese-restaurant-danville-2?adjust_creative=vyhy616UjsMTA_hrWyg_5w&utm_campaign=yelp_api_v3&utm_medium=api_v3_business_search&utm_source=vyhy616UjsMTA_hrWyg_5w", "review_count": 15, "categories": [{"alias": "chinese", "title": "Chinese"}], "rating": 4.0, "coordinates": {"latitude": 39.7610476829337, "longitude": -86.5230855485385}, "transactions": ["delivery"], "price": "$", "location": {"address1": "52 E Main St", "address2": "", "address3": "", "city": "Danville", "zip_code": "46122", "country": "US", "state": "IN", "display_address": ["52 E Main St", "Danville, IN 46122"]}, "phone": "+13177180886", "display_phone": "(317) 718-0886", "distance": 7069.986042832689}, {"id": "J9DECqK_4ZR_mV4WuhH6Ug", "alias": "asia-wok-plainfield", "name": "Asia Wok", "image_url": "https://s3-media2.fl.yelpcdn.com/bphoto/kH93X8UboWn_Rtnl16VAwA/o.jpg", "is_closed": false, "url": "https://www.yelp.com/biz/asia-wok-plainfield?adjust_creative=vyhy616UjsMTA_hrWyg_5w&utm_campaign=yelp_api_v3&utm_medium=api_v3_business_search&utm_source=vyhy616UjsMTA_hrWyg_5w", "review_count": 65, "categories": [{"alias": "chinese", "title": "Chinese"}], "rating": 4.0, "coordinates": {"latitude": 39.6991074193237, "longitude": -86.3732192292809}, "transactions": ["delivery"], "price": "$", "location": {"address1": "2010 Stafford Rd", "address2": "", "address3": "", "city": "Plainfield", "zip_code": "46168", "country": "US", "state": "IN", "display_address": ["2010 Stafford Rd", "Plainfield, IN 46168"]}, "phone": "+13178390999", "display_phone": "(317) 839-0999", "distance": 9173.935283116947}, {"id": "6s7qBoW3RP0EKpSbwf8Tbw", "alias": "pho-88-brownsburg", "name": "Pho 88", "image_url": "https://s3-media1.fl.yelpcdn.com/bphoto/iW-FGCkIkFcDU7pdcyAPjQ/o.jpg", "is_closed": false, "url": "https://www.yelp.com/biz/pho-88-brownsburg?adjust_creative=vyhy616UjsMTA_hrWyg_5w&utm_campaign=yelp_api_v3&utm_medium=api_v3_business_search&utm_source=vyhy616UjsMTA_hrWyg_5w", "review_count": 42, "categories": [{"alias": "vietnamese", "title": "Vietnamese"}], "rating": 5.0, "coordinates": {"latitude": 39.861015, "longitude": -86.405725}, "transactions": ["delivery"], "location": {"address1": "578 W Northfield Dr", "address2": "Ste 1090", "address3": "", "city": "Brownsburg", "zip_code": "46112", "country": "US", "state": "IN", "display_address": ["578 W Northfield Dr", "Ste 1090", "Brownsburg, IN 46112"]}, "phone": "+13172867018", "display_phone": "(317) 286-7018", "distance": 11248.786869493319}, {"id": "QmOiJpb2fSXaYlgjMtVobw", "alias": "thai-basil-brownsburg", "name": "Thai Basil", "image_url": "https://s3-media4.fl.yelpcdn.com/bphoto/F52EMoc4Pv6ZcoPIyVe6IA/o.jpg", "is_closed": false, "url": "https://www.yelp.com/biz/thai-basil-brownsburg?adjust_creative=vyhy616UjsMTA_hrWyg_5w&utm_campaign=yelp_api_v3&utm_medium=api_v3_business_search&utm_source=vyhy616UjsMTA_hrWyg_5w", "review_count": 106, "categories": [{"alias": "thai", "title": "Thai"}], "rating": 4.5, "coordinates": {"latitude": 39.838126, "longitude": -86.382453}, "transactions": ["delivery", "pickup"], "price": "$$", "location": {"address1": "814 E Main St", "address2": "", "address3": null, "city": "Brownsburg", "zip_code": "46112", "country": "US", "state": "IN", "display_address": ["814 E Main St", "Brownsburg, IN 46112"]}, "phone": "+13172867545", "display_phone": "(317) 286-7545", "distance": 9680.086226874364}, {"id": "2fuQnVPwhU_zzfUog_JGsw", "alias": "tins-house-thai-cuisine-and-sushi-avon-3", "name": "Tin's House, Thai Cuisine & Sushi", "image_url": "https://s3-media1.fl.yelpcdn.com/bphoto/IWMVMDZCQatr1dygLOlj9A/o.jpg", "is_closed": false, "url": "https://www.yelp.com/biz/tins-house-thai-cuisine-and-sushi-avon-3?adjust_creative=vyhy616UjsMTA_hrWyg_5w&utm_campaign=yelp_api_v3&utm_medium=api_v3_business_search&utm_source=vyhy616UjsMTA_hrWyg_5w", "review_count": 88, "categories": [{"alias": "sushi", "title": "Sushi Bars"}, {"alias": "thai", "title": "Thai"}, {"alias": "seafood", "title": "Seafood"}], "rating": 4.5, "coordinates": {"latitude": 39.7643719423675, "longitude": -86.3450756205348}, "transactions": ["pickup"], "price": "$$", "location": {"address1": "10022 E US Hwy 36", "address2": "", "address3": "", "city": "Avon", "zip_code": "46123", "country": "US", "state": "IN", "display_address": ["10022 E US Hwy 36", "Avon, IN 46123"]}, "phone": "+13172730131", "display_phone": "(317) 273-0131", "distance": 8150.989203539624}, {"id": "rR30b1XWbxZFFgLyGbfNAw", "alias": "bodhi-craft-bar-thai-bistro-indianapolis", "name": "BODHI : Craft Bar + Thai Bistro", "image_url": "https://s3-media2.fl.yelpcdn.com/bphoto/akd_QUynlar5JE2-A3B2DA/o.jpg", "is_closed": false, "url": "https://www.yelp.com/biz/bodhi-craft-bar-thai-bistro-indianapolis?adjust_creative=vyhy616UjsMTA_hrWyg_5w&utm_campaign=yelp_api_v3&utm_medium=api_v3_business_search&utm_source=vyhy616UjsMTA_hrWyg_5w", "review_count": 28, "categories": [{"alias": "thai", "title": "Thai"}, {"alias": "cocktailbars", "title": "Cocktail Bars"}, {"alias": "gastropubs", "title": "Gastropubs"}], "rating": 4.5, "coordinates": {"latitude": 39.780227, "longitude": -86.141835}, "transactions": ["delivery", "pickup"], "location": {"address1": "922 Massachusetts Ave", "address2": null, "address3": "", "city": "Indianapolis", "zip_code": "46202", "country": "US", "state": "IN", "display_address": ["922 Massachusetts Ave", "Indianapolis, IN 46202"]}, "phone": "+13179416595", "display_phone": "(317) 941-6595", "distance": 25590.22616558436}, {"id": "sViA9z_wQ3btiEnNVVciag", "alias": "asia-wok-brownsburg", "name": "Asia Wok", "image_url": "https://s3-media1.fl.yelpcdn.com/bphoto/l2XgZD1odXS-sivIm_ggJQ/o.jpg", "is_closed": false, "url": "https://www.yelp.com/biz/asia-wok-brownsburg?adjust_creative=vyhy616UjsMTA_hrWyg_5w&utm_campaign=yelp_api_v3&utm_medium=api_v3_business_search&utm_source=vyhy616UjsMTA_hrWyg_5w", "review_count": 97, "categories": [{"alias": "chinese", "title": "Chinese"}], "rating": 3.5, "coordinates": {"latitude": 39.8641128540039, "longitude": -86.3932495117188}, "transactions": ["delivery"], "price": "$", "location": {"address1": "1430 N Green St", "address2": "", "address3": "", "city": "Brownsburg", "zip_code": "46112", "country": "US", "state": "IN", "display_address": ["1430 N Green St", "Brownsburg, IN 46112"]}, "phone": "+13178522967", "display_phone": "(317) 852-2967", "distance": 11907.883578529125}, {"id": "MZnAp5j8gaxsOV-epdDRog", "alias": "hong-kong-restaurant-mooresville", "name": "Hong Kong Restaurant", "image_url": "https://s3-media1.fl.yelpcdn.com/bphoto/VZqrT4JHX8r-xq1CIJX6Ng/o.jpg", "is_closed": false, "url": "https://www.yelp.com/biz/hong-kong-restaurant-mooresville?adjust_creative=vyhy616UjsMTA_hrWyg_5w&utm_campaign=yelp_api_v3&utm_medium=api_v3_business_search&utm_source=vyhy616UjsMTA_hrWyg_5w", "review_count": 23, "categories": [{"alias": "chinese", "title": "Chinese"}], "rating": 4.0, "coordinates": {"latitude": 39.609057, "longitude": -86.374709}, "transactions": ["delivery"], "price": "$", "location": {"address1": "340 S Indiana St", "address2": "", "address3": "", "city": "Mooresville", "zip_code": "46158", "country": "US", "state": "IN", "display_address": ["340 S Indiana St", "Mooresville, IN 46158"]}, "phone": "+13178343368", "display_phone": "(317) 834-3368", "distance": 18063.790195811536}, {"id": "zSa_vfs7ZGVn6dB0vNiY9w", "alias": "thai-select-zionsville", "name": "Thai Select", "image_url": "https://s3-media4.fl.yelpcdn.com/bphoto/YROleVR0IDsY885kodN2ag/o.jpg", "is_closed": false, "url": "https://www.yelp.com/biz/thai-select-zionsville?adjust_creative=vyhy616UjsMTA_hrWyg_5w&utm_campaign=yelp_api_v3&utm_medium=api_v3_business_search&utm_source=vyhy616UjsMTA_hrWyg_5w", "review_count": 171, "categories": [{"alias": "thai", "title": "Thai"}], "rating": 4.0, "coordinates": {"latitude": 39.9473922985472, "longitude": -86.3440490108457}, "transactions": ["delivery", "pickup"], "price": "$$", "location": {"address1": "6579 Whitestown Pkwy", "address2": "", "address3": null, "city": "Zionsville", "zip_code": "46077", "country": "US", "state": "IN", "display_address": ["6579 Whitestown Pkwy", "Zionsville, IN 46077"]}, "phone": "+13177690767", "display_phone": "(317) 769-0767", "distance": 22049.920513885274}, {"id": "2r-p8wj3dZm1baMbOzBvZg", "alias": "ho-wah-restaurant-brownsburg", "name": "Ho Wah Restaurant", "image_url": "https://s3-media2.fl.yelpcdn.com/bphoto/4lWL8AofJYfkl0cUNTYZqg/o.jpg", "is_closed": false, "url": "https://www.yelp.com/biz/ho-wah-restaurant-brownsburg?adjust_creative=vyhy616UjsMTA_hrWyg_5w&utm_campaign=yelp_api_v3&utm_medium=api_v3_business_search&utm_source=vyhy616UjsMTA_hrWyg_5w", "review_count": 36, "categories": [{"alias": "chinese", "title": "Chinese"}], "rating": 3.0, "coordinates": {"latitude": 39.8572449, "longitude": -86.3955956}, "transactions": ["delivery"], "price": "$", "location": {"address1": "325 W Northfield Dr", "address2": null, "address3": null, "city": "Brownsburg", "zip_code": "46112", "country": "US", "state": "IN", "display_address": ["325 W Northfield Dr", "Brownsburg, IN 46112"]}, "phone": "+13178588218", "display_phone": "(317) 858-8218", "distance": 11056.945744447492}, {"id": "a1nhhoy3oL21gvxlNOIzYA", "alias": "yamato-sushi-and-hibachi-express-brownsburg", "name": "Yamato Sushi & Hibachi Express", "image_url": "https://s3-media1.fl.yelpcdn.com/bphoto/nP_sihmrpKBVoLCPgOTNZg/o.jpg", "is_closed": false, "url": "https://www.yelp.com/biz/yamato-sushi-and-hibachi-express-brownsburg?adjust_creative=vyhy616UjsMTA_hrWyg_5w&utm_campaign=yelp_api_v3&utm_medium=api_v3_business_search&utm_source=vyhy616UjsMTA_hrWyg_5w", "review_count": 54, "categories": [{"alias": "japanese", "title": "Japanese"}, {"alias": "sushi", "title": "Sushi Bars"}], "rating": 4.0, "coordinates": {"latitude": 39.85539, "longitude": -86.390259}, "transactions": ["delivery", "pickup"], "price": "$$", "location": {"address1": "927 N Green St", "address2": "", "address3": null, "city": "Brownsburg", "zip_code": "46112", "country": "US", "state": "IN", "display_address": ["927 N Green St", "Brownsburg, IN 46112"]}, "phone": "+13172867175", "display_phone": "(317) 286-7175", "distance": 11087.00242163876}, {"id": "7etaSB4-9MPhShMsdLWINg", "alias": "thai-district-restaurant-brownsburg-2", "name": "Thai District Restaurant", "image_url": "https://s3-media2.fl.yelpcdn.com/bphoto/pGRBzROG-uuUXN8I6wl6PA/o.jpg", "is_closed": false, "url": "https://www.yelp.com/biz/thai-district-restaurant-brownsburg-2?adjust_creative=vyhy616UjsMTA_hrWyg_5w&utm_campaign=yelp_api_v3&utm_medium=api_v3_business_search&utm_source=vyhy616UjsMTA_hrWyg_5w", "review_count": 72, "categories": [{"alias": "thai", "title": "Thai"}], "rating": 4.5, "coordinates": {"latitude": 39.85909, "longitude": -86.39251}, "transactions": ["delivery", "pickup"], "price": "$$", "location": {"address1": "5724 Green St", "address2": null, "address3": "", "city": "Brownsburg", "zip_code": "46112", "country": "US", "state": "IN", "display_address": ["5724 Green St", "Brownsburg, IN 46112"]}, "phone": "+13179392112", "display_phone": "(317) 939-2112", "distance": 9966.016696235096}, {"id": "Adk7onX_5mfD_HWmUEAhmA", "alias": "a1-japanese-steakhouse-and-sushi-bar-mooresville", "name": "A1 Japanese Steakhouse & Sushi Bar", "image_url": "https://s3-media1.fl.yelpcdn.com/bphoto/p525dEY57NBkLjUrXsqg6A/o.jpg", "is_closed": false, "url": "https://www.yelp.com/biz/a1-japanese-steakhouse-and-sushi-bar-mooresville?adjust_creative=vyhy616UjsMTA_hrWyg_5w&utm_campaign=yelp_api_v3&utm_medium=api_v3_business_search&utm_source=vyhy616UjsMTA_hrWyg_5w", "review_count": 70, "categories": [{"alias": "sushi", "title": "Sushi Bars"}, {"alias": "japanese", "title": "Japanese"}], "rating": 4.0, "coordinates": {"latitude": 39.6000228737105, "longitude": -86.3730019703507}, "transactions": ["delivery"], "price": "$$", "location": {"address1": "330 Southbridge Crossing", "address2": "", "address3": "", "city": "Mooresville", "zip_code": "46158", "country": "US", "state": "IN", "display_address": ["330 Southbridge Crossing", "Mooresville, IN 46158"]}, "phone": "+13178318883", "display_phone": "(317) 831-8883", "distance": 19062.34793888216}, {"id": "VtjIXjkFDluasukeUzIAbw", "alias": "asian-snack-indianapolis", "name": "Asian Snack", "image_url": "https://s3-media4.fl.yelpcdn.com/bphoto/Po6tKgLLEPXYsEHyKa4liw/o.jpg", "is_closed": false, "url": "https://www.yelp.com/biz/asian-snack-indianapolis?adjust_creative=vyhy616UjsMTA_hrWyg_5w&utm_campaign=yelp_api_v3&utm_medium=api_v3_business_search&utm_source=vyhy616UjsMTA_hrWyg_5w", "review_count": 71, "categories": [{"alias": "chinese", "title": "Chinese"}, {"alias": "asianfusion", "title": "Asian Fusion"}, {"alias": "seafood", "title": "Seafood"}], "rating": 4.5, "coordinates": {"latitude": 39.8200464, "longitude": -86.2283051}, "transactions": ["delivery"], "price": "$", "location": {"address1": "3605 Commercial Dr", "address2": "", "address3": "", "city": "Indianapolis", "zip_code": "46222", "country": "US", "state": "IN", "display_address": ["3605 Commercial Dr", "Indianapolis, IN 46222"]}, "phone": "+13172971072", "display_phone": "(317) 297-1072", "distance": 19231.752735766033}, {"id": "0aT56_BjLyMi_NyL8tLGVA", "alias": "thai-lanna-avon", "name": "Thai Lanna", "image_url": "https://s3-media3.fl.yelpcdn.com/bphoto/4WvH7WdNFldfCH1xB_IT-Q/o.jpg", "is_closed": false, "url": "https://www.yelp.com/biz/thai-lanna-avon?adjust_creative=vyhy616UjsMTA_hrWyg_5w&utm_campaign=yelp_api_v3&utm_medium=api_v3_business_search&utm_source=vyhy616UjsMTA_hrWyg_5w", "review_count": 99, "categories": [{"alias": "thai", "title": "Thai"}], "rating": 4.0, "coordinates": {"latitude": 39.763072, "longitude": -86.3518871}, "transactions": ["delivery", "pickup"], "price": "$$", "location": {"address1": "9655 E US Hwy 36", "address2": "Ste I", "address3": "", "city": "Avon", "zip_code": "46123", "country": "US", "state": "IN", "display_address": ["9655 E US Hwy 36", "Ste I", "Avon, IN 46123"]}, "phone": "+13174263420", "display_phone": "(317) 426-3420", "distance": 7568.252542611011}, {"id": "edmCIaOGJVFWM9xiNQaumQ", "alias": "asian-kitchen-and-sushi-bar-carmel-5", "name": "Asian Kitchen & Sushi Bar", "image_url": "https://s3-media2.fl.yelpcdn.com/bphoto/pE9BpKt9PhhC-nccakcGGQ/o.jpg", "is_closed": false, "url": "https://www.yelp.com/biz/asian-kitchen-and-sushi-bar-carmel-5?adjust_creative=vyhy616UjsMTA_hrWyg_5w&utm_campaign=yelp_api_v3&utm_medium=api_v3_business_search&utm_source=vyhy616UjsMTA_hrWyg_5w", "review_count": 108, "categories": [{"alias": "asianfusion", "title": "Asian Fusion"}, {"alias": "sushi", "title": "Sushi Bars"}, {"alias": "seafood", "title": "Seafood"}], "rating": 4.5, "coordinates": {"latitude": 39.9419051604162, "longitude": -86.2345830804372}, "transactions": ["delivery", "pickup"], "price": "$$", "location": {"address1": "4000 W 106th St", "address2": "Ste 165", "address3": "", "city": "Carmel", "zip_code": "46032", "country": "US", "state": "IN", "display_address": ["4000 W 106th St", "Ste 165", "Carmel, IN 46032"]}, "phone": "+13179735848", "display_phone": "(317) 973-5848", "distance": 26508.312393855853}, {"id": "CBrD7r4PTCAKc7sP_WsXmw", "alias": "meet-noodles-\u76f8\u9047\u5c0f\u9762-indianapolis", "name": "Meet Noodles \u76f8\u9047\u5c0f\u9762", "image_url": "https://s3-media3.fl.yelpcdn.com/bphoto/aQBFyFHEu8btrfsYfV4gJg/o.jpg", "is_closed": false, "url": "https://www.yelp.com/biz/meet-noodles-%E7%9B%B8%E9%81%87%E5%B0%8F%E9%9D%A2-indianapolis?adjust_creative=vyhy616UjsMTA_hrWyg_5w&utm_campaign=yelp_api_v3&utm_medium=api_v3_business_search&utm_source=vyhy616UjsMTA_hrWyg_5w", "review_count": 155, "categories": [{"alias": "asianfusion", "title": "Asian Fusion"}, {"alias": "noodles", "title": "Noodles"}, {"alias": "ramen", "title": "Ramen"}], "rating": 4.5, "coordinates": {"latitude": 39.90664, "longitude": -86.05844}, "transactions": ["delivery", "pickup"], "price": "$$", "location": {"address1": "6368 E 82nd St", "address2": null, "address3": "", "city": "Indianapolis", "zip_code": "46250", "country": "US", "state": "IN", "display_address": ["6368 E 82nd St", "Indianapolis, IN 46250"]}, "phone": "+13178638058", "display_phone": "(317) 863-8058", "distance": 36265.88087285657}, {"id": "fIPy6i55ik-Uto3xcMcLsg", "alias": "homey-indianapolis", "name": "Homey", "image_url": "https://s3-media3.fl.yelpcdn.com/bphoto/OrTeaRmSG0JAkvKvQ5r9Qg/o.jpg", "is_closed": false, "url": "https://www.yelp.com/biz/homey-indianapolis?adjust_creative=vyhy616UjsMTA_hrWyg_5w&utm_campaign=yelp_api_v3&utm_medium=api_v3_business_search&utm_source=vyhy616UjsMTA_hrWyg_5w", "review_count": 71, "categories": [{"alias": "japanese", "title": "Japanese"}, {"alias": "buffets", "title": "Buffets"}, {"alias": "asianfusion", "title": "Asian Fusion"}], "rating": 4.0, "coordinates": {"latitude": 39.82133, "longitude": -86.23087}, "transactions": ["delivery"], "price": "$$", "location": {"address1": "3649 Lafayette Rd", "address2": "", "address3": null, "city": "Indianapolis", "zip_code": "46222", "country": "US", "state": "IN", "display_address": ["3649 Lafayette Rd", "Indianapolis, IN 46222"]}, "phone": "+13172951982", "display_phone": "(317) 295-1982", "distance": 19037.99363385071}, {"id": "F5H2FtLT2O-MPcZaJYIN8Q", "alias": "kissaten-restaurant-indianapolis", "name": "Kissaten Restaurant", "image_url": "https://s3-media1.fl.yelpcdn.com/bphoto/MjypZVA6YksFss8Wlh05Cw/o.jpg", "is_closed": false, "url": "https://www.yelp.com/biz/kissaten-restaurant-indianapolis?adjust_creative=vyhy616UjsMTA_hrWyg_5w&utm_campaign=yelp_api_v3&utm_medium=api_v3_business_search&utm_source=vyhy616UjsMTA_hrWyg_5w", "review_count": 33, "categories": [{"alias": "japanese", "title": "Japanese"}, {"alias": "asianfusion", "title": "Asian Fusion"}, {"alias": "vietnamese", "title": "Vietnamese"}], "rating": 4.5, "coordinates": {"latitude": 39.636776, "longitude": -86.1227802}, "transactions": ["delivery", "pickup"], "location": {"address1": "8908 Saint Peter St", "address2": null, "address3": "", "city": "Indianapolis", "zip_code": "46227", "country": "US", "state": "IN", "display_address": ["8908 Saint Peter St", "Indianapolis, IN 46227"]}, "phone": "+13173001057", "display_phone": "(317) 300-1057", "distance": 30607.366929172895}, {"id": "ppqy2ZngsnYbp9e3qXGz-w", "alias": "sushi-club-indianapolis", "name": "Sushi Club", "image_url": "https://s3-media4.fl.yelpcdn.com/bphoto/-YOeqtOWl4hYuGodZBCwvw/o.jpg", "is_closed": false, "url": "https://www.yelp.com/biz/sushi-club-indianapolis?adjust_creative=vyhy616UjsMTA_hrWyg_5w&utm_campaign=yelp_api_v3&utm_medium=api_v3_business_search&utm_source=vyhy616UjsMTA_hrWyg_5w", "review_count": 288, "categories": [{"alias": "sushi", "title": "Sushi Bars"}, {"alias": "japanese", "title": "Japanese"}], "rating": 4.0, "coordinates": {"latitude": 39.779684, "longitude": -86.287869}, "transactions": ["delivery"], "price": "$$", "location": {"address1": "7230 W 10th St", "address2": "", "address3": "", "city": "Indianapolis", "zip_code": "46214", "country": "US", "state": "IN", "display_address": ["7230 W 10th St", "Indianapolis, IN 46214"]}, "phone": "+13172488103", "display_phone": "(317) 248-8103", "distance": 13163.456751362324}, {"id": "0HwxZ9ngr_2rsnuawVOocg", "alias": "thai-town-cuisine-indianapolis-3", "name": "Thai Town Cuisine", "image_url": "https://s3-media1.fl.yelpcdn.com/bphoto/Mlpr-czQvdGdBZqehcR3kA/o.jpg", "is_closed": false, "url": "https://www.yelp.com/biz/thai-town-cuisine-indianapolis-3?adjust_creative=vyhy616UjsMTA_hrWyg_5w&utm_campaign=yelp_api_v3&utm_medium=api_v3_business_search&utm_source=vyhy616UjsMTA_hrWyg_5w", "review_count": 213, "categories": [{"alias": "thai", "title": "Thai"}], "rating": 4.5, "coordinates": {"latitude": 39.7487325923111, "longitude": -86.2694729968895}, "transactions": ["delivery", "pickup"], "price": "$$", "location": {"address1": "1237 S High School Rd", "address2": "", "address3": "", "city": "Indianapolis", "zip_code": "46241", "country": "US", "state": "IN", "display_address": ["1237 S High School Rd", "Indianapolis, IN 46241"]}, "phone": "+13177316769", "display_phone": "(317) 731-6769", "distance": 14704.881880432331}, {"id": "vjRzu0bzp8wf6pDYFqt4qA", "alias": "thai-orchid-plainfield", "name": "Thai Orchid", "image_url": "https://s3-media3.fl.yelpcdn.com/bphoto/Ge7cSdmjMKAIoBXpRflvqA/o.jpg", "is_closed": false, "url": "https://www.yelp.com/biz/thai-orchid-plainfield?adjust_creative=vyhy616UjsMTA_hrWyg_5w&utm_campaign=yelp_api_v3&utm_medium=api_v3_business_search&utm_source=vyhy616UjsMTA_hrWyg_5w", "review_count": 143, "categories": [{"alias": "thai", "title": "Thai"}], "rating": 4.0, "coordinates": {"latitude": 39.716648, "longitude": -86.354416}, "transactions": ["pickup"], "price": "$$", "location": {"address1": "2683 E Main St", "address2": "Ste 106", "address3": "", "city": "Plainfield", "zip_code": "46168", "country": "US", "state": "IN", "display_address": ["2683 E Main St", "Ste 106", "Plainfield, IN 46168"]}, "phone": "+13178389688", "display_phone": "(317) 838-9688", "distance": 9006.897848512077}, {"id": "0z1VO3Js0NdTOKLYDa15zw", "alias": "huong-sizzling-wok-indianapolis", "name": "Huong Sizzling Wok", "image_url": "https://s3-media3.fl.yelpcdn.com/bphoto/GENySyVyb3T66MwRz4zEEA/o.jpg", "is_closed": false, "url": "https://www.yelp.com/biz/huong-sizzling-wok-indianapolis?adjust_creative=vyhy616UjsMTA_hrWyg_5w&utm_campaign=yelp_api_v3&utm_medium=api_v3_business_search&utm_source=vyhy616UjsMTA_hrWyg_5w", "review_count": 97, "categories": [{"alias": "chinese", "title": "Chinese"}, {"alias": "vietnamese", "title": "Vietnamese"}, {"alias": "bubbletea", "title": "Bubble Tea"}], "rating": 4.0, "coordinates": {"latitude": 39.83381, "longitude": -86.24402}, "transactions": ["delivery"], "price": "$", "location": {"address1": "4351 Lafayette Rd", "address2": "", "address3": "", "city": "Indianapolis", "zip_code": "46254", "country": "US", "state": "IN", "display_address": ["4351 Lafayette Rd", "Indianapolis, IN 46254"]}, "phone": "+13172973441", "display_phone": "(317) 297-3441", "distance": 18521.723849822567}, {"id": "pIBzdphPacqDW-P64F9Evg", "alias": "imperial-palace-indianapolis", "name": "Imperial Palace", "image_url": "https://s3-media3.fl.yelpcdn.com/bphoto/pvn1eK7VZdCKT7tcjh4KTQ/o.jpg", "is_closed": false, "url": "https://www.yelp.com/biz/imperial-palace-indianapolis?adjust_creative=vyhy616UjsMTA_hrWyg_5w&utm_campaign=yelp_api_v3&utm_medium=api_v3_business_search&utm_source=vyhy616UjsMTA_hrWyg_5w", "review_count": 86, "categories": [{"alias": "chinese", "title": "Chinese"}, {"alias": "seafood", "title": "Seafood"}, {"alias": "soup", "title": "Soup"}], "rating": 4.5, "coordinates": {"latitude": 39.85146, "longitude": -86.26289}, "transactions": ["delivery"], "price": "$$", "location": {"address1": "5510 Lafayette Rd", "address2": "Ste 230", "address3": null, "city": "Indianapolis", "zip_code": "46254", "country": "US", "state": "IN", "display_address": ["5510 Lafayette Rd", "Ste 230", "Indianapolis, IN 46254"]}, "phone": "+13172993388", "display_phone": "(317) 299-3388", "distance": 18039.226697048216}, {"id": "R3_lUY37bG-fPGCwL0i1Ew", "alias": "imbi-restaurant-indianapolis", "name": "Imbi Restaurant", "image_url": "https://s3-media4.fl.yelpcdn.com/bphoto/22v-7YznxjshQCA7MXT3Hg/o.jpg", "is_closed": false, "url": "https://www.yelp.com/biz/imbi-restaurant-indianapolis?adjust_creative=vyhy616UjsMTA_hrWyg_5w&utm_campaign=yelp_api_v3&utm_medium=api_v3_business_search&utm_source=vyhy616UjsMTA_hrWyg_5w", "review_count": 7, "categories": [{"alias": "malaysian", "title": "Malaysian"}], "rating": 4.5, "coordinates": {"latitude": 39.65491, "longitude": -86.15913}, "transactions": ["delivery"], "location": {"address1": "7624 S Meridian St", "address2": "", "address3": null, "city": "Indianapolis", "zip_code": "46217", "country": "US", "state": "IN", "display_address": ["7624 S Meridian St", "Indianapolis, IN 46217"]}, "phone": "+13173000330", "display_phone": "(317) 300-0330", "distance": 26923.652589786496}, {"id": "itkqVWdw3oOpo6KoWv4buQ", "alias": "wei-ramen-indianapolis", "name": "Wei Ramen", "image_url": "https://s3-media2.fl.yelpcdn.com/bphoto/9Q8xTq83V3fe1GtsE4c2Vw/o.jpg", "is_closed": false, "url": "https://www.yelp.com/biz/wei-ramen-indianapolis?adjust_creative=vyhy616UjsMTA_hrWyg_5w&utm_campaign=yelp_api_v3&utm_medium=api_v3_business_search&utm_source=vyhy616UjsMTA_hrWyg_5w", "review_count": 76, "categories": [{"alias": "ramen", "title": "Ramen"}], "rating": 4.0, "coordinates": {"latitude": 39.76727, "longitude": -86.156841}, "transactions": ["delivery", "pickup"], "price": "$$", "location": {"address1": "36 E Washington St", "address2": null, "address3": "", "city": "Indianapolis", "zip_code": "46204", "country": "US", "state": "IN", "display_address": ["36 E Washington St", "Indianapolis, IN 46204"]}, "phone": "+13172807599", "display_phone": "(317) 280-7599", "distance": 24242.727262043874}, {"id": "J17eQxAP2TwBmUPxd36VXA", "alias": "king-wok-indianapolis-3", "name": "King Wok", "image_url": "https://s3-media3.fl.yelpcdn.com/bphoto/HEJVkZoNBy6sRxxzDIa-RQ/o.jpg", "is_closed": false, "url": "https://www.yelp.com/biz/king-wok-indianapolis-3?adjust_creative=vyhy616UjsMTA_hrWyg_5w&utm_campaign=yelp_api_v3&utm_medium=api_v3_business_search&utm_source=vyhy616UjsMTA_hrWyg_5w", "review_count": 182, "categories": [{"alias": "vietnamese", "title": "Vietnamese"}, {"alias": "chinese", "title": "Chinese"}], "rating": 4.5, "coordinates": {"latitude": 39.8301252567118, "longitude": -86.242169316008}, "transactions": ["delivery"], "price": "$", "location": {"address1": "4150 Lafayette Rd", "address2": "", "address3": "", "city": "Indianapolis", "zip_code": "46254", "country": "US", "state": "IN", "display_address": ["4150 Lafayette Rd", "Indianapolis, IN 46254"]}, "phone": "+13172958090", "display_phone": "(317) 295-8090", "distance": 18491.20469992434}, {"id": "bJiUj-jpaSyciyIhBa_DMQ", "alias": "narita-plainfield", "name": "Narita", "image_url": "https://s3-media3.fl.yelpcdn.com/bphoto/xEFIB8gq_0ImbHVL5fU8hA/o.jpg", "is_closed": false, "url": "https://www.yelp.com/biz/narita-plainfield?adjust_creative=vyhy616UjsMTA_hrWyg_5w&utm_campaign=yelp_api_v3&utm_medium=api_v3_business_search&utm_source=vyhy616UjsMTA_hrWyg_5w", "review_count": 103, "categories": [{"alias": "sushi", "title": "Sushi Bars"}, {"alias": "bars", "title": "Bars"}, {"alias": "japanese", "title": "Japanese"}], "rating": 3.0, "coordinates": {"latitude": 39.6734099, "longitude": -86.36975}, "transactions": ["delivery", "pickup"], "price": "$$", "location": {"address1": "6108 Cambridge Way", "address2": "", "address3": "", "city": "Plainfield", "zip_code": "46168", "country": "US", "state": "IN", "display_address": ["6108 Cambridge Way", "Plainfield, IN 46168"]}, "phone": "+13178380007", "display_phone": "(317) 838-0007", "distance": 11691.651192277317}, {"id": "rlKC6e3vMjZ7olMI7bACpg", "alias": "tiger-lily-2-fishers-2", "name": "Tiger Lily 2", "image_url": "https://s3-media4.fl.yelpcdn.com/bphoto/Xq_8IQ4PmlaAaKNu-oOnAA/o.jpg", "is_closed": false, "url": "https://www.yelp.com/biz/tiger-lily-2-fishers-2?adjust_creative=vyhy616UjsMTA_hrWyg_5w&utm_campaign=yelp_api_v3&utm_medium=api_v3_business_search&utm_source=vyhy616UjsMTA_hrWyg_5w", "review_count": 70, "categories": [{"alias": "korean", "title": "Korean"}, {"alias": "asianfusion", "title": "Asian Fusion"}], "rating": 4.5, "coordinates": {"latitude": 39.958574, "longitude": -86.042349}, "transactions": ["delivery", "pickup"], "location": {"address1": "7262 Fishers Crossing Dr", "address2": "", "address3": null, "city": "Fishers", "zip_code": "46038", "country": "US", "state": "IN", "display_address": ["7262 Fishers Crossing Dr", "Fishers, IN 46038"]}, "phone": "+13175161914", "display_phone": "(317) 516-1914", "distance": 40316.221511873955}, {"id": "1T9F7iLDFAYWJvif1RKneg", "alias": "saigon-restaurant-indianapolis", "name": "Saigon Restaurant", "image_url": "https://s3-media3.fl.yelpcdn.com/bphoto/k1LzaYu1wgYhlxX58l-nxA/o.jpg", "is_closed": false, "url": "https://www.yelp.com/biz/saigon-restaurant-indianapolis?adjust_creative=vyhy616UjsMTA_hrWyg_5w&utm_campaign=yelp_api_v3&utm_medium=api_v3_business_search&utm_source=vyhy616UjsMTA_hrWyg_5w", "review_count": 398, "categories": [{"alias": "vietnamese", "title": "Vietnamese"}], "rating": 4.0, "coordinates": {"latitude": 39.82447, "longitude": -86.23985}, "transactions": ["delivery"], "price": "$$", "location": {"address1": "4760 W 38th St", "address2": "", "address3": "", "city": "Indianapolis", "zip_code": "46254", "country": "US", "state": "IN", "display_address": ["4760 W 38th St", "Indianapolis, IN 46254"]}, "phone": "+13179277270", "display_phone": "(317) 927-7270", "distance": 18457.91489568195}, {"id": "f7FPMRaMbGiX-CXPaLFCJw", "alias": "taste-restaurant-at-lucky-lou-seafood-and-dimsum-indianapolis-2", "name": "Taste Restaurant At Lucky Lou Seafood and Dimsum", "image_url": "https://s3-media4.fl.yelpcdn.com/bphoto/zF5z3MENs4Wh0j0DigHC2Q/o.jpg", "is_closed": false, "url": "https://www.yelp.com/biz/taste-restaurant-at-lucky-lou-seafood-and-dimsum-indianapolis-2?adjust_creative=vyhy616UjsMTA_hrWyg_5w&utm_campaign=yelp_api_v3&utm_medium=api_v3_business_search&utm_source=vyhy616UjsMTA_hrWyg_5w", "review_count": 176, "categories": [{"alias": "dimsum", "title": "Dim Sum"}, {"alias": "seafood", "title": "Seafood"}, {"alias": "cantonese", "title": "Cantonese"}], "rating": 4.0, "coordinates": {"latitude": 39.8188374845563, "longitude": -86.2270261838531}, "transactions": ["delivery", "pickup"], "price": "$$", "location": {"address1": "3623 Commercial Dr", "address2": "", "address3": "", "city": "Indianapolis", "zip_code": "46222", "country": "US", "state": "IN", "display_address": ["3623 Commercial Dr", "Indianapolis, IN 46222"]}, "phone": "+13172938888", "display_phone": "(317) 293-8888", "distance": 19246.634240995856}, {"id": "Pq-40zA90KNO_GK54EnuuA", "alias": "pho-lai-restaurant-greenwood", "name": "Pho Lai Restaurant", "image_url": "https://s3-media2.fl.yelpcdn.com/bphoto/GLwzPzW1dTFaapxPFaAtUg/o.jpg", "is_closed": false, "url": "https://www.yelp.com/biz/pho-lai-restaurant-greenwood?adjust_creative=vyhy616UjsMTA_hrWyg_5w&utm_campaign=yelp_api_v3&utm_medium=api_v3_business_search&utm_source=vyhy616UjsMTA_hrWyg_5w", "review_count": 68, "categories": [{"alias": "vietnamese", "title": "Vietnamese"}, {"alias": "sushi", "title": "Sushi Bars"}, {"alias": "burmese", "title": "Burmese"}], "rating": 4.0, "coordinates": {"latitude": 39.6287, "longitude": -86.11533}, "transactions": ["delivery"], "price": "$", "location": {"address1": "1000 N Madison Ave", "address2": "Ste B", "address3": "", "city": "Greenwood", "zip_code": "46142", "country": "US", "state": "IN", "display_address": ["1000 N Madison Ave", "Ste B", "Greenwood, IN 46142"]}, "phone": "+13176417479", "display_phone": "(317) 641-7479", "distance": 31574.8741884902}, {"id": "IAOJuLejVtnZJpw15Txu9A", "alias": "eatthai-indianapolis", "name": "EatThai", "image_url": "https://s3-media3.fl.yelpcdn.com/bphoto/PuGSbAB8mAbv3dP854bFsg/o.jpg", "is_closed": false, "url": "https://www.yelp.com/biz/eatthai-indianapolis?adjust_creative=vyhy616UjsMTA_hrWyg_5w&utm_campaign=yelp_api_v3&utm_medium=api_v3_business_search&utm_source=vyhy616UjsMTA_hrWyg_5w", "review_count": 186, "categories": [{"alias": "thai", "title": "Thai"}], "rating": 4.5, "coordinates": {"latitude": 39.9108414256898, "longitude": -86.2611089086908}, "transactions": ["delivery", "pickup"], "price": "$$", "location": {"address1": "5650 W 86th St", "address2": "Ste 128", "address3": "", "city": "Indianapolis", "zip_code": "46268", "country": "US", "state": "IN", "display_address": ["5650 W 86th St", "Ste 128", "Indianapolis, IN 46268"]}, "phone": "+13174059141", "display_phone": "(317) 405-9141", "distance": 22496.729165172786}, {"id": "n-nLjX38SZ304Lw3iGXoZw", "alias": "thai-paradise-indianapolis", "name": "Thai Paradise", "image_url": "https://s3-media1.fl.yelpcdn.com/bphoto/qlHOyxTSoctOPKHd3vKn3Q/o.jpg", "is_closed": false, "url": "https://www.yelp.com/biz/thai-paradise-indianapolis?adjust_creative=vyhy616UjsMTA_hrWyg_5w&utm_campaign=yelp_api_v3&utm_medium=api_v3_business_search&utm_source=vyhy616UjsMTA_hrWyg_5w", "review_count": 279, "categories": [{"alias": "thai", "title": "Thai"}], "rating": 4.0, "coordinates": {"latitude": 39.7683983, "longitude": -86.1611862}, "transactions": ["delivery", "pickup"], "price": "$$", "location": {"address1": "137 W Market St", "address2": "", "address3": "", "city": "Indianapolis", "zip_code": "46204", "country": "US", "state": "IN", "display_address": ["137 W Market St", "Indianapolis, IN 46204"]}, "phone": "+13178228382", "display_phone": "(317) 822-8382", "distance": 23869.975280798884}, {"id": "IbM-7UstAX8HVQ5vKCrLzA", "alias": "bangkok-restaurant-and-jazz-bar-indianapolis-2", "name": "Bangkok Restaurant & Jazz Bar", "image_url": "https://s3-media4.fl.yelpcdn.com/bphoto/p_W4Kj8W0RUACZ1EK-xM5Q/o.jpg", "is_closed": false, "url": "https://www.yelp.com/biz/bangkok-restaurant-and-jazz-bar-indianapolis-2?adjust_creative=vyhy616UjsMTA_hrWyg_5w&utm_campaign=yelp_api_v3&utm_medium=api_v3_business_search&utm_source=vyhy616UjsMTA_hrWyg_5w", "review_count": 269, "categories": [{"alias": "thai", "title": "Thai"}, {"alias": "bars", "title": "Bars"}, {"alias": "jazzandblues", "title": "Jazz & Blues"}], "rating": 4.0, "coordinates": {"latitude": 39.769633, "longitude": -86.153565}, "transactions": ["delivery", "pickup"], "price": "$$", "location": {"address1": "225 E Ohio St", "address2": "", "address3": "", "city": "Indianapolis", "zip_code": "46204", "country": "US", "state": "IN", "display_address": ["225 E Ohio St", "Indianapolis, IN 46204"]}, "phone": "+13176329000", "display_phone": "(317) 632-9000", "distance": 24528.272914018216}, {"id": "PICgL-_LU1GPRZdBn-DrWQ", "alias": "bibibop-asian-grill-carmel-2", "name": "BIBIBOP Asian Grill", "image_url": "https://s3-media2.fl.yelpcdn.com/bphoto/lndj7qaoMxJX62myI7nkCw/o.jpg", "is_closed": false, "url": "https://www.yelp.com/biz/bibibop-asian-grill-carmel-2?adjust_creative=vyhy616UjsMTA_hrWyg_5w&utm_campaign=yelp_api_v3&utm_medium=api_v3_business_search&utm_source=vyhy616UjsMTA_hrWyg_5w", "review_count": 57, "categories": [{"alias": "asianfusion", "title": "Asian Fusion"}, {"alias": "salad", "title": "Salad"}, {"alias": "gluten_free", "title": "Gluten-Free"}], "rating": 4.0, "coordinates": {"latitude": 39.955541, "longitude": -86.16315}, "transactions": [], "location": {"address1": "365 W 116th St", "address2": "Ste 140", "address3": "", "city": "Carmel", "zip_code": "46032", "country": "US", "state": "IN", "display_address": ["365 W 116th St", "Ste 140", "Carmel, IN 46032"]}, "phone": "+13176809750", "display_phone": "(317) 680-9750", "distance": 31885.28797664144}, {"id": "UkGKEMmXe6gyUJScOuwW8Q", "alias": "no-1-chinese-restaurant-greencastle", "name": "No. 1 Chinese Restaurant", "image_url": "https://s3-media1.fl.yelpcdn.com/bphoto/mqwxy9_ILA-m9FfNmKOUAw/o.jpg", "is_closed": false, "url": "https://www.yelp.com/biz/no-1-chinese-restaurant-greencastle?adjust_creative=vyhy616UjsMTA_hrWyg_5w&utm_campaign=yelp_api_v3&utm_medium=api_v3_business_search&utm_source=vyhy616UjsMTA_hrWyg_5w", "review_count": 13, "categories": [{"alias": "chinese", "title": "Chinese"}], "rating": 4.0, "coordinates": {"latitude": 39.64611, "longitude": -86.82934}, "transactions": ["delivery"], "price": "$", "location": {"address1": "1360 Indianapolis Rd", "address2": "Ste J", "address3": null, "city": "Greencastle", "zip_code": "46135", "country": "US", "state": "IN", "display_address": ["1360 Indianapolis Rd", "Ste J", "Greencastle, IN 46135"]}, "phone": "+17656530828", "display_phone": "(765) 653-0828", "distance": 35722.5364782439}, {"id": "oUJaOC3Jb9C9AbLBEkhMMg", "alias": "rice-cooker-zionsville", "name": "Rice Cooker", "image_url": "https://s3-media4.fl.yelpcdn.com/bphoto/EWhWesi_RzeeNzAa2RkKAA/o.jpg", "is_closed": false, "url": "https://www.yelp.com/biz/rice-cooker-zionsville?adjust_creative=vyhy616UjsMTA_hrWyg_5w&utm_campaign=yelp_api_v3&utm_medium=api_v3_business_search&utm_source=vyhy616UjsMTA_hrWyg_5w", "review_count": 85, "categories": [{"alias": "chinese", "title": "Chinese"}, {"alias": "taiwanese", "title": "Taiwanese"}, {"alias": "thai", "title": "Thai"}], "rating": 3.5, "coordinates": {"latitude": 39.9499851, "longitude": -86.2763767}, "transactions": ["delivery", "pickup"], "price": "$", "location": {"address1": "1211 W Oak St", "address2": "", "address3": "", "city": "Zionsville", "zip_code": "46077", "country": "US", "state": "IN", "display_address": ["1211 W Oak St", "Zionsville, IN 46077"]}, "phone": "+13177331137", "display_phone": "(317) 733-1137", "distance": 24955.299504772884}, {"id": "XdokOzCcW-SWVdBIDPVhXA", "alias": "roku-sushi-and-pho-bargersville", "name": "Roku Sushi & Pho", "image_url": "https://s3-media2.fl.yelpcdn.com/bphoto/Rf9S6-EoLRVC6yP6e3RoFw/o.jpg", "is_closed": false, "url": "https://www.yelp.com/biz/roku-sushi-and-pho-bargersville?adjust_creative=vyhy616UjsMTA_hrWyg_5w&utm_campaign=yelp_api_v3&utm_medium=api_v3_business_search&utm_source=vyhy616UjsMTA_hrWyg_5w", "review_count": 64, "categories": [{"alias": "vietnamese", "title": "Vietnamese"}, {"alias": "sushi", "title": "Sushi Bars"}, {"alias": "soup", "title": "Soup"}], "rating": 4.0, "coordinates": {"latitude": 39.5772464, "longitude": -86.1605491}, "transactions": ["delivery", "pickup"], "location": {"address1": "2800 S State Rd 135", "address2": "Ste A", "address3": null, "city": "Bargersville", "zip_code": "46143", "country": "US", "state": "IN", "display_address": ["2800 S State Rd 135", "Ste A", "Bargersville, IN 46143"]}, "phone": "+13178935180", "display_phone": "(317) 893-5180", "distance": 31660.024033037644}, {"id": "9WGrXMnoOJD8VPpKUr3Q7w", "alias": "noodles-and-company-plainfield", "name": "Noodles & Company", "image_url": "https://s3-media2.fl.yelpcdn.com/bphoto/yvb5Z75DBQPgIZJToNm4Kw/o.jpg", "is_closed": false, "url": "https://www.yelp.com/biz/noodles-and-company-plainfield?adjust_creative=vyhy616UjsMTA_hrWyg_5w&utm_campaign=yelp_api_v3&utm_medium=api_v3_business_search&utm_source=vyhy616UjsMTA_hrWyg_5w", "review_count": 53, "categories": [{"alias": "noodles", "title": "Noodles"}, {"alias": "salad", "title": "Salad"}, {"alias": "pastashops", "title": "Pasta Shops"}], "rating": 3.0, "coordinates": {"latitude": 39.7159156, "longitude": -86.3572821}, "transactions": [], "price": "$", "location": {"address1": "190 S Perry Rd", "address2": null, "address3": null, "city": "Plainfield", "zip_code": "46168", "country": "US", "state": "IN", "display_address": ["190 S Perry Rd", "Plainfield, IN 46168"]}, "phone": "+13178398600", "display_phone": "(317) 839-8600", "distance": 8856.486010088805}, {"id": "ZCZkxo29UKOkKYcxgmwLSA", "alias": "sisters-korean-restaurant-greenwood", "name": "Sisters Korean Restaurant", "image_url": "https://s3-media1.fl.yelpcdn.com/bphoto/lynNTUHqJH464cSoW8okvg/o.jpg", "is_closed": false, "url": "https://www.yelp.com/biz/sisters-korean-restaurant-greenwood?adjust_creative=vyhy616UjsMTA_hrWyg_5w&utm_campaign=yelp_api_v3&utm_medium=api_v3_business_search&utm_source=vyhy616UjsMTA_hrWyg_5w", "review_count": 174, "categories": [{"alias": "korean", "title": "Korean"}], "rating": 4.0, "coordinates": {"latitude": 39.61527, "longitude": -86.08347}, "transactions": ["delivery"], "price": "$$", "location": {"address1": "916 E Main St", "address2": "Ste 210", "address3": "", "city": "Greenwood", "zip_code": "46143", "country": "US", "state": "IN", "display_address": ["916 E Main St", "Ste 210", "Greenwood, IN 46143"]}, "phone": "+13173001741", "display_phone": "(317) 300-1741", "distance": 34546.50298064686}, {"id": "XWqyoKSVyg4H8zqA8kmRBg", "alias": "the-garage-food-hall-indianapolis-2", "name": "The Garage Food Hall", "image_url": "https://s3-media1.fl.yelpcdn.com/bphoto/5X0CiypLgkgTFHp-YcTKyQ/o.jpg", "is_closed": false, "url": "https://www.yelp.com/biz/the-garage-food-hall-indianapolis-2?adjust_creative=vyhy616UjsMTA_hrWyg_5w&utm_campaign=yelp_api_v3&utm_medium=api_v3_business_search&utm_source=vyhy616UjsMTA_hrWyg_5w", "review_count": 87, "categories": [{"alias": "food_court", "title": "Food Court"}], "rating": 4.5, "coordinates": {"latitude": 39.78, "longitude": -86.143666}, "transactions": [], "location": {"address1": "906 Carrollton Ave", "address2": null, "address3": "", "city": "Indianapolis", "zip_code": "46202", "country": "US", "state": "IN", "display_address": ["906 Carrollton Ave", "Indianapolis, IN 46202"]}, "phone": "+13175561252", "display_phone": "(317) 556-1252", "distance": 25421.786030148625}, {"id": "mg7c4-H5oU3fE-jDSUlfNw", "alias": "asian-harbor-indianapolis-2", "name": "Asian Harbor", "image_url": "https://s3-media3.fl.yelpcdn.com/bphoto/Up7TbH4y978Vz6dW5b4EpQ/o.jpg", "is_closed": false, "url": "https://www.yelp.com/biz/asian-harbor-indianapolis-2?adjust_creative=vyhy616UjsMTA_hrWyg_5w&utm_campaign=yelp_api_v3&utm_medium=api_v3_business_search&utm_source=vyhy616UjsMTA_hrWyg_5w", "review_count": 172, "categories": [{"alias": "asianfusion", "title": "Asian Fusion"}, {"alias": "chinese", "title": "Chinese"}, {"alias": "japanese", "title": "Japanese"}], "rating": 3.5, "coordinates": {"latitude": 39.7741395235062, "longitude": -86.16166703403}, "transactions": ["delivery", "pickup"], "price": "$$", "location": {"address1": "203 W Michigan St", "address2": "", "address3": null, "city": "Indianapolis", "zip_code": "46204", "country": "US", "state": "IN", "display_address": ["203 W Michigan St", "Indianapolis, IN 46204"]}, "phone": "+13176868888", "display_phone": "(317) 686-8888", "distance": 23855.09256422754}, {"id": "EusvjC0EeqF8aIca2FEBJw", "alias": "happy-kitchen-and-sushi-bar-zionsville", "name": "Happy Kitchen & Sushi bar", "image_url": "https://s3-media2.fl.yelpcdn.com/bphoto/KFSR77vsGV3uHw59YXw-3A/o.jpg", "is_closed": false, "url": "https://www.yelp.com/biz/happy-kitchen-and-sushi-bar-zionsville?adjust_creative=vyhy616UjsMTA_hrWyg_5w&utm_campaign=yelp_api_v3&utm_medium=api_v3_business_search&utm_source=vyhy616UjsMTA_hrWyg_5w", "review_count": 91, "categories": [{"alias": "seafood", "title": "Seafood"}, {"alias": "sushi", "title": "Sushi Bars"}, {"alias": "chinese", "title": "Chinese"}], "rating": 3.5, "coordinates": {"latitude": 39.9506667991703, "longitude": -86.2783209255503}, "transactions": ["delivery", "pickup"], "price": "$$", "location": {"address1": "69 Boone Village Shopping Ctr", "address2": "", "address3": "", "city": "Zionsville", "zip_code": "46077", "country": "US", "state": "IN", "display_address": ["69 Boone Village Shopping Ctr", "Zionsville, IN 46077"]}, "phone": "+13177330900", "display_phone": "(317) 733-0900", "distance": 25000.30453675772}, {"id": "rwDq9kqpKvs01wLbOTHzKw", "alias": "tian-fu-asian-bistro-indianapolis-3", "name": "Tian Fu Asian Bistro", "image_url": "https://s3-media4.fl.yelpcdn.com/bphoto/O4clRGYuMoGKBzHs4j-Yww/o.jpg", "is_closed": false, "url": "https://www.yelp.com/biz/tian-fu-asian-bistro-indianapolis-3?adjust_creative=vyhy616UjsMTA_hrWyg_5w&utm_campaign=yelp_api_v3&utm_medium=api_v3_business_search&utm_source=vyhy616UjsMTA_hrWyg_5w", "review_count": 194, "categories": [{"alias": "chinese", "title": "Chinese"}, {"alias": "sushi", "title": "Sushi Bars"}, {"alias": "thai", "title": "Thai"}], "rating": 4.0, "coordinates": {"latitude": 39.9124488830566, "longitude": -86.2207489013672}, "transactions": ["delivery", "pickup"], "price": "$$", "location": {"address1": "3508 W 86th St", "address2": "", "address3": "", "city": "Indianapolis", "zip_code": "46268", "country": "US", "state": "IN", "display_address": ["3508 W 86th St", "Indianapolis, IN 46268"]}, "phone": "+13178726888", "display_phone": "(317) 872-6888", "distance": 25028.994021333936}, {"id": "o6No8FiwyDAOlcY7PGUEXw", "alias": "thaitanium-indianapolis", "name": "Thaitanium", "image_url": "https://s3-media1.fl.yelpcdn.com/bphoto/cvt4IGO_roYmWUP2onytMA/o.jpg", "is_closed": false, "url": "https://www.yelp.com/biz/thaitanium-indianapolis?adjust_creative=vyhy616UjsMTA_hrWyg_5w&utm_campaign=yelp_api_v3&utm_medium=api_v3_business_search&utm_source=vyhy616UjsMTA_hrWyg_5w", "review_count": 276, "categories": [{"alias": "thai", "title": "Thai"}, {"alias": "seafood", "title": "Seafood"}], "rating": 4.0, "coordinates": {"latitude": 39.77688, "longitude": -86.14573}, "transactions": ["delivery", "pickup"], "price": "$$", "location": {"address1": "735 Massachusetts Ave", "address2": "", "address3": null, "city": "Indianapolis", "zip_code": "46204", "country": "US", "state": "IN", "display_address": ["735 Massachusetts Ave", "Indianapolis, IN 46204"]}, "phone": "+13176861848", "display_phone": "(317) 686-1848", "distance": 25209.00381750902}], "total": 376, "region": {"center": {"longitude": -86.4404296875, "latitude": 39.76341227385358}}}