{"businesses": [{"id": "5xRmemqmR89BpGoOA25hqA", "alias": "dian-xin-new-orleans", "name": "Dian Xin", "image_url": "https://s3-media1.fl.yelpcdn.com/bphoto/d79ZeOcDB6l0-C6660yNqA/o.jpg", "is_closed": false, "url": "https://www.yelp.com/biz/dian-xin-new-orleans?adjust_creative=vyhy616UjsMTA_hrWyg_5w&utm_campaign=yelp_api_v3&utm_medium=api_v3_business_search&utm_source=vyhy616UjsMTA_hrWyg_5w", "review_count": 330, "categories": [{"alias": "dimsum", "title": "Dim Sum"}], "rating": 4.5, "coordinates": {"latitude": 29.961033, "longitude": -90.058881}, "transactions": ["delivery"], "price": "$$", "location": {"address1": "1218 Decatur St", "address2": null, "address3": "", "city": "New Orleans", "zip_code": "70116", "country": "US", "state": "LA", "display_address": ["1218 Decatur St", "New Orleans, LA 70116"]}, "phone": "+15042662828", "display_phone": "(504) 266-2828", "distance": 2460.150701489776}, {"id": "4WdDY97x4GdMYtyk1KQMnw", "alias": "lillys-cafe-new-orleans-6", "name": "Lilly's Cafe", "image_url": "https://s3-media1.fl.yelpcdn.com/bphoto/aim7dTzSsb_D35oiUi0LmQ/o.jpg", "is_closed": false, "url": "https://www.yelp.com/biz/lillys-cafe-new-orleans-6?adjust_creative=vyhy616UjsMTA_hrWyg_5w&utm_campaign=yelp_api_v3&utm_medium=api_v3_business_search&utm_source=vyhy616UjsMTA_hrWyg_5w", "review_count": 738, "categories": [{"alias": "vietnamese", "title": "Vietnamese"}], "rating": 4.5, "coordinates": {"latitude": 29.93214, "longitude": -90.07351}, "transactions": ["delivery"], "price": "$$", "location": {"address1": "1813 Magazine St", "address2": "", "address3": "", "city": "New Orleans", "zip_code": "70130", "country": "US", "state": "LA", "display_address": ["1813 Magazine St", "New Orleans, LA 70130"]}, "phone": "+15045999999", "display_phone": "(504) 599-9999", "distance": 2842.0651202521967}, {"id": "zWfzgYe2nT9mHYm_vl1Ukw", "alias": "mopho-new-orleans", "name": "Mopho", "image_url": "https://s3-media3.fl.yelpcdn.com/bphoto/i5jDBqqNc4OV5qxv7kVvBw/o.jpg", "is_closed": false, "url": "https://www.yelp.com/biz/mopho-new-orleans?adjust_creative=vyhy616UjsMTA_hrWyg_5w&utm_campaign=yelp_api_v3&utm_medium=api_v3_business_search&utm_source=vyhy616UjsMTA_hrWyg_5w", "review_count": 727, "categories": [{"alias": "vietnamese", "title": "Vietnamese"}, {"alias": "asianfusion", "title": "Asian Fusion"}, {"alias": "bubbletea", "title": "Bubble Tea"}], "rating": 4.0, "coordinates": {"latitude": 29.9835238904289, "longitude": -90.1052539050579}, "transactions": ["delivery"], "price": "$$", "location": {"address1": "514 City Park Ave", "address2": "Ste F", "address3": "", "city": "New Orleans", "zip_code": "70119", "country": "US", "state": "LA", "display_address": ["514 City Park Ave", "Ste F", "New Orleans, LA 70119"]}, "phone": "+15044826845", "display_phone": "(504) 482-6845", "distance": 3686.7141235889153}, {"id": "gjbmwlYUImb2lQBp5LV3KA", "alias": "maypop-restaurant-new-orleans", "name": "Maypop Restaurant", "image_url": "https://s3-media1.fl.yelpcdn.com/bphoto/mSImSEhMtFPHFADvV0KvKQ/o.jpg", "is_closed": false, "url": "https://www.yelp.com/biz/maypop-restaurant-new-orleans?adjust_creative=vyhy616UjsMTA_hrWyg_5w&utm_campaign=yelp_api_v3&utm_medium=api_v3_business_search&utm_source=vyhy616UjsMTA_hrWyg_5w", "review_count": 542, "categories": [{"alias": "newamerican", "title": "American (New)"}, {"alias": "dimsum", "title": "Dim Sum"}], "rating": 4.5, "coordinates": {"latitude": 29.9489607460264, "longitude": -90.0748741999268}, "transactions": ["delivery"], "price": "$$", "location": {"address1": "611 O'Keefe St", "address2": null, "address3": "", "city": "New Orleans", "zip_code": "70113", "country": "US", "state": "LA", "display_address": ["611 O'Keefe St", "New Orleans, LA 70113"]}, "phone": "+15045186345", "display_phone": "(504) 518-6345", "distance": 1167.0888630630236}, {"id": "IZ6vx85mSdC2zp0STFzTIw", "alias": "luvi-restaurant-new-orleans", "name": "LUVI Restaurant", "image_url": "https://s3-media2.fl.yelpcdn.com/bphoto/h-lKz1VLWfYojGDe38-TBQ/o.jpg", "is_closed": false, "url": "https://www.yelp.com/biz/luvi-restaurant-new-orleans?adjust_creative=vyhy616UjsMTA_hrWyg_5w&utm_campaign=yelp_api_v3&utm_medium=api_v3_business_search&utm_source=vyhy616UjsMTA_hrWyg_5w", "review_count": 130, "categories": [{"alias": "asianfusion", "title": "Asian Fusion"}, {"alias": "chinese", "title": "Chinese"}, {"alias": "japanese", "title": "Japanese"}], "rating": 4.5, "coordinates": {"latitude": 29.91633, "longitude": -90.11218}, "transactions": ["delivery"], "price": "$$", "location": {"address1": "5236 Tchoupitoulas St", "address2": null, "address3": "", "city": "New Orleans", "zip_code": "70115", "country": "US", "state": "LA", "display_address": ["5236 Tchoupitoulas St", "New Orleans, LA 70115"]}, "phone": "+15046053340", "display_phone": "(504) 605-3340", "distance": 5200.7915223270575}, {"id": "cJyQrgGznIyz8yvyeuaRyg", "alias": "bao-and-noodle-new-orleans", "name": "Bao & Noodle", "image_url": "https://s3-media4.fl.yelpcdn.com/bphoto/FyARSDNAwSAnY7_Vp8GwBA/o.jpg", "is_closed": false, "url": "https://www.yelp.com/biz/bao-and-noodle-new-orleans?adjust_creative=vyhy616UjsMTA_hrWyg_5w&utm_campaign=yelp_api_v3&utm_medium=api_v3_business_search&utm_source=vyhy616UjsMTA_hrWyg_5w", "review_count": 196, "categories": [{"alias": "chinese", "title": "Chinese"}, {"alias": "noodles", "title": "Noodles"}], "rating": 4.0, "coordinates": {"latitude": 29.96862667, "longitude": -90.054705}, "transactions": ["delivery", "pickup"], "price": "$$", "location": {"address1": "2266 Saint Claude Ave", "address2": null, "address3": "", "city": "New Orleans", "zip_code": "70117", "country": "US", "state": "LA", "display_address": ["2266 Saint Claude Ave", "New Orleans, LA 70117"]}, "phone": "+15042720004", "display_phone": "(504) 272-0004", "distance": 3111.0876952367526}, {"id": "x4K6aMaOYvGhC5jhFJP2Ag", "alias": "pho-tau-bay-restaurant-new-orleans", "name": "Pho Tau Bay Restaurant", "image_url": "https://s3-media4.fl.yelpcdn.com/bphoto/q17XHxnPCQHoBKHnQEFDDg/o.jpg", "is_closed": false, "url": "https://www.yelp.com/biz/pho-tau-bay-restaurant-new-orleans?adjust_creative=vyhy616UjsMTA_hrWyg_5w&utm_campaign=yelp_api_v3&utm_medium=api_v3_business_search&utm_source=vyhy616UjsMTA_hrWyg_5w", "review_count": 332, "categories": [{"alias": "vietnamese", "title": "Vietnamese"}, {"alias": "breakfast_brunch", "title": "Breakfast & Brunch"}], "rating": 4.0, "coordinates": {"latitude": 29.9562764733479, "longitude": -90.0789572114464}, "transactions": ["delivery", "pickup"], "price": "$", "location": {"address1": "1565 Tulane Ave", "address2": "", "address3": "", "city": "New Orleans", "zip_code": "70112", "country": "US", "state": "LA", "display_address": ["1565 Tulane Ave", "New Orleans, LA 70112"]}, "phone": "+15043689846", "display_phone": "(504) 368-9846", "distance": 464.22845396316814}, {"id": "-psZLTe6IJTQUB-bZF7Zyg", "alias": "little-korea-bbq-new-orleans", "name": "Little Korea BBQ", "image_url": "https://s3-media1.fl.yelpcdn.com/bphoto/9N_co9Fv6SayBF-GDOAtGA/o.jpg", "is_closed": false, "url": "https://www.yelp.com/biz/little-korea-bbq-new-orleans?adjust_creative=vyhy616UjsMTA_hrWyg_5w&utm_campaign=yelp_api_v3&utm_medium=api_v3_business_search&utm_source=vyhy616UjsMTA_hrWyg_5w", "review_count": 396, "categories": [{"alias": "korean", "title": "Korean"}, {"alias": "bbq", "title": "Barbeque"}], "rating": 4.0, "coordinates": {"latitude": 29.9289, "longitude": -90.07744}, "transactions": [], "price": "$$", "location": {"address1": "2240 Magazine St", "address2": null, "address3": "", "city": "New Orleans", "zip_code": "70130", "country": "US", "state": "LA", "display_address": ["2240 Magazine St", "New Orleans, LA 70130"]}, "phone": "+15048215006", "display_phone": "(504) 821-5006", "distance": 3084.008613390838}, {"id": "1QCZS_3x7_JLekGJAqnhMQ", "alias": "gogi-korean-restaurant-new-orleans", "name": "Gogi Korean Restaurant", "image_url": "https://s3-media2.fl.yelpcdn.com/bphoto/Lc8SqOSgYBGt-ZvL22sQ3A/o.jpg", "is_closed": false, "url": "https://www.yelp.com/biz/gogi-korean-restaurant-new-orleans?adjust_creative=vyhy616UjsMTA_hrWyg_5w&utm_campaign=yelp_api_v3&utm_medium=api_v3_business_search&utm_source=vyhy616UjsMTA_hrWyg_5w", "review_count": 214, "categories": [{"alias": "korean", "title": "Korean"}], "rating": 4.0, "coordinates": {"latitude": 29.99987, "longitude": -90.1195}, "transactions": ["delivery"], "price": "$$", "location": {"address1": "4620 Veterans Blvd", "address2": null, "address3": "", "city": "New Orleans", "zip_code": "70006", "country": "US", "state": "LA", "display_address": ["4620 Veterans Blvd", "New Orleans, LA 70006"]}, "phone": "+15048729992", "display_phone": "(504) 872-9992", "distance": 11300.249073168317}, {"id": "0UJqTczta018RoktahC0jw", "alias": "kin-new-orleans", "name": "Kin", "image_url": "https://s3-media2.fl.yelpcdn.com/bphoto/FqyFzqPMtONd8hK1XI_5_w/o.jpg", "is_closed": false, "url": "https://www.yelp.com/biz/kin-new-orleans?adjust_creative=vyhy616UjsMTA_hrWyg_5w&utm_campaign=yelp_api_v3&utm_medium=api_v3_business_search&utm_source=vyhy616UjsMTA_hrWyg_5w", "review_count": 350, "categories": [{"alias": "newamerican", "title": "American (New)"}, {"alias": "japanese", "title": "Japanese"}], "rating": 4.5, "coordinates": {"latitude": 29.95893, "longitude": -90.10492}, "transactions": ["delivery"], "price": "$$", "location": {"address1": "4600 Washington Ave", "address2": "", "address3": "", "city": "New Orleans", "zip_code": "70125", "country": "US", "state": "LA", "display_address": ["4600 Washington Ave", "New Orleans, LA 70125"]}, "phone": "+15043048557", "display_phone": "(504) 304-8557", "distance": 2059.490102850121}, {"id": "PC62l488ujL8i75jrBiOlg", "alias": "blue-giant-new-orleans", "name": "Blue Giant", "image_url": "https://s3-media3.fl.yelpcdn.com/bphoto/okd3uJhC88gEzpfTF-0_IA/o.jpg", "is_closed": false, "url": "https://www.yelp.com/biz/blue-giant-new-orleans?adjust_creative=vyhy616UjsMTA_hrWyg_5w&utm_campaign=yelp_api_v3&utm_medium=api_v3_business_search&utm_source=vyhy616UjsMTA_hrWyg_5w", "review_count": 141, "categories": [{"alias": "chinese", "title": "Chinese"}, {"alias": "chickenshop", "title": "Chicken Shop"}, {"alias": "noodles", "title": "Noodles"}], "rating": 4.0, "coordinates": {"latitude": 29.938219, "longitude": -90.071297}, "transactions": ["delivery"], "price": "$$", "location": {"address1": "1300 Magazine St", "address2": "", "address3": null, "city": "New Orleans", "zip_code": "70130", "country": "US", "state": "LA", "display_address": ["1300 Magazine St", "New Orleans, LA 70130"]}, "phone": "+15045829060", "display_phone": "(504) 582-9060", "distance": 2321.789914373575}, {"id": "yKAOohng_AJl22LgjBPl1g", "alias": "gyu-kaku-japanese-bbq-new-orleans", "name": "Gyu-Kaku Japanese BBQ", "image_url": "https://s3-media3.fl.yelpcdn.com/bphoto/AoUDIJC2DcteL0wWxIuHrg/o.jpg", "is_closed": false, "url": "https://www.yelp.com/biz/gyu-kaku-japanese-bbq-new-orleans?adjust_creative=vyhy616UjsMTA_hrWyg_5w&utm_campaign=yelp_api_v3&utm_medium=api_v3_business_search&utm_source=vyhy616UjsMTA_hrWyg_5w", "review_count": 282, "categories": [{"alias": "japanese", "title": "Japanese"}, {"alias": "bbq", "title": "Barbeque"}, {"alias": "asianfusion", "title": "Asian Fusion"}], "rating": 4.5, "coordinates": {"latitude": 29.9475520525526, "longitude": -90.0674363169672}, "transactions": ["delivery"], "price": "$$", "location": {"address1": "400 Lafayette St", "address2": "Ste 101", "address3": null, "city": "New Orleans", "zip_code": "70130", "country": "US", "state": "LA", "display_address": ["400 Lafayette St", "Ste 101", "New Orleans, LA 70130"]}, "phone": "+15045078800", "display_phone": "(504) 507-8800", "distance": 1782.0453994352454}, {"id": "e-fXMT8R3j7BKMTh8xn8aw", "alias": "reds-chinese-new-orleans", "name": "Red's Chinese", "image_url": "https://s3-media2.fl.yelpcdn.com/bphoto/97fbmFUD0C5z2liFVOSeCA/o.jpg", "is_closed": false, "url": "https://www.yelp.com/biz/reds-chinese-new-orleans?adjust_creative=vyhy616UjsMTA_hrWyg_5w&utm_campaign=yelp_api_v3&utm_medium=api_v3_business_search&utm_source=vyhy616UjsMTA_hrWyg_5w", "review_count": 376, "categories": [{"alias": "chinese", "title": "Chinese"}], "rating": 4.0, "coordinates": {"latitude": 29.9677725, "longitude": -90.0450859}, "transactions": ["delivery", "pickup"], "price": "$$", "location": {"address1": "3048 St Claude Ave", "address2": "", "address3": "", "city": "New Orleans", "zip_code": "70117", "country": "US", "state": "LA", "display_address": ["3048 St Claude Ave", "New Orleans, LA 70117"]}, "phone": "+15043046030", "display_phone": "(504) 304-6030", "distance": 3946.808317584802}, {"id": "V1XS9HMe9bzEuW4RZFycBA", "alias": "sukhothai-new-orleans", "name": "SukhoThai", "image_url": "https://s3-media4.fl.yelpcdn.com/bphoto/sf7LbtDoID-gh2E1CM2nEA/o.jpg", "is_closed": false, "url": "https://www.yelp.com/biz/sukhothai-new-orleans?adjust_creative=vyhy616UjsMTA_hrWyg_5w&utm_campaign=yelp_api_v3&utm_medium=api_v3_business_search&utm_source=vyhy616UjsMTA_hrWyg_5w", "review_count": 322, "categories": [{"alias": "thai", "title": "Thai"}], "rating": 4.0, "coordinates": {"latitude": 29.9645, "longitude": -90.05617}, "transactions": ["delivery"], "price": "$$", "location": {"address1": "2200 Royal St", "address2": "", "address3": "", "city": "New Orleans", "zip_code": "70117", "country": "US", "state": "LA", "display_address": ["2200 Royal St", "New Orleans, LA 70117"]}, "phone": "+15049489309", "display_phone": "(504) 948-9309", "distance": 2818.1669156759235}, {"id": "Vnob_w_Aohf7ZDqxcJ9z2A", "alias": "mint-modern-vietnamese-bistro-and-bar-new-orleans", "name": "Mint Modern Vietnamese Bistro & Bar", "image_url": "https://s3-media3.fl.yelpcdn.com/bphoto/7s58VhKdPGBBYJZ-1XSXEw/o.jpg", "is_closed": false, "url": "https://www.yelp.com/biz/mint-modern-vietnamese-bistro-and-bar-new-orleans?adjust_creative=vyhy616UjsMTA_hrWyg_5w&utm_campaign=yelp_api_v3&utm_medium=api_v3_business_search&utm_source=vyhy616UjsMTA_hrWyg_5w", "review_count": 381, "categories": [{"alias": "vietnamese", "title": "Vietnamese"}], "rating": 4.0, "coordinates": {"latitude": 29.9349228652809, "longitude": -90.1095502386642}, "transactions": ["delivery"], "price": "$$", "location": {"address1": "5100 Freret St", "address2": "", "address3": "", "city": "New Orleans", "zip_code": "70115", "country": "US", "state": "LA", "display_address": ["5100 Freret St", "New Orleans, LA 70115"]}, "phone": "+15042185534", "display_phone": "(504) 218-5534", "distance": 3421.4614270893676}, {"id": "d89jkOMbjpTBerh7miCz2w", "alias": "nolakorea-korean-restaurant-metairie-2", "name": "NoLaKorea Korean Restaurant", "image_url": "https://s3-media1.fl.yelpcdn.com/bphoto/rAIsFh7OaqBHAHAr-9cNrw/o.jpg", "is_closed": false, "url": "https://www.yelp.com/biz/nolakorea-korean-restaurant-metairie-2?adjust_creative=vyhy616UjsMTA_hrWyg_5w&utm_campaign=yelp_api_v3&utm_medium=api_v3_business_search&utm_source=vyhy616UjsMTA_hrWyg_5w", "review_count": 86, "categories": [{"alias": "korean", "title": "Korean"}], "rating": 4.5, "coordinates": {"latitude": 30.0022345614793, "longitude": -90.1725195091926}, "transactions": ["delivery", "pickup"], "price": "$$", "location": {"address1": "3120 Cleary Ave", "address2": "Ste A", "address3": "", "city": "Metairie", "zip_code": "70002", "country": "US", "state": "LA", "display_address": ["3120 Cleary Ave", "Ste A", "Metairie, LA 70002"]}, "phone": "+15047028811", "display_phone": "(504) 702-8811", "distance": 9970.137635857185}, {"id": "X_M31m2hTOXQgsP4-Inucg", "alias": "hong-minh-harvey-2", "name": "Hong Minh", "image_url": "https://s3-media2.fl.yelpcdn.com/bphoto/AOR85Hx1AxrfMLySsmC5uw/o.jpg", "is_closed": false, "url": "https://www.yelp.com/biz/hong-minh-harvey-2?adjust_creative=vyhy616UjsMTA_hrWyg_5w&utm_campaign=yelp_api_v3&utm_medium=api_v3_business_search&utm_source=vyhy616UjsMTA_hrWyg_5w", "review_count": 94, "categories": [{"alias": "chinese", "title": "Chinese"}, {"alias": "asianfusion", "title": "Asian Fusion"}, {"alias": "noodles", "title": "Noodles"}], "rating": 4.5, "coordinates": {"latitude": 29.9047082175149, "longitude": -90.0730192576721}, "transactions": ["delivery"], "price": "$", "location": {"address1": "2101 8th St", "address2": null, "address3": "", "city": "Harvey", "zip_code": "70058", "country": "US", "state": "LA", "display_address": ["2101 8th St", "Harvey, LA 70058"]}, "phone": "+15045927316", "display_phone": "(504) 592-7316", "distance": 5805.948123175158}, {"id": "Nhci37qY0HPCNWc5UQul9w", "alias": "9-roses-gretna", "name": "9 Roses", "image_url": "https://s3-media1.fl.yelpcdn.com/bphoto/eDG1_xqTIk65Rdyof7kueA/o.jpg", "is_closed": false, "url": "https://www.yelp.com/biz/9-roses-gretna?adjust_creative=vyhy616UjsMTA_hrWyg_5w&utm_campaign=yelp_api_v3&utm_medium=api_v3_business_search&utm_source=vyhy616UjsMTA_hrWyg_5w", "review_count": 249, "categories": [{"alias": "chinese", "title": "Chinese"}, {"alias": "vietnamese", "title": "Vietnamese"}], "rating": 4.0, "coordinates": {"latitude": 29.9158651, "longitude": -90.04585}, "transactions": ["delivery"], "price": "$$", "location": {"address1": "1100 Stephens St", "address2": "", "address3": "", "city": "Gretna", "zip_code": "70053", "country": "US", "state": "LA", "display_address": ["1100 Stephens St", "Gretna, LA 70053"]}, "phone": "+15043667665", "display_phone": "(504) 366-7665", "distance": 5821.842094262171}, {"id": "PVMFX-X4t_vDAR511R8qFQ", "alias": "laksa-nola-new-orleans", "name": "Laksa Nola", "image_url": "https://s3-media4.fl.yelpcdn.com/bphoto/8tkNKdmVJs2Sny66v4iI8A/o.jpg", "is_closed": false, "url": "https://www.yelp.com/biz/laksa-nola-new-orleans?adjust_creative=vyhy616UjsMTA_hrWyg_5w&utm_campaign=yelp_api_v3&utm_medium=api_v3_business_search&utm_source=vyhy616UjsMTA_hrWyg_5w", "review_count": 32, "categories": [{"alias": "burmese", "title": "Burmese"}, {"alias": "malaysian", "title": "Malaysian"}], "rating": 4.5, "coordinates": {"latitude": 29.96934817, "longitude": -90.0522105396}, "transactions": ["delivery", "pickup"], "location": {"address1": "2381 St Claude Ave", "address2": null, "address3": "St. Roch Market New Orleans", "city": "New Orleans", "zip_code": "70117", "country": "US", "state": "LA", "display_address": ["2381 St Claude Ave", "St. Roch Market New Orleans", "New Orleans, LA 70117"]}, "phone": "+15043909985", "display_phone": "(504) 390-9985", "distance": 3379.161642891033}, {"id": "2MHNvEPEGxvBxZLXM5ESpg", "alias": "pho-bistreaux-new-orleans", "name": "Pho Bistreaux", "image_url": "https://s3-media1.fl.yelpcdn.com/bphoto/HuaQ9nhfhkks0rBGBjrzQQ/o.jpg", "is_closed": false, "url": "https://www.yelp.com/biz/pho-bistreaux-new-orleans?adjust_creative=vyhy616UjsMTA_hrWyg_5w&utm_campaign=yelp_api_v3&utm_medium=api_v3_business_search&utm_source=vyhy616UjsMTA_hrWyg_5w", "review_count": 263, "categories": [{"alias": "vietnamese", "title": "Vietnamese"}], "rating": 4.5, "coordinates": {"latitude": 29.9475543, "longitude": -90.1297535}, "transactions": ["delivery", "pickup"], "price": "$", "location": {"address1": "1200 S Carrollton Ave", "address2": "Ste A", "address3": "", "city": "New Orleans", "zip_code": "70118", "country": "US", "state": "LA", "display_address": ["1200 S Carrollton Ave", "Ste A", "New Orleans, LA 70118"]}, "phone": "+15043048334", "display_phone": "(504) 304-8334", "distance": 4530.571378702917}, {"id": "IGna30iAQJa6RMbsv-9tWg", "alias": "dong-phuong-new-orleans-3", "name": "Dong Phuong", "image_url": "https://s3-media3.fl.yelpcdn.com/bphoto/evxU1OPgPNG8brsGKCO3wA/o.jpg", "is_closed": false, "url": "https://www.yelp.com/biz/dong-phuong-new-orleans-3?adjust_creative=vyhy616UjsMTA_hrWyg_5w&utm_campaign=yelp_api_v3&utm_medium=api_v3_business_search&utm_source=vyhy616UjsMTA_hrWyg_5w", "review_count": 384, "categories": [{"alias": "bakeries", "title": "Bakeries"}, {"alias": "vietnamese", "title": "Vietnamese"}, {"alias": "breakfast_brunch", "title": "Breakfast & Brunch"}], "rating": 4.5, "coordinates": {"latitude": 30.03622, "longitude": -89.91517}, "transactions": [], "price": "$", "location": {"address1": "14207 Chef Menteur Hwy", "address2": null, "address3": "", "city": "New Orleans", "zip_code": "70129", "country": "US", "state": "LA", "display_address": ["14207 Chef Menteur Hwy", "New Orleans, LA 70129"]}, "phone": "+15042540296", "display_phone": "(504) 254-0296", "distance": 18519.992180290697}, {"id": "Et2yOijYQbWyR-mE0-z40w", "alias": "tsunami-sushi-new-orleans", "name": "Tsunami Sushi", "image_url": "https://s3-media3.fl.yelpcdn.com/bphoto/Enbe57GiQFq_imqeS9qlVw/o.jpg", "is_closed": false, "url": "https://www.yelp.com/biz/tsunami-sushi-new-orleans?adjust_creative=vyhy616UjsMTA_hrWyg_5w&utm_campaign=yelp_api_v3&utm_medium=api_v3_business_search&utm_source=vyhy616UjsMTA_hrWyg_5w", "review_count": 314, "categories": [{"alias": "sushi", "title": "Sushi Bars"}, {"alias": "asianfusion", "title": "Asian Fusion"}, {"alias": "cocktailbars", "title": "Cocktail Bars"}], "rating": 4.0, "coordinates": {"latitude": 29.949966, "longitude": -90.069677}, "transactions": ["delivery", "pickup"], "price": "$$", "location": {"address1": "601 Poydras St", "address2": null, "address3": null, "city": "New Orleans", "zip_code": "70130", "country": "US", "state": "LA", "display_address": ["601 Poydras St", "New Orleans, LA 70130"]}, "phone": "+15046083474", "display_phone": "(504) 608-3474", "distance": 1518.7369976892153}, {"id": "isuOwjnrPrr1bRELgQM0aA", "alias": "ba-chi-canteen-new-orleans", "name": "Ba Chi Canteen", "image_url": "https://s3-media1.fl.yelpcdn.com/bphoto/J1dOEf7wXKPxYXWtq5k2Vg/o.jpg", "is_closed": false, "url": "https://www.yelp.com/biz/ba-chi-canteen-new-orleans?adjust_creative=vyhy616UjsMTA_hrWyg_5w&utm_campaign=yelp_api_v3&utm_medium=api_v3_business_search&utm_source=vyhy616UjsMTA_hrWyg_5w", "review_count": 266, "categories": [{"alias": "vietnamese", "title": "Vietnamese"}], "rating": 4.0, "coordinates": {"latitude": 29.943195, "longitude": -90.131401}, "transactions": ["delivery"], "price": "$$", "location": {"address1": "7900 Maple St", "address2": "", "address3": "", "city": "New Orleans", "zip_code": "70118", "country": "US", "state": "LA", "display_address": ["7900 Maple St", "New Orleans, LA 70118"]}, "phone": "+15043735628", "display_phone": "(504) 373-5628", "distance": 4807.480081768501}, {"id": "pSgZ6x48zgkbWucfzswkzg", "alias": "nomiya-new-orleans", "name": "Nomiya", "image_url": "https://s3-media1.fl.yelpcdn.com/bphoto/S-xTt-C53pBhoOmunyDYKw/o.jpg", "is_closed": false, "url": "https://www.yelp.com/biz/nomiya-new-orleans?adjust_creative=vyhy616UjsMTA_hrWyg_5w&utm_campaign=yelp_api_v3&utm_medium=api_v3_business_search&utm_source=vyhy616UjsMTA_hrWyg_5w", "review_count": 228, "categories": [{"alias": "ramen", "title": "Ramen"}], "rating": 4.0, "coordinates": {"latitude": 29.9207734, "longitude": -90.099814}, "transactions": ["delivery"], "price": "$$", "location": {"address1": "4226 Magazine St", "address2": "", "address3": null, "city": "New Orleans", "zip_code": "70115", "country": "US", "state": "LA", "display_address": ["4226 Magazine St", "New Orleans, LA 70115"]}, "phone": "+15049095796", "display_phone": "(504) 909-5796", "distance": 4216.9800962584395}, {"id": "qq6vsh6ZEshfv4mTdrjA0g", "alias": "magasin-kitchen-new-orleans", "name": "Magasin Kitchen", "image_url": "https://s3-media2.fl.yelpcdn.com/bphoto/x2JdafTj9tCICxrQuiYa-A/o.jpg", "is_closed": false, "url": "https://www.yelp.com/biz/magasin-kitchen-new-orleans?adjust_creative=vyhy616UjsMTA_hrWyg_5w&utm_campaign=yelp_api_v3&utm_medium=api_v3_business_search&utm_source=vyhy616UjsMTA_hrWyg_5w", "review_count": 130, "categories": [{"alias": "vietnamese", "title": "Vietnamese"}], "rating": 4.0, "coordinates": {"latitude": 29.9483139795614, "longitude": -90.0752910748688}, "transactions": ["delivery"], "price": "$$", "location": {"address1": "611 Okeefe Ave", "address2": "", "address3": "", "city": "New Orleans", "zip_code": "70130", "country": "US", "state": "LA", "display_address": ["611 Okeefe Ave", "New Orleans, LA 70130"]}, "phone": "+15045715677", "display_phone": "(504) 571-5677", "distance": 1189.1038592457928}, {"id": "Fj16uG6BNZOq5K8mS2HHiQ", "alias": "mings-new-orleans", "name": "Ming's", "image_url": "https://s3-media1.fl.yelpcdn.com/bphoto/8brHCnaZqF5jKwloLU5OFg/o.jpg", "is_closed": false, "url": "https://www.yelp.com/biz/mings-new-orleans?adjust_creative=vyhy616UjsMTA_hrWyg_5w&utm_campaign=yelp_api_v3&utm_medium=api_v3_business_search&utm_source=vyhy616UjsMTA_hrWyg_5w", "review_count": 190, "categories": [{"alias": "chinese", "title": "Chinese"}], "rating": 4.0, "coordinates": {"latitude": 30.020637, "longitude": -90.114916}, "transactions": ["delivery", "pickup"], "price": "$$", "location": {"address1": "7224 Pontchartrain Blvd", "address2": "", "address3": "Westend", "city": "New Orleans", "zip_code": "70124", "country": "US", "state": "LA", "display_address": ["7224 Pontchartrain Blvd", "Westend", "New Orleans, LA 70124"]}, "phone": "+15043336341", "display_phone": "(504) 333-6341", "distance": 7779.454749157286}, {"id": "mTvb9By6kzoVkPtQbrsUSg", "alias": "thai-ocha-metairie-4", "name": "Thai Ocha", "image_url": "https://s3-media3.fl.yelpcdn.com/bphoto/INpFUAVS63M--jcvp1zpwg/o.jpg", "is_closed": false, "url": "https://www.yelp.com/biz/thai-ocha-metairie-4?adjust_creative=vyhy616UjsMTA_hrWyg_5w&utm_campaign=yelp_api_v3&utm_medium=api_v3_business_search&utm_source=vyhy616UjsMTA_hrWyg_5w", "review_count": 156, "categories": [{"alias": "thai", "title": "Thai"}, {"alias": "japanese", "title": "Japanese"}], "rating": 4.5, "coordinates": {"latitude": 30.0029740464663, "longitude": -90.135289287029}, "transactions": ["delivery"], "price": "$$", "location": {"address1": "612 Sena Dr", "address2": "", "address3": null, "city": "Metairie", "zip_code": "70005", "country": "US", "state": "LA", "display_address": ["612 Sena Dr", "Metairie, LA 70005"]}, "phone": "+15049629767", "display_phone": "(504) 962-9767", "distance": 7197.736174163903}, {"id": "sGJSVMcJ9mN8tyJoUXxezw", "alias": "wei-dao-asian-cuisine-metairie", "name": "Wei Dao Asian Cuisine", "image_url": "https://s3-media4.fl.yelpcdn.com/bphoto/S6wBphK24Fl2-1WYsxi05A/o.jpg", "is_closed": false, "url": "https://www.yelp.com/biz/wei-dao-asian-cuisine-metairie?adjust_creative=vyhy616UjsMTA_hrWyg_5w&utm_campaign=yelp_api_v3&utm_medium=api_v3_business_search&utm_source=vyhy616UjsMTA_hrWyg_5w", "review_count": 65, "categories": [{"alias": "sushi", "title": "Sushi Bars"}, {"alias": "chinese", "title": "Chinese"}, {"alias": "ramen", "title": "Ramen"}], "rating": 4.5, "coordinates": {"latitude": 30.016452, "longitude": -90.19979}, "transactions": ["delivery", "pickup"], "location": {"address1": "5024 W Esplanade Ave", "address2": "", "address3": null, "city": "Metairie", "zip_code": "70006", "country": "US", "state": "LA", "display_address": ["5024 W Esplanade Ave", "Metairie, LA 70006"]}, "phone": "+15048884288", "display_phone": "(504) 888-4288", "distance": 13035.140113197282}, {"id": "ga7jZd-JccpMqdSTgY2lUA", "alias": "marjies-grill-new-orleans", "name": "Marjie's Grill", "image_url": "https://s3-media4.fl.yelpcdn.com/bphoto/snPSULcY9mPb5piXgiYXWw/o.jpg", "is_closed": false, "url": "https://www.yelp.com/biz/marjies-grill-new-orleans?adjust_creative=vyhy616UjsMTA_hrWyg_5w&utm_campaign=yelp_api_v3&utm_medium=api_v3_business_search&utm_source=vyhy616UjsMTA_hrWyg_5w", "review_count": 155, "categories": [{"alias": "southern", "title": "Southern"}, {"alias": "asianfusion", "title": "Asian Fusion"}], "rating": 4.5, "coordinates": {"latitude": 29.96319, "longitude": -90.08896}, "transactions": ["delivery"], "price": "$$", "location": {"address1": "320 S Broad Ave", "address2": "", "address3": null, "city": "New Orleans", "zip_code": "70119", "country": "US", "state": "LA", "display_address": ["320 S Broad Ave", "New Orleans, LA 70119"]}, "phone": "+15046032234", "display_phone": "(504) 603-2234", "distance": 946.7941146406264}, {"id": "LgM7qI5CmFAotFYcD_54dg", "alias": "mama-thai-metairie", "name": "Mama Thai", "image_url": "https://s3-media2.fl.yelpcdn.com/bphoto/s47CUMIMRTm9nqK5NHFLBw/o.jpg", "is_closed": false, "url": "https://www.yelp.com/biz/mama-thai-metairie?adjust_creative=vyhy616UjsMTA_hrWyg_5w&utm_campaign=yelp_api_v3&utm_medium=api_v3_business_search&utm_source=vyhy616UjsMTA_hrWyg_5w", "review_count": 80, "categories": [{"alias": "thai", "title": "Thai"}], "rating": 4.5, "coordinates": {"latitude": 30.01968, "longitude": -90.1233}, "transactions": ["delivery", "pickup"], "price": "$$", "location": {"address1": "200 Metairie Hammond Hwy", "address2": "", "address3": null, "city": "Metairie", "zip_code": "70005", "country": "US", "state": "LA", "display_address": ["200 Metairie Hammond Hwy", "Metairie, LA 70005"]}, "phone": "+15042670040", "display_phone": "(504) 267-0040", "distance": 8024.529728358532}, {"id": "qKscu5qiEanq7XAduAhHmA", "alias": "banana-blossom-gretna-3", "name": "Banana Blossom", "image_url": "https://s3-media2.fl.yelpcdn.com/bphoto/lbmdFLZ4UfLO5o64mQ7ifw/o.jpg", "is_closed": false, "url": "https://www.yelp.com/biz/banana-blossom-gretna-3?adjust_creative=vyhy616UjsMTA_hrWyg_5w&utm_campaign=yelp_api_v3&utm_medium=api_v3_business_search&utm_source=vyhy616UjsMTA_hrWyg_5w", "review_count": 361, "categories": [{"alias": "thai", "title": "Thai"}, {"alias": "noodles", "title": "Noodles"}], "rating": 4.0, "coordinates": {"latitude": 29.9130765, "longitude": -90.0591611}, "transactions": ["delivery"], "price": "$$", "location": {"address1": "500 9th St", "address2": "", "address3": "", "city": "Gretna", "zip_code": "70053", "country": "US", "state": "LA", "display_address": ["500 9th St", "Gretna, LA 70053"]}, "phone": "+15045000997", "display_phone": "(504) 500-0997", "distance": 5338.7737617978455}, {"id": "ZOZ94_vjuogm6PzmuIa1FQ", "alias": "viet-orleans-bistro-new-orleans-2", "name": "Viet Orleans Bistro", "image_url": "https://s3-media3.fl.yelpcdn.com/bphoto/W6uy3HTi-T_XleDymYeYhQ/o.jpg", "is_closed": false, "url": "https://www.yelp.com/biz/viet-orleans-bistro-new-orleans-2?adjust_creative=vyhy616UjsMTA_hrWyg_5w&utm_campaign=yelp_api_v3&utm_medium=api_v3_business_search&utm_source=vyhy616UjsMTA_hrWyg_5w", "review_count": 166, "categories": [{"alias": "vietnamese", "title": "Vietnamese"}, {"alias": "sushi", "title": "Sushi Bars"}, {"alias": "seafood", "title": "Seafood"}], "rating": 3.5, "coordinates": {"latitude": 29.952161, "longitude": -90.072301}, "transactions": ["delivery"], "price": "$$", "location": {"address1": "300 Baronne St", "address2": "", "address3": "", "city": "New Orleans", "zip_code": "70112", "country": "US", "state": "LA", "display_address": ["300 Baronne St", "New Orleans, LA 70112"]}, "phone": "+15043336917", "display_phone": "(504) 333-6917", "distance": 1188.0172611175758}, {"id": "zI0OdjkdQqD7az8aM6ppdg", "alias": "cho-thai-new-orleans", "name": "Cho Thai", "image_url": "https://s3-media2.fl.yelpcdn.com/bphoto/ieMms2j8GChUbSm0L0HaLg/o.jpg", "is_closed": false, "url": "https://www.yelp.com/biz/cho-thai-new-orleans?adjust_creative=vyhy616UjsMTA_hrWyg_5w&utm_campaign=yelp_api_v3&utm_medium=api_v3_business_search&utm_source=vyhy616UjsMTA_hrWyg_5w", "review_count": 57, "categories": [{"alias": "thai", "title": "Thai"}], "rating": 4.0, "coordinates": {"latitude": 29.923604, "longitude": -90.086825}, "transactions": [], "location": {"address1": "3218 Magazine St", "address2": null, "address3": "", "city": "New Orleans", "zip_code": "70115", "country": "US", "state": "LA", "display_address": ["3218 Magazine St", "New Orleans, LA 70115"]}, "phone": "+15043814264", "display_phone": "(504) 381-4264", "distance": 3625.438544250291}, {"id": "BfkqPDZ2Tt7Afhp5gn3wfw", "alias": "thai-mint-new-orleans", "name": "Thai Mint", "image_url": "https://s3-media3.fl.yelpcdn.com/bphoto/K-PUk_xdLWuTkLHXPEXt0Q/o.jpg", "is_closed": false, "url": "https://www.yelp.com/biz/thai-mint-new-orleans?adjust_creative=vyhy616UjsMTA_hrWyg_5w&utm_campaign=yelp_api_v3&utm_medium=api_v3_business_search&utm_source=vyhy616UjsMTA_hrWyg_5w", "review_count": 161, "categories": [{"alias": "thai", "title": "Thai"}], "rating": 4.0, "coordinates": {"latitude": 29.9493849, "longitude": -90.1276515}, "transactions": ["delivery"], "price": "$$", "location": {"address1": "1438 S Carrollton Ave", "address2": "", "address3": "", "city": "New Orleans", "zip_code": "70118", "country": "US", "state": "LA", "display_address": ["1438 S Carrollton Ave", "New Orleans, LA 70118"]}, "phone": "+15048629001", "display_phone": "(504) 862-9001", "distance": 4292.749413836064}, {"id": "xv_U__GI9gmzKIHT_TANnw", "alias": "hoshun-restaurant-new-orleans", "name": "Hoshun Restaurant", "image_url": "https://s3-media1.fl.yelpcdn.com/bphoto/Oau-kSG6ziwqEFWm3B4xVw/o.jpg", "is_closed": false, "url": "https://www.yelp.com/biz/hoshun-restaurant-new-orleans?adjust_creative=vyhy616UjsMTA_hrWyg_5w&utm_campaign=yelp_api_v3&utm_medium=api_v3_business_search&utm_source=vyhy616UjsMTA_hrWyg_5w", "review_count": 395, "categories": [{"alias": "sushi", "title": "Sushi Bars"}, {"alias": "japanese", "title": "Japanese"}, {"alias": "chinese", "title": "Chinese"}], "rating": 3.5, "coordinates": {"latitude": 29.9383201450109, "longitude": -90.07623039186}, "transactions": ["delivery"], "price": "$$", "location": {"address1": "1601 Saint Charles Ave", "address2": "", "address3": "", "city": "New Orleans", "zip_code": "70130", "country": "US", "state": "LA", "display_address": ["1601 Saint Charles Ave", "New Orleans, LA 70130"]}, "phone": "+15043029716", "display_phone": "(504) 302-9716", "distance": 2099.7068858040057}, {"id": "NCzKKh6npVeq-AvlJnGh3w", "alias": "tan-dinh-gretna", "name": "Tan Dinh", "image_url": "https://s3-media3.fl.yelpcdn.com/bphoto/OKIaWwMYHnTJt5wWStxvBg/o.jpg", "is_closed": false, "url": "https://www.yelp.com/biz/tan-dinh-gretna?adjust_creative=vyhy616UjsMTA_hrWyg_5w&utm_campaign=yelp_api_v3&utm_medium=api_v3_business_search&utm_source=vyhy616UjsMTA_hrWyg_5w", "review_count": 298, "categories": [{"alias": "vietnamese", "title": "Vietnamese"}, {"alias": "noodles", "title": "Noodles"}, {"alias": "soup", "title": "Soup"}], "rating": 4.0, "coordinates": {"latitude": 29.9069842, "longitude": -90.053773}, "transactions": ["delivery"], "price": "$$", "location": {"address1": "1705 Lafayette St", "address2": null, "address3": "", "city": "Gretna", "zip_code": "70053", "country": "US", "state": "LA", "display_address": ["1705 Lafayette St", "Gretna, LA 70053"]}, "phone": "+15043618008", "display_phone": "(504) 361-8008", "distance": 6177.7222319517305}, {"id": "IMWoj619K8ezUmFP8ktXEg", "alias": "banh-mi-boys-metairie", "name": "Banh Mi Boys", "image_url": "https://s3-media2.fl.yelpcdn.com/bphoto/OkLKQWkXZZ0NBNSHap0zoA/o.jpg", "is_closed": false, "url": "https://www.yelp.com/biz/banh-mi-boys-metairie?adjust_creative=vyhy616UjsMTA_hrWyg_5w&utm_campaign=yelp_api_v3&utm_medium=api_v3_business_search&utm_source=vyhy616UjsMTA_hrWyg_5w", "review_count": 437, "categories": [{"alias": "vietnamese", "title": "Vietnamese"}, {"alias": "sandwiches", "title": "Sandwiches"}, {"alias": "chicken_wings", "title": "Chicken Wings"}], "rating": 4.5, "coordinates": {"latitude": 29.9765843934413, "longitude": -90.1865949808506}, "transactions": ["delivery", "pickup"], "price": "$", "location": {"address1": "5001 Airline Dr", "address2": "Ste B", "address3": "", "city": "Metairie", "zip_code": "70001", "country": "US", "state": "LA", "display_address": ["5001 Airline Dr", "Ste B", "Metairie, LA 70001"]}, "phone": "+15045105360", "display_phone": "(504) 510-5360", "distance": 10163.987487554648}, {"id": "tWoJMHMU-KUEeOFAcpENdg", "alias": "union-ramen-new-orleans", "name": "Union Ramen", "image_url": "https://s3-media3.fl.yelpcdn.com/bphoto/A-dWAtiUQg91-5DGDzUZow/o.jpg", "is_closed": false, "url": "https://www.yelp.com/biz/union-ramen-new-orleans?adjust_creative=vyhy616UjsMTA_hrWyg_5w&utm_campaign=yelp_api_v3&utm_medium=api_v3_business_search&utm_source=vyhy616UjsMTA_hrWyg_5w", "review_count": 121, "categories": [{"alias": "ramen", "title": "Ramen"}], "rating": 4.5, "coordinates": {"latitude": 29.93174, "longitude": -90.07387}, "transactions": [], "location": {"address1": "1837 Magazine St", "address2": "Ste B", "address3": null, "city": "New Orleans", "zip_code": "70130", "country": "US", "state": "LA", "display_address": ["1837 Magazine St", "Ste B", "New Orleans, LA 70130"]}, "phone": "+15044592819", "display_phone": "(504) 459-2819", "distance": 2865.392009526585}, {"id": "tJeIs6nUl2590FrgqntBBA", "alias": "91-area-restaurant-new-orleans", "name": "91 Area Restaurant", "image_url": "https://s3-media2.fl.yelpcdn.com/bphoto/gxVL5CtbeYdHFwAkXvdT9Q/o.jpg", "is_closed": false, "url": "https://www.yelp.com/biz/91-area-restaurant-new-orleans?adjust_creative=vyhy616UjsMTA_hrWyg_5w&utm_campaign=yelp_api_v3&utm_medium=api_v3_business_search&utm_source=vyhy616UjsMTA_hrWyg_5w", "review_count": 12, "categories": [{"alias": "cajun", "title": "Cajun/Creole"}, {"alias": "seafood", "title": "Seafood"}, {"alias": "asianfusion", "title": "Asian Fusion"}], "rating": 4.0, "coordinates": {"latitude": 29.96109, "longitude": -90.058361}, "transactions": ["delivery", "pickup"], "location": {"address1": "91 French Market Pl", "address2": "", "address3": null, "city": "New Orleans", "zip_code": "70116", "country": "US", "state": "LA", "display_address": ["91 French Market Pl", "New Orleans, LA 70116"]}, "phone": "+15047669832", "display_phone": "(504) 766-9832", "distance": 2510.3991212993783}, {"id": "X1aAjsufci2ibaxSbhFl4Q", "alias": "ajun-cajun-new-orleans", "name": "Ajun Cajun", "image_url": "https://s3-media1.fl.yelpcdn.com/bphoto/AXcL2A7NNSXD9fI5G5K6Uw/o.jpg", "is_closed": false, "url": "https://www.yelp.com/biz/ajun-cajun-new-orleans?adjust_creative=vyhy616UjsMTA_hrWyg_5w&utm_campaign=yelp_api_v3&utm_medium=api_v3_business_search&utm_source=vyhy616UjsMTA_hrWyg_5w", "review_count": 33, "categories": [{"alias": "cajun", "title": "Cajun/Creole"}, {"alias": "ramen", "title": "Ramen"}, {"alias": "japacurry", "title": "Japanese Curry"}], "rating": 4.5, "coordinates": {"latitude": 29.950121, "longitude": -90.132809}, "transactions": ["delivery", "pickup"], "price": "$$", "location": {"address1": "8433 Oak St", "address2": "", "address3": null, "city": "New Orleans", "zip_code": "70118", "country": "US", "state": "LA", "display_address": ["8433 Oak St", "New Orleans, LA 70118"]}, "phone": "+15048667077", "display_phone": "(504) 866-7077", "distance": 4770.993336835696}, {"id": "rNfFdGIFT27ItMzG3qQCWQ", "alias": "em-trai-sandwich-new-orleans", "name": "Em Trai Sandwich", "image_url": "https://s3-media2.fl.yelpcdn.com/bphoto/bmpvbaMs_gsXqrSG6Zsxag/o.jpg", "is_closed": false, "url": "https://www.yelp.com/biz/em-trai-sandwich-new-orleans?adjust_creative=vyhy616UjsMTA_hrWyg_5w&utm_campaign=yelp_api_v3&utm_medium=api_v3_business_search&utm_source=vyhy616UjsMTA_hrWyg_5w", "review_count": 46, "categories": [{"alias": "asianfusion", "title": "Asian Fusion"}, {"alias": "sandwiches", "title": "Sandwiches"}, {"alias": "vietnamese", "title": "Vietnamese"}], "rating": 4.0, "coordinates": {"latitude": 29.968519, "longitude": -90.052373}, "transactions": ["delivery"], "price": "$$", "location": {"address1": "2372 St Claude Ave", "address2": "", "address3": null, "city": "New Orleans", "zip_code": "70117", "country": "US", "state": "LA", "display_address": ["2372 St Claude Ave", "New Orleans, LA 70117"]}, "phone": "+15043027772", "display_phone": "(504) 302-7772", "distance": 3327.6219397471377}, {"id": "PzhPMkaNYiKDTHoTG0r8rw", "alias": "pho-cam-ly-new-orleans", "name": "Pho Cam Ly", "image_url": "https://s3-media1.fl.yelpcdn.com/bphoto/3PC9Q_yMjfH38VY98WRzgQ/o.jpg", "is_closed": false, "url": "https://www.yelp.com/biz/pho-cam-ly-new-orleans?adjust_creative=vyhy616UjsMTA_hrWyg_5w&utm_campaign=yelp_api_v3&utm_medium=api_v3_business_search&utm_source=vyhy616UjsMTA_hrWyg_5w", "review_count": 174, "categories": [{"alias": "vietnamese", "title": "Vietnamese"}], "rating": 4.5, "coordinates": {"latitude": 29.9212303, "longitude": -90.0945511}, "transactions": ["delivery"], "price": "$", "location": {"address1": "3814 Magazine St", "address2": null, "address3": "", "city": "New Orleans", "zip_code": "70115", "country": "US", "state": "LA", "display_address": ["3814 Magazine St", "New Orleans, LA 70115"]}, "phone": "+15046444228", "display_phone": "(504) 644-4228", "distance": 4016.2527654544947}, {"id": "W9SliuSyX7N0XoiG9UFNdQ", "alias": "pho-noi-viet-new-orleans", "name": "Pho Noi Viet", "image_url": "https://s3-media2.fl.yelpcdn.com/bphoto/CFucm7MP0wCaCLI-O73vBg/o.jpg", "is_closed": false, "url": "https://www.yelp.com/biz/pho-noi-viet-new-orleans?adjust_creative=vyhy616UjsMTA_hrWyg_5w&utm_campaign=yelp_api_v3&utm_medium=api_v3_business_search&utm_source=vyhy616UjsMTA_hrWyg_5w", "review_count": 194, "categories": [{"alias": "vietnamese", "title": "Vietnamese"}, {"alias": "soup", "title": "Soup"}], "rating": 4.0, "coordinates": {"latitude": 29.93105, "longitude": -90.07501}, "transactions": ["delivery"], "price": "$", "location": {"address1": "2005 Magazine St", "address2": "", "address3": "", "city": "New Orleans", "zip_code": "70130", "country": "US", "state": "LA", "display_address": ["2005 Magazine St", "New Orleans, LA 70130"]}, "phone": "+15045223399", "display_phone": "(504) 522-3399", "distance": 2915.4220992425303}, {"id": "CKvcCZ14SeDs0GgJClFk5A", "alias": "little-chinatown-kenner", "name": "Little Chinatown", "image_url": "https://s3-media2.fl.yelpcdn.com/bphoto/e1zQ9hqC5qOrMvBCRRSyhA/o.jpg", "is_closed": false, "url": "https://www.yelp.com/biz/little-chinatown-kenner?adjust_creative=vyhy616UjsMTA_hrWyg_5w&utm_campaign=yelp_api_v3&utm_medium=api_v3_business_search&utm_source=vyhy616UjsMTA_hrWyg_5w", "review_count": 263, "categories": [{"alias": "chinese", "title": "Chinese"}], "rating": 4.0, "coordinates": {"latitude": 30.02533, "longitude": -90.23838}, "transactions": ["delivery"], "price": "$$", "location": {"address1": "3800 Williams Blvd", "address2": "", "address3": "", "city": "Kenner", "zip_code": "70065", "country": "US", "state": "LA", "display_address": ["3800 Williams Blvd", "Kenner, LA 70065"]}, "phone": "+15043050580", "display_phone": "(504) 305-0580", "distance": 16764.881123784704}, {"id": "TUTQeLjq1UbkR5r8mOvMqw", "alias": "titos-ceviche-and-pisco-new-orleans", "name": "Tito's Ceviche & Pisco", "image_url": "https://s3-media2.fl.yelpcdn.com/bphoto/j6vwTj7xF_bOxM2UD3KXrw/o.jpg", "is_closed": false, "url": "https://www.yelp.com/biz/titos-ceviche-and-pisco-new-orleans?adjust_creative=vyhy616UjsMTA_hrWyg_5w&utm_campaign=yelp_api_v3&utm_medium=api_v3_business_search&utm_source=vyhy616UjsMTA_hrWyg_5w", "review_count": 179, "categories": [{"alias": "peruvian", "title": "Peruvian"}, {"alias": "seafood", "title": "Seafood"}, {"alias": "japanese", "title": "Japanese"}], "rating": 4.5, "coordinates": {"latitude": 29.9206, "longitude": -90.10953}, "transactions": ["delivery"], "price": "$$", "location": {"address1": "5015 Magazine St", "address2": null, "address3": "", "city": "New Orleans", "zip_code": "70115", "country": "US", "state": "LA", "display_address": ["5015 Magazine St", "New Orleans, LA 70115"]}, "phone": "+15042677612", "display_phone": "(504) 267-7612", "distance": 4666.404447046529}, {"id": "HV7AHORTkLqIfhR-tpRmzg", "alias": "asuka-sushi-and-hibachi-new-orleans", "name": "Asuka Sushi & Hibachi", "image_url": "https://s3-media1.fl.yelpcdn.com/bphoto/C7hT_hS4B1gwhxVIg4FngQ/o.jpg", "is_closed": false, "url": "https://www.yelp.com/biz/asuka-sushi-and-hibachi-new-orleans?adjust_creative=vyhy616UjsMTA_hrWyg_5w&utm_campaign=yelp_api_v3&utm_medium=api_v3_business_search&utm_source=vyhy616UjsMTA_hrWyg_5w", "review_count": 301, "categories": [{"alias": "japanese", "title": "Japanese"}, {"alias": "sushi", "title": "Sushi Bars"}], "rating": 4.5, "coordinates": {"latitude": 29.9600836, "longitude": -90.1134502}, "transactions": ["delivery", "pickup"], "price": "$$", "location": {"address1": "7912 Earhart Blvd", "address2": "", "address3": "", "city": "New Orleans", "zip_code": "70125", "country": "US", "state": "LA", "display_address": ["7912 Earhart Blvd", "New Orleans, LA 70125"]}, "phone": "+15048625555", "display_phone": "(504) 862-5555", "distance": 2893.6387143989073}, {"id": "5OK71bsZ3UndLeTXUE5mKw", "alias": "cafe-minh-new-orleans", "name": "Cafe Minh", "image_url": "https://s3-media4.fl.yelpcdn.com/bphoto/AQfcHI3Ns4hj88-_MH7pVg/o.jpg", "is_closed": false, "url": "https://www.yelp.com/biz/cafe-minh-new-orleans?adjust_creative=vyhy616UjsMTA_hrWyg_5w&utm_campaign=yelp_api_v3&utm_medium=api_v3_business_search&utm_source=vyhy616UjsMTA_hrWyg_5w", "review_count": 98, "categories": [{"alias": "asianfusion", "title": "Asian Fusion"}], "rating": 3.5, "coordinates": {"latitude": 29.9754104614258, "longitude": -90.1011734008789}, "transactions": ["delivery"], "price": "$$", "location": {"address1": "4139 Canal St", "address2": "", "address3": "", "city": "New Orleans", "zip_code": "70119", "country": "US", "state": "LA", "display_address": ["4139 Canal St", "New Orleans, LA 70119"]}, "phone": "+15044826266", "display_phone": "(504) 482-6266", "distance": 2721.291046694906}, {"id": "X2W9OyDwI5oKK8ZpyUwxRQ", "alias": "foodies-destination-new-orleans", "name": "Foodies Destination", "image_url": "https://s3-media4.fl.yelpcdn.com/bphoto/neJL3splReayHdBbxHRUPw/o.jpg", "is_closed": false, "url": "https://www.yelp.com/biz/foodies-destination-new-orleans?adjust_creative=vyhy616UjsMTA_hrWyg_5w&utm_campaign=yelp_api_v3&utm_medium=api_v3_business_search&utm_source=vyhy616UjsMTA_hrWyg_5w", "review_count": 19, "categories": [{"alias": "foodtrucks", "title": "Food Trucks"}, {"alias": "korean", "title": "Korean"}], "rating": 4.5, "coordinates": {"latitude": 29.9550379638314, "longitude": -90.0829228386283}, "transactions": [], "price": "$$", "location": {"address1": "3324 Transcontinental Dr", "address2": "", "address3": null, "city": "New Orleans", "zip_code": "70112", "country": "US", "state": "LA", "display_address": ["3324 Transcontinental Dr", "New Orleans, LA 70112"]}, "phone": "+15043305545", "display_phone": "(504) 330-5545", "distance": 142.16402459348174}, {"id": "uvQQlr5ye4ReQTxuyB7kCA", "alias": "poseidon-new-orleans-3", "name": "Poseidon", "image_url": "https://s3-media4.fl.yelpcdn.com/bphoto/qaMv4zM5Ic4I9HaezhjHpA/o.jpg", "is_closed": false, "url": "https://www.yelp.com/biz/poseidon-new-orleans-3?adjust_creative=vyhy616UjsMTA_hrWyg_5w&utm_campaign=yelp_api_v3&utm_medium=api_v3_business_search&utm_source=vyhy616UjsMTA_hrWyg_5w", "review_count": 183, "categories": [{"alias": "sushi", "title": "Sushi Bars"}, {"alias": "seafood", "title": "Seafood"}, {"alias": "karaoke", "title": "Karaoke"}], "rating": 4.0, "coordinates": {"latitude": 29.9343321279759, "longitude": -90.0799834267241}, "transactions": ["delivery", "pickup"], "price": "$$", "location": {"address1": "2100 Saint Charles Ave", "address2": "", "address3": "", "city": "New Orleans", "zip_code": "70130", "country": "US", "state": "LA", "display_address": ["2100 Saint Charles Ave", "New Orleans, LA 70130"]}, "phone": "+15045096675", "display_phone": "(504) 509-6675", "distance": 2446.104515473325}, {"id": "J1bG9ezYHMkzqV1yRsVtQQ", "alias": "geisha-sushi-bistro-new-orleans", "name": "Geisha Sushi Bistro", "image_url": "https://s3-media4.fl.yelpcdn.com/bphoto/XtQsOd6aAkb15PJVQz3G6w/o.jpg", "is_closed": false, "url": "https://www.yelp.com/biz/geisha-sushi-bistro-new-orleans?adjust_creative=vyhy616UjsMTA_hrWyg_5w&utm_campaign=yelp_api_v3&utm_medium=api_v3_business_search&utm_source=vyhy616UjsMTA_hrWyg_5w", "review_count": 316, "categories": [{"alias": "japanese", "title": "Japanese"}, {"alias": "sushi", "title": "Sushi Bars"}], "rating": 3.5, "coordinates": {"latitude": 29.95084, "longitude": -90.06652}, "transactions": ["delivery", "pickup"], "price": "$$", "location": {"address1": "111 Tchoupitoulas St", "address2": "", "address3": "", "city": "New Orleans", "zip_code": "70130", "country": "US", "state": "LA", "display_address": ["111 Tchoupitoulas St", "New Orleans, LA 70130"]}, "phone": "+15045228850", "display_phone": "(504) 522-8850", "distance": 1757.9365432883872}], "total": 265, "region": {"center": {"longitude": -90.08377075195312, "latitude": 29.956084336405493}}}