{"businesses": [{"id": "72PQGMhrEcIuWH-S44TprA", "alias": "myers-and-chang-boston", "name": "Myers & Chang", "image_url": "https://s3-media4.fl.yelpcdn.com/bphoto/sDQyH9TnCR_VnCuWTXHLow/o.jpg", "is_closed": false, "url": "https://www.yelp.com/biz/myers-and-chang-boston?adjust_creative=vyhy616UjsMTA_hrWyg_5w&utm_campaign=yelp_api_v3&utm_medium=api_v3_business_search&utm_source=vyhy616UjsMTA_hrWyg_5w", "review_count": 1682, "categories": [{"alias": "asianfusion", "title": "Asian Fusion"}, {"alias": "taiwanese", "title": "Taiwanese"}, {"alias": "cocktailbars", "title": "Cocktail Bars"}], "rating": 4.0, "coordinates": {"latitude": 42.3438187315924, "longitude": -71.066250270967}, "transactions": ["delivery", "pickup"], "price": "$$", "location": {"address1": "1145 Washington St", "address2": "", "address3": "", "city": "Boston", "zip_code": "02118", "country": "US", "state": "MA", "display_address": ["1145 Washington St", "Boston, MA 02118"]}, "phone": "+16175425200", "display_phone": "(617) 542-5200", "distance": 607.0314234733801}, {"id": "UzBSiGPQwFqsHXrkK5iJ4Q", "alias": "chalawan-cambridge", "name": "Chalawan", "image_url": "https://s3-media2.fl.yelpcdn.com/bphoto/Jt6ekWiRl8k711BzJqT_8A/o.jpg", "is_closed": false, "url": "https://www.yelp.com/biz/chalawan-cambridge?adjust_creative=vyhy616UjsMTA_hrWyg_5w&utm_campaign=yelp_api_v3&utm_medium=api_v3_business_search&utm_source=vyhy616UjsMTA_hrWyg_5w", "review_count": 112, "categories": [{"alias": "thai", "title": "Thai"}, {"alias": "indonesian", "title": "Indonesian"}, {"alias": "singaporean", "title": "Singaporean"}], "rating": 4.5, "coordinates": {"latitude": 42.38597, "longitude": -71.11962}, "transactions": ["delivery", "pickup"], "location": {"address1": "1790 Massachusetts Ave", "address2": null, "address3": "", "city": "Cambridge", "zip_code": "02140", "country": "US", "state": "MA", "display_address": ["1790 Massachusetts Ave", "Cambridge, MA 02140"]}, "phone": "+16175478888", "display_phone": "(617) 547-8888", "distance": 5805.070140806292}, {"id": "f7rqA0KFOoo3QO3_UiOzYw", "alias": "mae-asian-eatery-cambridge-2", "name": "Mae Asian Eatery", "image_url": "https://s3-media4.fl.yelpcdn.com/bphoto/1xvEIuTEwtDeL3bca3mU9w/o.jpg", "is_closed": false, "url": "https://www.yelp.com/biz/mae-asian-eatery-cambridge-2?adjust_creative=vyhy616UjsMTA_hrWyg_5w&utm_campaign=yelp_api_v3&utm_medium=api_v3_business_search&utm_source=vyhy616UjsMTA_hrWyg_5w", "review_count": 180, "categories": [{"alias": "thai", "title": "Thai"}, {"alias": "chinese", "title": "Chinese"}, {"alias": "vietnamese", "title": "Vietnamese"}], "rating": 4.5, "coordinates": {"latitude": 42.36332, "longitude": -71.09684}, "transactions": ["delivery", "pickup"], "price": "$$", "location": {"address1": "781 Main St", "address2": "", "address3": null, "city": "Cambridge", "zip_code": "02139", "country": "US", "state": "MA", "display_address": ["781 Main St", "Cambridge, MA 02139"]}, "phone": "+16173543388", "display_phone": "(617) 354-3388", "distance": 2724.0221546928015}, {"id": "JO1aGVtB0TYtunc4Km_-Dg", "alias": "koy-boston", "name": "Koy", "image_url": "https://s3-media1.fl.yelpcdn.com/bphoto/v0b4D2yu0Y8czT9I_hRk7w/o.jpg", "is_closed": false, "url": "https://www.yelp.com/biz/koy-boston?adjust_creative=vyhy616UjsMTA_hrWyg_5w&utm_campaign=yelp_api_v3&utm_medium=api_v3_business_search&utm_source=vyhy616UjsMTA_hrWyg_5w", "review_count": 537, "categories": [{"alias": "korean", "title": "Korean"}, {"alias": "asianfusion", "title": "Asian Fusion"}, {"alias": "sushi", "title": "Sushi Bars"}], "rating": 4.0, "coordinates": {"latitude": 42.3605931357964, "longitude": -71.056273070639}, "transactions": ["delivery", "pickup", "restaurant_reservation"], "price": "$$", "location": {"address1": "16 North St", "address2": null, "address3": "", "city": "Boston", "zip_code": "02109", "country": "US", "state": "MA", "display_address": ["16 North St", "Boston, MA 02109"]}, "phone": "+18579911483", "display_phone": "(857) 991-1483", "distance": 1877.1414132587806}, {"id": "Q8g68ZDAt93h_n_wTbwshA", "alias": "shojo-boston-4", "name": "Shojo", "image_url": "https://s3-media1.fl.yelpcdn.com/bphoto/5azEZx4_crHWL0il8p6_Lg/o.jpg", "is_closed": false, "url": "https://www.yelp.com/biz/shojo-boston-4?adjust_creative=vyhy616UjsMTA_hrWyg_5w&utm_campaign=yelp_api_v3&utm_medium=api_v3_business_search&utm_source=vyhy616UjsMTA_hrWyg_5w", "review_count": 850, "categories": [{"alias": "asianfusion", "title": "Asian Fusion"}, {"alias": "cocktailbars", "title": "Cocktail Bars"}, {"alias": "japanese", "title": "Japanese"}], "rating": 4.0, "coordinates": {"latitude": 42.35113, "longitude": -71.06077}, "transactions": ["delivery", "pickup"], "price": "$$", "location": {"address1": "9A Tyler St", "address2": null, "address3": "", "city": "Boston", "zip_code": "02111", "country": "US", "state": "MA", "display_address": ["9A Tyler St", "Boston, MA 02111"]}, "phone": "+16174237888", "display_phone": "(617) 423-7888", "distance": 932.457880665299}, {"id": "EQwakJYQh75522pvMlSWPA", "alias": "seoul-jangteo-boston-3", "name": "Seoul Jangteo", "image_url": "https://s3-media3.fl.yelpcdn.com/bphoto/Qtbzl3R6Sl7aMJZCq2-1Dg/o.jpg", "is_closed": false, "url": "https://www.yelp.com/biz/seoul-jangteo-boston-3?adjust_creative=vyhy616UjsMTA_hrWyg_5w&utm_campaign=yelp_api_v3&utm_medium=api_v3_business_search&utm_source=vyhy616UjsMTA_hrWyg_5w", "review_count": 52, "categories": [{"alias": "korean", "title": "Korean"}, {"alias": "chinese", "title": "Chinese"}, {"alias": "noodles", "title": "Noodles"}], "rating": 4.5, "coordinates": {"latitude": 42.35321, "longitude": -71.13184}, "transactions": ["delivery", "pickup"], "location": {"address1": "151 Brighton Ave", "address2": null, "address3": "", "city": "Boston", "zip_code": "02134", "country": "US", "state": "MA", "display_address": ["151 Brighton Ave", "Boston, MA 02134"]}, "phone": "+16172542775", "display_phone": "(617) 254-2775", "distance": 5014.478995842851}, {"id": "PSp0P_3zWIQabA5HAIJBMQ", "alias": "pho-basil-boston", "name": "Pho Basil", "image_url": "https://s3-media3.fl.yelpcdn.com/bphoto/o5SyYRWPu3Bf8tCvn5qLMw/o.jpg", "is_closed": false, "url": "https://www.yelp.com/biz/pho-basil-boston?adjust_creative=vyhy616UjsMTA_hrWyg_5w&utm_campaign=yelp_api_v3&utm_medium=api_v3_business_search&utm_source=vyhy616UjsMTA_hrWyg_5w", "review_count": 1250, "categories": [{"alias": "vietnamese", "title": "Vietnamese"}, {"alias": "thai", "title": "Thai"}, {"alias": "seafood", "title": "Seafood"}], "rating": 4.0, "coordinates": {"latitude": 42.34578219999804, "longitude": -71.08728270191278}, "transactions": ["delivery", "pickup"], "price": "$$", "location": {"address1": "177 Massachusetts Ave", "address2": "Ste A", "address3": "", "city": "Boston", "zip_code": "02115", "country": "US", "state": "MA", "display_address": ["177 Massachusetts Ave", "Ste A", "Boston, MA 02115"]}, "phone": "+16172625377", "display_phone": "(617) 262-5377", "distance": 1337.895579613532}, {"id": "E3Qqa99qFy1oeGMv0wPBBQ", "alias": "tora-japanese-restaurant-boston", "name": "Tora Japanese Restaurant", "image_url": "https://s3-media3.fl.yelpcdn.com/bphoto/dv7PoT6Glvfzkq4T_h-YHg/o.jpg", "is_closed": false, "url": "https://www.yelp.com/biz/tora-japanese-restaurant-boston?adjust_creative=vyhy616UjsMTA_hrWyg_5w&utm_campaign=yelp_api_v3&utm_medium=api_v3_business_search&utm_source=vyhy616UjsMTA_hrWyg_5w", "review_count": 440, "categories": [{"alias": "japanese", "title": "Japanese"}, {"alias": "sushi", "title": "Sushi Bars"}, {"alias": "poke", "title": "Poke"}], "rating": 4.5, "coordinates": {"latitude": 42.35076, "longitude": -71.06054}, "transactions": ["delivery", "pickup"], "price": "$$", "location": {"address1": "20B Tyler St", "address2": null, "address3": "", "city": "Boston", "zip_code": "02111", "country": "US", "state": "MA", "display_address": ["20B Tyler St", "Boston, MA 02111"]}, "phone": "+16175426688", "display_phone": "(617) 542-6688", "distance": 934.5498165988719}, {"id": "SP97o6xotOT4fATH9HDsmQ", "alias": "shuns-kitchen-boston-2", "name": "Shun's Kitchen", "image_url": "https://s3-media1.fl.yelpcdn.com/bphoto/Ssmgs57MfGj5qO0_KEFd5A/o.jpg", "is_closed": false, "url": "https://www.yelp.com/biz/shuns-kitchen-boston-2?adjust_creative=vyhy616UjsMTA_hrWyg_5w&utm_campaign=yelp_api_v3&utm_medium=api_v3_business_search&utm_source=vyhy616UjsMTA_hrWyg_5w", "review_count": 133, "categories": [{"alias": "japanese", "title": "Japanese"}, {"alias": "chinese", "title": "Chinese"}, {"alias": "asianfusion", "title": "Asian Fusion"}], "rating": 4.0, "coordinates": {"latitude": 42.3419134834615, "longitude": -71.0797398537397}, "transactions": ["delivery", "pickup"], "price": "$$", "location": {"address1": "520 Columbus Ave", "address2": "", "address3": "", "city": "Boston", "zip_code": "02118", "country": "US", "state": "MA", "display_address": ["520 Columbus Ave", "Boston, MA 02118"]}, "phone": "+16174219588", "display_phone": "(617) 421-9588", "distance": 960.2760032380962}, {"id": "sqr1T-KLQ7ED49SlAEx49w", "alias": "sojuba-boston", "name": "SOJUba", "image_url": "https://s3-media2.fl.yelpcdn.com/bphoto/3F6CmSDyiDU7Xi3juMHaCA/o.jpg", "is_closed": false, "url": "https://www.yelp.com/biz/sojuba-boston?adjust_creative=vyhy616UjsMTA_hrWyg_5w&utm_campaign=yelp_api_v3&utm_medium=api_v3_business_search&utm_source=vyhy616UjsMTA_hrWyg_5w", "review_count": 314, "categories": [{"alias": "korean", "title": "Korean"}, {"alias": "lounges", "title": "Lounges"}], "rating": 4.0, "coordinates": {"latitude": 42.3452636, "longitude": -71.0963814}, "transactions": ["delivery"], "price": "$$", "location": {"address1": "1265 Boylston St", "address2": null, "address3": "", "city": "Boston", "zip_code": "02215", "country": "US", "state": "MA", "display_address": ["1265 Boylston St", "Boston, MA 02215"]}, "phone": "+16174241260", "display_phone": "(617) 424-1260", "distance": 2085.70284096307}, {"id": "QbG-Ju21BhbPaNztMx8p1w", "alias": "dolphin-bay-boston", "name": "Dolphin Bay", "image_url": "https://s3-media1.fl.yelpcdn.com/bphoto/iSRwJX2ktiuN0u7d6yR0VQ/o.jpg", "is_closed": false, "url": "https://www.yelp.com/biz/dolphin-bay-boston?adjust_creative=vyhy616UjsMTA_hrWyg_5w&utm_campaign=yelp_api_v3&utm_medium=api_v3_business_search&utm_source=vyhy616UjsMTA_hrWyg_5w", "review_count": 493, "categories": [{"alias": "taiwanese", "title": "Taiwanese"}, {"alias": "bubbletea", "title": "Bubble Tea"}], "rating": 4.5, "coordinates": {"latitude": 42.3524595116339, "longitude": -71.128802412403}, "transactions": ["pickup"], "price": "$", "location": {"address1": "72 Brighton Ave", "address2": "", "address3": "", "city": "Boston", "zip_code": "02134", "country": "US", "state": "MA", "display_address": ["72 Brighton Ave", "Boston, MA 02134"]}, "phone": "+16175621668", "display_phone": "(617) 562-1668", "distance": 4757.859614237617}, {"id": "oBEI6c3hWNUMIRP5oh8Ptw", "alias": "laughing-monk-cafe-boston", "name": "Laughing Monk Cafe", "image_url": "https://s3-media4.fl.yelpcdn.com/bphoto/uFZoKyX3WXzI-wcarGRI_A/o.jpg", "is_closed": false, "url": "https://www.yelp.com/biz/laughing-monk-cafe-boston?adjust_creative=vyhy616UjsMTA_hrWyg_5w&utm_campaign=yelp_api_v3&utm_medium=api_v3_business_search&utm_source=vyhy616UjsMTA_hrWyg_5w", "review_count": 258, "categories": [{"alias": "sushi", "title": "Sushi Bars"}, {"alias": "thai", "title": "Thai"}], "rating": 4.5, "coordinates": {"latitude": 42.3340845, "longitude": -71.1053358}, "transactions": ["delivery", "pickup"], "price": "$$", "location": {"address1": "737 Huntington Ave", "address2": null, "address3": "", "city": "Boston", "zip_code": "02115", "country": "US", "state": "MA", "display_address": ["737 Huntington Ave", "Boston, MA 02115"]}, "phone": "+16172328000", "display_phone": "(617) 232-8000", "distance": 3205.2088811385315}, {"id": "kb0VfKZKHHhvDze3JZqi0Q", "alias": "q-restaurant-boston", "name": "Q Restaurant", "image_url": "https://s3-media4.fl.yelpcdn.com/bphoto/fBtAMu25uFqRvXbGdJ1qlQ/o.jpg", "is_closed": false, "url": "https://www.yelp.com/biz/q-restaurant-boston?adjust_creative=vyhy616UjsMTA_hrWyg_5w&utm_campaign=yelp_api_v3&utm_medium=api_v3_business_search&utm_source=vyhy616UjsMTA_hrWyg_5w", "review_count": 1079, "categories": [{"alias": "chinese", "title": "Chinese"}, {"alias": "sushi", "title": "Sushi Bars"}, {"alias": "hotpot", "title": "Hot Pot"}], "rating": 4.0, "coordinates": {"latitude": 42.3517075922991, "longitude": -71.0625610949003}, "transactions": ["delivery", "pickup", "restaurant_reservation"], "price": "$$", "location": {"address1": "660 Washington St", "address2": "", "address3": "", "city": "Boston", "zip_code": "02111", "country": "US", "state": "MA", "display_address": ["660 Washington St", "Boston, MA 02111"]}, "phone": "+18573503968", "display_phone": "(857) 350-3968", "distance": 832.975637129062}, {"id": "Z6Io2AbJrof7TPVliMZkAg", "alias": "fuji-at-ink-block-boston", "name": "Fuji at Ink Block", "image_url": "https://s3-media2.fl.yelpcdn.com/bphoto/xhHJpc9D6MyI-zJgyXdLzw/o.jpg", "is_closed": false, "url": "https://www.yelp.com/biz/fuji-at-ink-block-boston?adjust_creative=vyhy616UjsMTA_hrWyg_5w&utm_campaign=yelp_api_v3&utm_medium=api_v3_business_search&utm_source=vyhy616UjsMTA_hrWyg_5w", "review_count": 469, "categories": [{"alias": "japanese", "title": "Japanese"}, {"alias": "sushi", "title": "Sushi Bars"}, {"alias": "cocktailbars", "title": "Cocktail Bars"}], "rating": 4.5, "coordinates": {"latitude": 42.345077, "longitude": -71.063505}, "transactions": ["delivery", "pickup"], "price": "$$", "location": {"address1": "352 Harrison Ave", "address2": "Ste B", "address3": null, "city": "Boston", "zip_code": "02118", "country": "US", "state": "MA", "display_address": ["352 Harrison Ave", "Ste B", "Boston, MA 02118"]}, "phone": "+16179363282", "display_phone": "(617) 936-3282", "distance": 706.3573293177284}, {"id": "xFEyKgGkgOycAsJvVsUzVw", "alias": "douzo-boston", "name": "Douzo", "image_url": "https://s3-media2.fl.yelpcdn.com/bphoto/PAHPOJ4rGz2lAgdPANTezA/o.jpg", "is_closed": false, "url": "https://www.yelp.com/biz/douzo-boston?adjust_creative=vyhy616UjsMTA_hrWyg_5w&utm_campaign=yelp_api_v3&utm_medium=api_v3_business_search&utm_source=vyhy616UjsMTA_hrWyg_5w", "review_count": 1089, "categories": [{"alias": "sushi", "title": "Sushi Bars"}, {"alias": "japanese", "title": "Japanese"}], "rating": 4.0, "coordinates": {"latitude": 42.3468979763336, "longitude": -71.0755712773849}, "transactions": ["delivery"], "price": "$$$", "location": {"address1": "131 Dartmouth St", "address2": null, "address3": "", "city": "Boston", "zip_code": "02116", "country": "US", "state": "MA", "display_address": ["131 Dartmouth St", "Boston, MA 02116"]}, "phone": "+16178598886", "display_phone": "(617) 859-8886", "distance": 370.8364943306086}, {"id": "PAb6rpNnRPKZoiSDc2U4-g", "alias": "nautilus-pier-4-boston", "name": "Nautilus Pier 4", "image_url": "https://s3-media1.fl.yelpcdn.com/bphoto/c6QRNSMhDdM9RFrRjsglxQ/o.jpg", "is_closed": false, "url": "https://www.yelp.com/biz/nautilus-pier-4-boston?adjust_creative=vyhy616UjsMTA_hrWyg_5w&utm_campaign=yelp_api_v3&utm_medium=api_v3_business_search&utm_source=vyhy616UjsMTA_hrWyg_5w", "review_count": 6, "categories": [{"alias": "seafood", "title": "Seafood"}, {"alias": "asianfusion", "title": "Asian Fusion"}, {"alias": "tapasmallplates", "title": "Tapas/Small Plates"}], "rating": 4.0, "coordinates": {"latitude": 42.35270273695417, "longitude": -71.0419476245629}, "transactions": [], "location": {"address1": "300 Pier Four Blvd", "address2": "", "address3": null, "city": "Boston", "zip_code": "02210", "country": "US", "state": "MA", "display_address": ["300 Pier Four Blvd", "Boston, MA 02210"]}, "phone": "+15082280301", "display_phone": "(508) 228-0301", "distance": 2467.3759381432596}, {"id": "G8mYHODB3zYw4RsSVebACw", "alias": "kala-thai-cookery-boston", "name": "Kala Thai Cookery", "image_url": "https://s3-media3.fl.yelpcdn.com/bphoto/15RNcXQgp6nOXiZ8Iy6W6w/o.jpg", "is_closed": false, "url": "https://www.yelp.com/biz/kala-thai-cookery-boston?adjust_creative=vyhy616UjsMTA_hrWyg_5w&utm_campaign=yelp_api_v3&utm_medium=api_v3_business_search&utm_source=vyhy616UjsMTA_hrWyg_5w", "review_count": 161, "categories": [{"alias": "thai", "title": "Thai"}], "rating": 4.5, "coordinates": {"latitude": 42.36188, "longitude": -71.05676}, "transactions": ["delivery"], "location": {"address1": "151 Hanover St", "address2": null, "address3": null, "city": "Boston", "zip_code": "02109", "country": "US", "state": "MA", "display_address": ["151 Hanover St", "Boston, MA 02109"]}, "phone": "+18573504378", "display_phone": "(857) 350-4378", "distance": 1962.9179694158993}, {"id": "wOsTAvCIVjB-fPQBJepMQg", "alias": "clay-pot-cafe-boston", "name": "Clay Pot Cafe", "image_url": "https://s3-media3.fl.yelpcdn.com/bphoto/nx-sTtWvcL3W4bAnJz3Y2A/o.jpg", "is_closed": false, "url": "https://www.yelp.com/biz/clay-pot-cafe-boston?adjust_creative=vyhy616UjsMTA_hrWyg_5w&utm_campaign=yelp_api_v3&utm_medium=api_v3_business_search&utm_source=vyhy616UjsMTA_hrWyg_5w", "review_count": 339, "categories": [{"alias": "cantonese", "title": "Cantonese"}], "rating": 4.0, "coordinates": {"latitude": 42.3504982, "longitude": -71.0604549}, "transactions": ["delivery"], "price": "$", "location": {"address1": "74 Kneeland St", "address2": "", "address3": "", "city": "Boston", "zip_code": "02111", "country": "US", "state": "MA", "display_address": ["74 Kneeland St", "Boston, MA 02111"]}, "phone": "+16173575262", "display_phone": "(617) 357-5262", "distance": 934.4916782678827}, {"id": "BOzdu1Rv8ootQpnSBdhrng", "alias": "beantown-pho-and-grill-boston-2", "name": "Beantown Pho & Grill", "image_url": "https://s3-media2.fl.yelpcdn.com/bphoto/lEtFEJkmvSwC1d1eRs7Uyw/o.jpg", "is_closed": false, "url": "https://www.yelp.com/biz/beantown-pho-and-grill-boston-2?adjust_creative=vyhy616UjsMTA_hrWyg_5w&utm_campaign=yelp_api_v3&utm_medium=api_v3_business_search&utm_source=vyhy616UjsMTA_hrWyg_5w", "review_count": 431, "categories": [{"alias": "vietnamese", "title": "Vietnamese"}, {"alias": "thai", "title": "Thai"}, {"alias": "asianfusion", "title": "Asian Fusion"}], "rating": 4.0, "coordinates": {"latitude": 42.3491, "longitude": -71.08341}, "transactions": ["delivery", "pickup"], "price": "$$", "location": {"address1": "272 Newbury St", "address2": "", "address3": "", "city": "Boston", "zip_code": "02116", "country": "US", "state": "MA", "display_address": ["272 Newbury St", "Boston, MA 02116"]}, "phone": "+18572638440", "display_phone": "(857) 263-8440", "distance": 1009.8876974251197}, {"id": "RC7s9vg0L3hL4LTZQhlpeg", "alias": "seoul-soulongtang-boston", "name": "Seoul Soulongtang", "image_url": "https://s3-media4.fl.yelpcdn.com/bphoto/CvL2jyR63fghrcNsbnaGWA/o.jpg", "is_closed": false, "url": "https://www.yelp.com/biz/seoul-soulongtang-boston?adjust_creative=vyhy616UjsMTA_hrWyg_5w&utm_campaign=yelp_api_v3&utm_medium=api_v3_business_search&utm_source=vyhy616UjsMTA_hrWyg_5w", "review_count": 497, "categories": [{"alias": "korean", "title": "Korean"}, {"alias": "soup", "title": "Soup"}], "rating": 3.5, "coordinates": {"latitude": 42.350251529608, "longitude": -71.1318040723493}, "transactions": ["delivery", "pickup"], "price": "$$", "location": {"address1": "1245 Commonwealth Ave", "address2": "", "address3": "", "city": "Boston", "zip_code": "02134", "country": "US", "state": "MA", "display_address": ["1245 Commonwealth Ave", "Boston, MA 02134"]}, "phone": "+16175056771", "display_phone": "(617) 505-6771", "distance": 4984.035875322049}, {"id": "BRjvpMJ8C_1_mdB3n3tAgA", "alias": "mahaniyom-brookline", "name": "Mahaniyom", "image_url": "https://s3-media4.fl.yelpcdn.com/bphoto/oHxG4Kv1-duian5rWzbdJw/o.jpg", "is_closed": false, "url": "https://www.yelp.com/biz/mahaniyom-brookline?adjust_creative=vyhy616UjsMTA_hrWyg_5w&utm_campaign=yelp_api_v3&utm_medium=api_v3_business_search&utm_source=vyhy616UjsMTA_hrWyg_5w", "review_count": 64, "categories": [{"alias": "cocktailbars", "title": "Cocktail Bars"}, {"alias": "thai", "title": "Thai"}, {"alias": "tapasmallplates", "title": "Tapas/Small Plates"}], "rating": 5.0, "coordinates": {"latitude": 42.332649, "longitude": -71.118843}, "transactions": ["delivery", "pickup"], "location": {"address1": "236 Washington St", "address2": null, "address3": null, "city": "Brookline", "zip_code": "02445", "country": "US", "state": "MA", "display_address": ["236 Washington St", "Brookline, MA 02445"]}, "phone": "", "display_phone": "", "distance": 4262.535095239909}, {"id": "MnA_dF1xkX-bnLR6hq4EmQ", "alias": "taiwan-caf\u00e9-boston-2", "name": "Taiwan Caf\u00e9", "image_url": "https://s3-media4.fl.yelpcdn.com/bphoto/p1UaZGxFbdtVwfYXNMKIlQ/o.jpg", "is_closed": false, "url": "https://www.yelp.com/biz/taiwan-caf%C3%A9-boston-2?adjust_creative=vyhy616UjsMTA_hrWyg_5w&utm_campaign=yelp_api_v3&utm_medium=api_v3_business_search&utm_source=vyhy616UjsMTA_hrWyg_5w", "review_count": 1119, "categories": [{"alias": "taiwanese", "title": "Taiwanese"}, {"alias": "chinese", "title": "Chinese"}, {"alias": "seafood", "title": "Seafood"}], "rating": 3.5, "coordinates": {"latitude": 42.351503, "longitude": -71.060239}, "transactions": ["delivery", "pickup"], "price": "$$", "location": {"address1": "34 Oxford St", "address2": "", "address3": "", "city": "Boston", "zip_code": "02111", "country": "US", "state": "MA", "display_address": ["34 Oxford St", "Boston, MA 02111"]}, "phone": "+16174268181", "display_phone": "(617) 426-8181", "distance": 991.7291181793462}, {"id": "63q10aw-6XREzuRadM3_HA", "alias": "penang-boston", "name": "Penang", "image_url": "https://s3-media2.fl.yelpcdn.com/bphoto/u7WwBD0Y-yXSPX-ngdO2SA/o.jpg", "is_closed": false, "url": "https://www.yelp.com/biz/penang-boston?adjust_creative=vyhy616UjsMTA_hrWyg_5w&utm_campaign=yelp_api_v3&utm_medium=api_v3_business_search&utm_source=vyhy616UjsMTA_hrWyg_5w", "review_count": 991, "categories": [{"alias": "malaysian", "title": "Malaysian"}, {"alias": "chinese", "title": "Chinese"}, {"alias": "thai", "title": "Thai"}], "rating": 3.5, "coordinates": {"latitude": 42.3513484, "longitude": -71.063059}, "transactions": ["delivery", "pickup"], "price": "$$", "location": {"address1": "685 Washington St", "address2": "", "address3": "", "city": "Boston", "zip_code": "02111", "country": "US", "state": "MA", "display_address": ["685 Washington St", "Boston, MA 02111"]}, "phone": "+16174516373", "display_phone": "(617) 451-6373", "distance": 777.4284922306487}, {"id": "avWsi0REM7WmxlDZ7JS30w", "alias": "twelve-hours-brighton", "name": "Twelve Hours", "image_url": "https://s3-media2.fl.yelpcdn.com/bphoto/IlETEqR_a4PWJNJ48jK22A/o.jpg", "is_closed": false, "url": "https://www.yelp.com/biz/twelve-hours-brighton?adjust_creative=vyhy616UjsMTA_hrWyg_5w&utm_campaign=yelp_api_v3&utm_medium=api_v3_business_search&utm_source=vyhy616UjsMTA_hrWyg_5w", "review_count": 398, "categories": [{"alias": "asianfusion", "title": "Asian Fusion"}, {"alias": "thai", "title": "Thai"}, {"alias": "ramen", "title": "Ramen"}], "rating": 4.5, "coordinates": {"latitude": 42.34996, "longitude": -71.16444}, "transactions": ["delivery", "pickup"], "price": "$$", "location": {"address1": "559 Washington St", "address2": null, "address3": "", "city": "Brighton", "zip_code": "02135", "country": "US", "state": "MA", "display_address": ["559 Washington St", "Brighton, MA 02135"]}, "phone": "+16172025108", "display_phone": "(617) 202-5108", "distance": 7649.3103239523225}, {"id": "87f7kR7nTz8WHnmtLM_S6w", "alias": "o-ya-boston", "name": "O Ya", "image_url": "https://s3-media2.fl.yelpcdn.com/bphoto/pQHRkn32Xw4XC16wNAaHhQ/o.jpg", "is_closed": false, "url": "https://www.yelp.com/biz/o-ya-boston?adjust_creative=vyhy616UjsMTA_hrWyg_5w&utm_campaign=yelp_api_v3&utm_medium=api_v3_business_search&utm_source=vyhy616UjsMTA_hrWyg_5w", "review_count": 740, "categories": [{"alias": "japanese", "title": "Japanese"}], "rating": 4.5, "coordinates": {"latitude": 42.3514083135866, "longitude": -71.056866645813}, "transactions": ["delivery"], "price": "$$$$", "location": {"address1": "9 East St Pl", "address2": "", "address3": "", "city": "Boston", "zip_code": "02111", "country": "US", "state": "MA", "display_address": ["9 East St Pl", "Boston, MA 02111"]}, "phone": "+16176549900", "display_phone": "(617) 654-9900", "distance": 1246.2350638455794}, {"id": "lsqYQYGfpe25wUZk9Wybwg", "alias": "the-elephant-walk-boston-2", "name": "The Elephant Walk", "image_url": "https://s3-media2.fl.yelpcdn.com/bphoto/jnWAud-viMQpw2ieL66LXw/o.jpg", "is_closed": false, "url": "https://www.yelp.com/biz/the-elephant-walk-boston-2?adjust_creative=vyhy616UjsMTA_hrWyg_5w&utm_campaign=yelp_api_v3&utm_medium=api_v3_business_search&utm_source=vyhy616UjsMTA_hrWyg_5w", "review_count": 195, "categories": [{"alias": "cambodian", "title": "Cambodian"}, {"alias": "french", "title": "French"}, {"alias": "cocktailbars", "title": "Cocktail Bars"}], "rating": 4.0, "coordinates": {"latitude": 42.34116, "longitude": -71.070578}, "transactions": ["delivery", "pickup", "restaurant_reservation"], "price": "$$", "location": {"address1": "1415 Washington St", "address2": "", "address3": "", "city": "Boston", "zip_code": "02118", "country": "US", "state": "MA", "display_address": ["1415 Washington St", "Boston, MA 02118"]}, "phone": "+16172471500", "display_phone": "(617) 247-1500", "distance": 744.9788616609346}, {"id": "9BmP5aQyuvbT-xwpcej1Yw", "alias": "futago-udon-boston", "name": "Futago Udon", "image_url": "https://s3-media3.fl.yelpcdn.com/bphoto/1sbBHYBAKsybnvg9UjdlFg/o.jpg", "is_closed": false, "url": "https://www.yelp.com/biz/futago-udon-boston?adjust_creative=vyhy616UjsMTA_hrWyg_5w&utm_campaign=yelp_api_v3&utm_medium=api_v3_business_search&utm_source=vyhy616UjsMTA_hrWyg_5w", "review_count": 294, "categories": [{"alias": "japanese", "title": "Japanese"}], "rating": 4.5, "coordinates": {"latitude": 42.34772, "longitude": -71.10582}, "transactions": ["delivery", "pickup"], "price": "$$", "location": {"address1": "508 Park Dr", "address2": "", "address3": null, "city": "Boston", "zip_code": "02215", "country": "US", "state": "MA", "display_address": ["508 Park Dr", "Boston, MA 02215"]}, "phone": "+16175056157", "display_phone": "(617) 505-6157", "distance": 2844.416948909963}, {"id": "xuVTMvkQ-tmAYoXka-mwgQ", "alias": "yoma-boston-allston-4", "name": "Yoma Boston", "image_url": "https://s3-media2.fl.yelpcdn.com/bphoto/7CjdLfm-u2Y10Hq1oBhLRA/o.jpg", "is_closed": false, "url": "https://www.yelp.com/biz/yoma-boston-allston-4?adjust_creative=vyhy616UjsMTA_hrWyg_5w&utm_campaign=yelp_api_v3&utm_medium=api_v3_business_search&utm_source=vyhy616UjsMTA_hrWyg_5w", "review_count": 345, "categories": [{"alias": "burmese", "title": "Burmese"}], "rating": 4.0, "coordinates": {"latitude": 42.35378, "longitude": -71.13758}, "transactions": ["delivery", "pickup"], "price": "$$", "location": {"address1": "5 N Beacon St", "address2": null, "address3": "", "city": "Allston", "zip_code": "02134", "country": "US", "state": "MA", "display_address": ["5 N Beacon St", "Allston, MA 02134"]}, "phone": "+16177831372", "display_phone": "(617) 783-1372", "distance": 5493.466724454765}, {"id": "inAEY3i1hYR4BlJfPgKFPw", "alias": "santouka-back-bay-boston-2", "name": "Santouka Back Bay", "image_url": "https://s3-media3.fl.yelpcdn.com/bphoto/0u9P_0CRYxrDl1HDONj4Mw/o.jpg", "is_closed": false, "url": "https://www.yelp.com/biz/santouka-back-bay-boston-2?adjust_creative=vyhy616UjsMTA_hrWyg_5w&utm_campaign=yelp_api_v3&utm_medium=api_v3_business_search&utm_source=vyhy616UjsMTA_hrWyg_5w", "review_count": 605, "categories": [{"alias": "ramen", "title": "Ramen"}, {"alias": "soup", "title": "Soup"}, {"alias": "noodles", "title": "Noodles"}], "rating": 4.0, "coordinates": {"latitude": 42.3484762870602, "longitude": -71.0854271426797}, "transactions": ["delivery", "pickup"], "price": "$$", "location": {"address1": "66 Hereford St", "address2": "", "address3": null, "city": "Boston", "zip_code": "02115", "country": "US", "state": "MA", "display_address": ["66 Hereford St", "Boston, MA 02115"]}, "phone": "+18573105194", "display_phone": "(857) 310-5194", "distance": 1167.7660949208641}, {"id": "wkQ1nCkrNlo25fRd3LCQUw", "alias": "tampopo-cambridge", "name": "Tampopo", "image_url": "https://s3-media1.fl.yelpcdn.com/bphoto/GWG2Wa0q3BOafG-cvPjv2A/o.jpg", "is_closed": false, "url": "https://www.yelp.com/biz/tampopo-cambridge?adjust_creative=vyhy616UjsMTA_hrWyg_5w&utm_campaign=yelp_api_v3&utm_medium=api_v3_business_search&utm_source=vyhy616UjsMTA_hrWyg_5w", "review_count": 326, "categories": [{"alias": "japanese", "title": "Japanese"}], "rating": 4.5, "coordinates": {"latitude": 42.38729, "longitude": -71.11839}, "transactions": ["delivery"], "price": "$", "location": {"address1": "1815 Massachusetts Ave", "address2": "", "address3": "", "city": "Cambridge", "zip_code": "02140", "country": "US", "state": "MA", "display_address": ["1815 Massachusetts Ave", "Cambridge, MA 02140"]}, "phone": "+16178685457", "display_phone": "(617) 868-5457", "distance": 5853.070685737361}, {"id": "NJsT9kBEOW3uyPcvmZrfJA", "alias": "yume-ga-arukara-cambridge-2", "name": "Yume Ga Arukara", "image_url": "https://s3-media2.fl.yelpcdn.com/bphoto/mA4h5xJC4VvUdQTmjgvJRg/o.jpg", "is_closed": false, "url": "https://www.yelp.com/biz/yume-ga-arukara-cambridge-2?adjust_creative=vyhy616UjsMTA_hrWyg_5w&utm_campaign=yelp_api_v3&utm_medium=api_v3_business_search&utm_source=vyhy616UjsMTA_hrWyg_5w", "review_count": 441, "categories": [{"alias": "japanese", "title": "Japanese"}, {"alias": "noodles", "title": "Noodles"}], "rating": 4.5, "coordinates": {"latitude": 42.387225, "longitude": -71.118534}, "transactions": ["delivery"], "price": "$$", "location": {"address1": "1815 Massachusetts Ave", "address2": "", "address3": null, "city": "Cambridge", "zip_code": "02140", "country": "US", "state": "MA", "display_address": ["1815 Massachusetts Ave", "Cambridge, MA 02140"]}, "phone": "", "display_phone": "", "distance": 5854.2329178607215}, {"id": "ROKUGsp9ABxYpbH8v1PgQQ", "alias": "bab-korean-bistro-brookline-2", "name": "BAB Korean Bistro", "image_url": "https://s3-media1.fl.yelpcdn.com/bphoto/_XfIsw2l5yqDB9HIB5Mv9Q/o.jpg", "is_closed": false, "url": "https://www.yelp.com/biz/bab-korean-bistro-brookline-2?adjust_creative=vyhy616UjsMTA_hrWyg_5w&utm_campaign=yelp_api_v3&utm_medium=api_v3_business_search&utm_source=vyhy616UjsMTA_hrWyg_5w", "review_count": 145, "categories": [{"alias": "korean", "title": "Korean"}], "rating": 4.0, "coordinates": {"latitude": 42.34189, "longitude": -71.1235}, "transactions": ["delivery", "pickup"], "price": "$$", "location": {"address1": "1374 Beacon St", "address2": "", "address3": null, "city": "Brookline", "zip_code": "02446", "country": "US", "state": "MA", "display_address": ["1374 Beacon St", "Brookline, MA 02446"]}, "phone": "+16173835575", "display_phone": "(617) 383-5575", "distance": 4356.2082551604535}, {"id": "gW0JPz641jd-zRuyI6k5jg", "alias": "tsurutontan-udon-noodle-brasserie-boston-boston-2", "name": "Tsurutontan Udon Noodle Brasserie - Boston", "image_url": "https://s3-media2.fl.yelpcdn.com/bphoto/99wU17DunH3PcFhcgL_7ew/o.jpg", "is_closed": false, "url": "https://www.yelp.com/biz/tsurutontan-udon-noodle-brasserie-boston-boston-2?adjust_creative=vyhy616UjsMTA_hrWyg_5w&utm_campaign=yelp_api_v3&utm_medium=api_v3_business_search&utm_source=vyhy616UjsMTA_hrWyg_5w", "review_count": 183, "categories": [{"alias": "japanese", "title": "Japanese"}, {"alias": "sushi", "title": "Sushi Bars"}, {"alias": "noodles", "title": "Noodles"}], "rating": 4.0, "coordinates": {"latitude": 42.34852, "longitude": -71.09549}, "transactions": ["delivery", "pickup"], "price": "$$$", "location": {"address1": "512 Commonwealth Ave", "address2": null, "address3": "", "city": "Boston", "zip_code": "02215", "country": "US", "state": "MA", "display_address": ["512 Commonwealth Ave", "Boston, MA 02215"]}, "phone": "+18572332839", "display_phone": "(857) 233-2839", "distance": 2016.0903296438687}, {"id": "Jmyya_ylt3Bks4NTcyWgEg", "alias": "zuma-boston-2", "name": "Zuma", "image_url": "https://s3-media3.fl.yelpcdn.com/bphoto/Cw8-fI-morcTbDeJrQ8ODA/o.jpg", "is_closed": false, "url": "https://www.yelp.com/biz/zuma-boston-2?adjust_creative=vyhy616UjsMTA_hrWyg_5w&utm_campaign=yelp_api_v3&utm_medium=api_v3_business_search&utm_source=vyhy616UjsMTA_hrWyg_5w", "review_count": 143, "categories": [{"alias": "japanese", "title": "Japanese"}, {"alias": "sushi", "title": "Sushi Bars"}, {"alias": "cocktailbars", "title": "Cocktail Bars"}], "rating": 4.0, "coordinates": {"latitude": 42.3461685, "longitude": -71.0845215}, "transactions": ["delivery", "pickup"], "location": {"address1": "1 Dalton St", "address2": "Fl 2", "address3": null, "city": "Boston", "zip_code": "02199", "country": "US", "state": "MA", "display_address": ["1 Dalton St", "Fl 2", "Boston, MA 02199"]}, "phone": "+18574492500", "display_phone": "(857) 449-2500", "distance": 1119.6940944870555}, {"id": "UOh7UdNocP9q5tPwAXipAg", "alias": "gyu-kaku-japanese-bbq-brookline", "name": "Gyu-Kaku Japanese BBQ", "image_url": "https://s3-media4.fl.yelpcdn.com/bphoto/JHTY0UpXi_5rAL-K4ZU2bQ/o.jpg", "is_closed": false, "url": "https://www.yelp.com/biz/gyu-kaku-japanese-bbq-brookline?adjust_creative=vyhy616UjsMTA_hrWyg_5w&utm_campaign=yelp_api_v3&utm_medium=api_v3_business_search&utm_source=vyhy616UjsMTA_hrWyg_5w", "review_count": 796, "categories": [{"alias": "japanese", "title": "Japanese"}, {"alias": "bbq", "title": "Barbeque"}, {"alias": "asianfusion", "title": "Asian Fusion"}], "rating": 4.0, "coordinates": {"latitude": 42.3464102, "longitude": -71.1070482}, "transactions": ["delivery", "pickup"], "price": "$$", "location": {"address1": "1002 Beacon St", "address2": "", "address3": "", "city": "Brookline", "zip_code": "02446", "country": "US", "state": "MA", "display_address": ["1002 Beacon St", "Brookline, MA 02446"]}, "phone": "+16172646190", "display_phone": "(617) 264-6190", "distance": 2946.8055717938546}, {"id": "qBDpPs3Wg7EmUI5XGeUEdA", "alias": "fugakyu-japanese-cuisine-brookline-2", "name": "Fugakyu Japanese Cuisine", "image_url": "https://s3-media1.fl.yelpcdn.com/bphoto/GJajh4lp_FS9Z8YPzQKOfw/o.jpg", "is_closed": false, "url": "https://www.yelp.com/biz/fugakyu-japanese-cuisine-brookline-2?adjust_creative=vyhy616UjsMTA_hrWyg_5w&utm_campaign=yelp_api_v3&utm_medium=api_v3_business_search&utm_source=vyhy616UjsMTA_hrWyg_5w", "review_count": 1229, "categories": [{"alias": "sushi", "title": "Sushi Bars"}, {"alias": "japanese", "title": "Japanese"}], "rating": 4.0, "coordinates": {"latitude": 42.342954, "longitude": -71.119374642915}, "transactions": ["delivery", "pickup"], "price": "$$", "location": {"address1": "1280 Beacon St", "address2": null, "address3": "", "city": "Brookline", "zip_code": "02446", "country": "US", "state": "MA", "display_address": ["1280 Beacon St", "Brookline, MA 02446"]}, "phone": "+16177341268", "display_phone": "(617) 734-1268", "distance": 3992.7802298795355}, {"id": "1C32E52HmhRC3GNwkX2nZg", "alias": "moonshine-152-boston", "name": "Moonshine 152", "image_url": "https://s3-media4.fl.yelpcdn.com/bphoto/GVIeVyMIJmJyRMOKsc1kXQ/o.jpg", "is_closed": false, "url": "https://www.yelp.com/biz/moonshine-152-boston?adjust_creative=vyhy616UjsMTA_hrWyg_5w&utm_campaign=yelp_api_v3&utm_medium=api_v3_business_search&utm_source=vyhy616UjsMTA_hrWyg_5w", "review_count": 410, "categories": [{"alias": "newamerican", "title": "American (New)"}, {"alias": "asianfusion", "title": "Asian Fusion"}], "rating": 4.5, "coordinates": {"latitude": 42.34133, "longitude": -71.0569151}, "transactions": ["delivery"], "price": "$$", "location": {"address1": "152 Dorchester Ave", "address2": "", "address3": "", "city": "Boston", "zip_code": "02127", "country": "US", "state": "MA", "display_address": ["152 Dorchester Ave", "Boston, MA 02127"]}, "phone": "+16177524191", "display_phone": "(617) 752-4191", "distance": 1373.6811812991082}, {"id": "vsS0M6qbVFaCFKYZA2Iu2g", "alias": "saigon-hut-boston-3", "name": "Saigon Hut", "image_url": "https://s3-media2.fl.yelpcdn.com/bphoto/FufFwOJqfEDTSHVgE-seRA/o.jpg", "is_closed": false, "url": "https://www.yelp.com/biz/saigon-hut-boston-3?adjust_creative=vyhy616UjsMTA_hrWyg_5w&utm_campaign=yelp_api_v3&utm_medium=api_v3_business_search&utm_source=vyhy616UjsMTA_hrWyg_5w", "review_count": 170, "categories": [{"alias": "vietnamese", "title": "Vietnamese"}], "rating": 4.0, "coordinates": {"latitude": 42.377266, "longitude": -71.0390451}, "transactions": ["delivery"], "price": "$", "location": {"address1": "305 Meridian St", "address2": "", "address3": "", "city": "Boston", "zip_code": "02128", "country": "US", "state": "MA", "display_address": ["305 Meridian St", "Boston, MA 02128"]}, "phone": "+16175671944", "display_phone": "(617) 567-1944", "distance": 4213.2831132339925}, {"id": "ChzM9HTXqqe0VdXSbMGoqQ", "alias": "red-lantern-boston", "name": "Red Lantern", "image_url": "https://s3-media2.fl.yelpcdn.com/bphoto/OpfDVHrPbYlLIGNvdIsaCQ/o.jpg", "is_closed": false, "url": "https://www.yelp.com/biz/red-lantern-boston?adjust_creative=vyhy616UjsMTA_hrWyg_5w&utm_campaign=yelp_api_v3&utm_medium=api_v3_business_search&utm_source=vyhy616UjsMTA_hrWyg_5w", "review_count": 688, "categories": [{"alias": "asianfusion", "title": "Asian Fusion"}, {"alias": "sushi", "title": "Sushi Bars"}, {"alias": "cocktailbars", "title": "Cocktail Bars"}], "rating": 3.5, "coordinates": {"latitude": 42.348503112793, "longitude": -71.073356628418}, "transactions": ["delivery", "pickup"], "price": "$$$", "location": {"address1": "39 Stanhope St", "address2": "", "address3": "", "city": "Boston", "zip_code": "02116", "country": "US", "state": "MA", "display_address": ["39 Stanhope St", "Boston, MA 02116"]}, "phone": "+16172623900", "display_phone": "(617) 262-3900", "distance": 188.60544188539893}, {"id": "vOU6JZoat7fvleg0JooaBQ", "alias": "lanzhou-fresh-noodles-boston-2", "name": "Lanzhou Fresh Noodles", "image_url": "https://s3-media1.fl.yelpcdn.com/bphoto/5FM4bQLCouxf9wZDGUlQEw/o.jpg", "is_closed": false, "url": "https://www.yelp.com/biz/lanzhou-fresh-noodles-boston-2?adjust_creative=vyhy616UjsMTA_hrWyg_5w&utm_campaign=yelp_api_v3&utm_medium=api_v3_business_search&utm_source=vyhy616UjsMTA_hrWyg_5w", "review_count": 26, "categories": [{"alias": "noodles", "title": "Noodles"}, {"alias": "chinese", "title": "Chinese"}], "rating": 4.5, "coordinates": {"latitude": 42.353153177428, "longitude": -71.1336170265804}, "transactions": ["delivery"], "location": {"address1": "182 Brighton Ave", "address2": "", "address3": null, "city": "Boston", "zip_code": "02134", "country": "US", "state": "MA", "display_address": ["182 Brighton Ave", "Boston, MA 02134"]}, "phone": "", "display_phone": "", "distance": 5159.610204426458}, {"id": "2EG0AMfqf0iYqPoYWit_FQ", "alias": "shi-miao-dao-quincy-3", "name": "Shi Miao Dao", "image_url": "https://s3-media1.fl.yelpcdn.com/bphoto/42p9WAFL02ZcDi6HbpYvDA/o.jpg", "is_closed": false, "url": "https://www.yelp.com/biz/shi-miao-dao-quincy-3?adjust_creative=vyhy616UjsMTA_hrWyg_5w&utm_campaign=yelp_api_v3&utm_medium=api_v3_business_search&utm_source=vyhy616UjsMTA_hrWyg_5w", "review_count": 20, "categories": [{"alias": "noodles", "title": "Noodles"}, {"alias": "chinese", "title": "Chinese"}, {"alias": "bubbletea", "title": "Bubble Tea"}], "rating": 4.0, "coordinates": {"latitude": 42.26642333, "longitude": -71.020908}, "transactions": ["delivery", "pickup"], "location": {"address1": "5 Brook St", "address2": null, "address3": "", "city": "Quincy", "zip_code": "02170", "country": "US", "state": "MA", "display_address": ["5 Brook St", "Quincy, MA 02170"]}, "phone": "+16174815888", "display_phone": "(617) 481-5888", "distance": 9966.457527305052}, {"id": "e54WzrGWxuQBlABMCfM3DQ", "alias": "mu-lan-cambridge", "name": "Mu Lan", "image_url": "https://s3-media2.fl.yelpcdn.com/bphoto/kzrfR7H1jAP3-UQ4VAcDNQ/o.jpg", "is_closed": false, "url": "https://www.yelp.com/biz/mu-lan-cambridge?adjust_creative=vyhy616UjsMTA_hrWyg_5w&utm_campaign=yelp_api_v3&utm_medium=api_v3_business_search&utm_source=vyhy616UjsMTA_hrWyg_5w", "review_count": 328, "categories": [{"alias": "taiwanese", "title": "Taiwanese"}, {"alias": "chinese", "title": "Chinese"}], "rating": 4.0, "coordinates": {"latitude": 42.3664, "longitude": -71.09427}, "transactions": ["delivery"], "price": "$$", "location": {"address1": "228 Broadway", "address2": "", "address3": null, "city": "Cambridge", "zip_code": "02139", "country": "US", "state": "MA", "display_address": ["228 Broadway", "Cambridge, MA 02139"]}, "phone": "+16174418813", "display_phone": "(617) 441-8813", "distance": 2797.041992602572}, {"id": "XW3NB-c3pA0vsmsXAn2rkw", "alias": "coreanos-allston-allston", "name": "Coreanos Allston", "image_url": "https://s3-media2.fl.yelpcdn.com/bphoto/f0V6meSGqz_44qSw7kcmnw/o.jpg", "is_closed": false, "url": "https://www.yelp.com/biz/coreanos-allston-allston?adjust_creative=vyhy616UjsMTA_hrWyg_5w&utm_campaign=yelp_api_v3&utm_medium=api_v3_business_search&utm_source=vyhy616UjsMTA_hrWyg_5w", "review_count": 482, "categories": [{"alias": "korean", "title": "Korean"}, {"alias": "asianfusion", "title": "Asian Fusion"}, {"alias": "mexican", "title": "Mexican"}], "rating": 4.5, "coordinates": {"latitude": 42.3529551, "longitude": -71.1329534}, "transactions": ["delivery"], "price": "$$", "location": {"address1": "172 Brighton Ave", "address2": null, "address3": "", "city": "Allston", "zip_code": "02134", "country": "US", "state": "MA", "display_address": ["172 Brighton Ave", "Allston, MA 02134"]}, "phone": "+16172088822", "display_phone": "(617) 208-8822", "distance": 5111.997603875007}, {"id": "yg1onzPFULGaEFT81CBmeQ", "alias": "seoul-boston-boston-2", "name": "Seoul - Boston", "image_url": "https://s3-media3.fl.yelpcdn.com/bphoto/f76kHTs-xRnqv1C3RcEtkQ/o.jpg", "is_closed": false, "url": "https://www.yelp.com/biz/seoul-boston-boston-2?adjust_creative=vyhy616UjsMTA_hrWyg_5w&utm_campaign=yelp_api_v3&utm_medium=api_v3_business_search&utm_source=vyhy616UjsMTA_hrWyg_5w", "review_count": 289, "categories": [{"alias": "korean", "title": "Korean"}, {"alias": "sushi", "title": "Sushi Bars"}, {"alias": "japanese", "title": "Japanese"}], "rating": 3.5, "coordinates": {"latitude": 42.3610198616213, "longitude": -71.0648617625035}, "transactions": ["delivery", "pickup"], "price": "$$", "location": {"address1": "156 Cambridge St", "address2": "", "address3": "", "city": "Boston", "zip_code": "02114", "country": "US", "state": "MA", "display_address": ["156 Cambridge St", "Boston, MA 02114"]}, "phone": "+16179736680", "display_phone": "(617) 973-6680", "distance": 1556.3448383346417}, {"id": "hdBsXpL9uAllcb2QsqzK7g", "alias": "red-white-buddha-ramen-boston-30", "name": "RED WHITE BUDDHA RAMEN ", "image_url": "https://s3-media2.fl.yelpcdn.com/bphoto/jMA2mVjIHM4sl5R2giP0dA/o.jpg", "is_closed": false, "url": "https://www.yelp.com/biz/red-white-buddha-ramen-boston-30?adjust_creative=vyhy616UjsMTA_hrWyg_5w&utm_campaign=yelp_api_v3&utm_medium=api_v3_business_search&utm_source=vyhy616UjsMTA_hrWyg_5w", "review_count": 185, "categories": [{"alias": "japanese", "title": "Japanese"}], "rating": 4.5, "coordinates": {"latitude": 42.348815, "longitude": -71.084731}, "transactions": ["delivery", "pickup"], "price": "$$", "location": {"address1": "294 Newbury St", "address2": null, "address3": "", "city": "Boston", "zip_code": "02115", "country": "US", "state": "MA", "display_address": ["294 Newbury St", "Boston, MA 02115"]}, "phone": "+18572770609", "display_phone": "(857) 277-0609", "distance": 1111.1285903926496}, {"id": "18JYAJ8q7Tx0OBvlfWMAdQ", "alias": "little-big-diner-newton", "name": "Little Big Diner", "image_url": "https://s3-media2.fl.yelpcdn.com/bphoto/ttWtanZriFJ_q8DTD5uQ-g/o.jpg", "is_closed": false, "url": "https://www.yelp.com/biz/little-big-diner-newton?adjust_creative=vyhy616UjsMTA_hrWyg_5w&utm_campaign=yelp_api_v3&utm_medium=api_v3_business_search&utm_source=vyhy616UjsMTA_hrWyg_5w", "review_count": 503, "categories": [{"alias": "asianfusion", "title": "Asian Fusion"}, {"alias": "japanese", "title": "Japanese"}, {"alias": "hawaiian", "title": "Hawaiian"}], "rating": 4.0, "coordinates": {"latitude": 42.3303609976712, "longitude": -71.194781139493}, "transactions": ["delivery"], "price": "$$", "location": {"address1": "1247 Centre St", "address2": "", "address3": "", "city": "Newton", "zip_code": "02459", "country": "US", "state": "MA", "display_address": ["1247 Centre St", "Newton, MA 02459"]}, "phone": "+18574040068", "display_phone": "(857) 404-0068", "distance": 10338.202378741893}, {"id": "UUCwFljstkhl2mXQLH_1_g", "alias": "crying-thaiger-malden-3", "name": "Crying Thaiger", "image_url": "https://s3-media1.fl.yelpcdn.com/bphoto/1N42sqkQo_N62qNtDmGtLQ/o.jpg", "is_closed": false, "url": "https://www.yelp.com/biz/crying-thaiger-malden-3?adjust_creative=vyhy616UjsMTA_hrWyg_5w&utm_campaign=yelp_api_v3&utm_medium=api_v3_business_search&utm_source=vyhy616UjsMTA_hrWyg_5w", "review_count": 300, "categories": [{"alias": "thai", "title": "Thai"}], "rating": 4.5, "coordinates": {"latitude": 42.4248607, "longitude": -71.0647464}, "transactions": ["delivery", "pickup"], "price": "$$", "location": {"address1": "114 Ferry St", "address2": "", "address3": null, "city": "Malden", "zip_code": "02148", "country": "US", "state": "MA", "display_address": ["114 Ferry St", "Malden, MA 02148"]}, "phone": "+17814801243", "display_phone": "(781) 480-1243", "distance": 8584.303310880236}, {"id": "xHRsdh_9UlVetHMtRXL4sQ", "alias": "koreana-cambridge", "name": "Koreana", "image_url": "https://s3-media1.fl.yelpcdn.com/bphoto/A8OtgFSLPUedpUDr6C4JCw/o.jpg", "is_closed": false, "url": "https://www.yelp.com/biz/koreana-cambridge?adjust_creative=vyhy616UjsMTA_hrWyg_5w&utm_campaign=yelp_api_v3&utm_medium=api_v3_business_search&utm_source=vyhy616UjsMTA_hrWyg_5w", "review_count": 745, "categories": [{"alias": "korean", "title": "Korean"}, {"alias": "japanese", "title": "Japanese"}, {"alias": "bbq", "title": "Barbeque"}], "rating": 3.5, "coordinates": {"latitude": 42.369149, "longitude": -71.101008}, "transactions": ["delivery", "pickup"], "price": "$$", "location": {"address1": "158 Prospect St", "address2": "", "address3": "", "city": "Cambridge", "zip_code": "02139", "country": "US", "state": "MA", "display_address": ["158 Prospect St", "Cambridge, MA 02139"]}, "phone": "+16175768661", "display_phone": "(617) 576-8661", "distance": 3405.0979943143266}, {"id": "AkaYjquGGgmjvmnii8eELQ", "alias": "gourmet-dumpling-house-boston-3", "name": "Gourmet Dumpling House", "image_url": "https://s3-media4.fl.yelpcdn.com/bphoto/p3QBwtS7rMG3_3HwOV1SIQ/o.jpg", "is_closed": false, "url": "https://www.yelp.com/biz/gourmet-dumpling-house-boston-3?adjust_creative=vyhy616UjsMTA_hrWyg_5w&utm_campaign=yelp_api_v3&utm_medium=api_v3_business_search&utm_source=vyhy616UjsMTA_hrWyg_5w", "review_count": 1998, "categories": [{"alias": "chinese", "title": "Chinese"}], "rating": 3.5, "coordinates": {"latitude": 42.35153, "longitude": -71.06065}, "transactions": ["delivery"], "price": "$$", "location": {"address1": "52 Beach St", "address2": "", "address3": null, "city": "Boston", "zip_code": "02111", "country": "US", "state": "MA", "display_address": ["52 Beach St", "Boston, MA 02111"]}, "phone": "+16173386223", "display_phone": "(617) 338-6223", "distance": 961.2782213814526}, {"id": "4477ntkswKJ7L3a9pQlgpA", "alias": "thai-dish-boston-3", "name": "Thai Dish", "image_url": "https://s3-media2.fl.yelpcdn.com/bphoto/kLR0QwsZpJVvVuLjDNLU2w/o.jpg", "is_closed": false, "url": "https://www.yelp.com/biz/thai-dish-boston-3?adjust_creative=vyhy616UjsMTA_hrWyg_5w&utm_campaign=yelp_api_v3&utm_medium=api_v3_business_search&utm_source=vyhy616UjsMTA_hrWyg_5w", "review_count": 118, "categories": [{"alias": "thai", "title": "Thai"}], "rating": 4.5, "coordinates": {"latitude": 42.35274, "longitude": -71.12138}, "transactions": ["delivery", "pickup"], "price": "$$", "location": {"address1": "270 Babcock St", "address2": "", "address3": "", "city": "Boston", "zip_code": "02215", "country": "US", "state": "MA", "display_address": ["270 Babcock St", "Boston, MA 02215"]}, "phone": "+16177895999", "display_phone": "(617) 789-5999", "distance": 4196.25581441534}], "total": 966, "region": {"center": {"longitude": -71.07124328613281, "latitude": 42.34784169448538}}}