{"businesses": [{"id": "ZFFQuoUajWY_gYZ4HjfIKQ", "alias": "water-song-yunnan-kitchen-baltimore-3", "name": "Water Song Yunnan Kitchen", "image_url": "https://s3-media1.fl.yelpcdn.com/bphoto/lL_yo7tRHQSVJpDmZUvJ0Q/o.jpg", "is_closed": false, "url": "https://www.yelp.com/biz/water-song-yunnan-kitchen-baltimore-3?adjust_creative=vyhy616UjsMTA_hrWyg_5w&utm_campaign=yelp_api_v3&utm_medium=api_v3_business_search&utm_source=vyhy616UjsMTA_hrWyg_5w", "review_count": 74, "categories": [{"alias": "chinese", "title": "Chinese"}, {"alias": "noodles", "title": "Noodles"}], "rating": 4.5, "coordinates": {"latitude": 39.276528, "longitude": -76.613502}, "transactions": ["delivery", "pickup"], "location": {"address1": "21 E Cross St", "address2": "", "address3": null, "city": "Baltimore", "zip_code": "21230", "country": "US", "state": "MD", "display_address": ["21 E Cross St", "Baltimore, MD 21230"]}, "phone": "+14438694580", "display_phone": "(443) 869-4580", "distance": 3664.8172088990104}, {"id": "JZlGOTvnm2a8B7eGRlZZUg", "alias": "nihao-baltimore-2", "name": "NiHao", "image_url": "https://s3-media1.fl.yelpcdn.com/bphoto/i5VmneOAKW1rleqryGE9QQ/o.jpg", "is_closed": false, "url": "https://www.yelp.com/biz/nihao-baltimore-2?adjust_creative=vyhy616UjsMTA_hrWyg_5w&utm_campaign=yelp_api_v3&utm_medium=api_v3_business_search&utm_source=vyhy616UjsMTA_hrWyg_5w", "review_count": 87, "categories": [{"alias": "chinese", "title": "Chinese"}], "rating": 4.5, "coordinates": {"latitude": 39.282945, "longitude": -76.583924}, "transactions": ["delivery"], "location": {"address1": "2322 Boston St", "address2": "", "address3": null, "city": "Baltimore", "zip_code": "21224", "country": "US", "state": "MD", "display_address": ["2322 Boston St", "Baltimore, MD 21224"]}, "phone": "+14438352036", "display_phone": "(443) 835-2036", "distance": 3640.0451267803455}, {"id": "X0LxFnup529kZ9x2QoYIkA", "alias": "charming-elephant-baltimore", "name": "Charming Elephant", "image_url": "https://s3-media4.fl.yelpcdn.com/bphoto/iamiC3ISxfcjp7SD5uJ6Uw/o.jpg", "is_closed": false, "url": "https://www.yelp.com/biz/charming-elephant-baltimore?adjust_creative=vyhy616UjsMTA_hrWyg_5w&utm_campaign=yelp_api_v3&utm_medium=api_v3_business_search&utm_source=vyhy616UjsMTA_hrWyg_5w", "review_count": 23, "categories": [{"alias": "laotian", "title": "Laotian"}], "rating": 4.5, "coordinates": {"latitude": 39.28281, "longitude": -76.583637}, "transactions": ["delivery", "pickup", "restaurant_reservation"], "location": {"address1": "2324 Boston St", "address2": "Ste B", "address3": "", "city": "Baltimore", "zip_code": "21224", "country": "US", "state": "MD", "display_address": ["2324 Boston St", "Ste B", "Baltimore, MD 21224"]}, "phone": "+14437087762", "display_phone": "(443) 708-7762", "distance": 3664.225596685618}, {"id": "9UwxKW6LJCtLMkl9F4G6xQ", "alias": "jong-kak-baltimore-3", "name": "Jong Kak", "image_url": "https://s3-media1.fl.yelpcdn.com/bphoto/SU3tZkvLaxGA-v-0SECWYw/o.jpg", "is_closed": false, "url": "https://www.yelp.com/biz/jong-kak-baltimore-3?adjust_creative=vyhy616UjsMTA_hrWyg_5w&utm_campaign=yelp_api_v3&utm_medium=api_v3_business_search&utm_source=vyhy616UjsMTA_hrWyg_5w", "review_count": 310, "categories": [{"alias": "korean", "title": "Korean"}, {"alias": "bbq", "title": "Barbeque"}], "rating": 4.0, "coordinates": {"latitude": 39.3123046, "longitude": -76.6174721}, "transactions": ["delivery", "pickup"], "price": "$$", "location": {"address1": "18 W 20th St", "address2": null, "address3": "", "city": "Baltimore", "zip_code": "21218", "country": "US", "state": "MD", "display_address": ["18 W 20th St", "Baltimore, MD 21218"]}, "phone": "+14108375231", "display_phone": "(410) 837-5231", "distance": 800.6680369739529}, {"id": "kHHXwR_0Ewfl3zm18WllEw", "alias": "mi-and-yu-noodle-bar-baltimore", "name": "Mi & Yu Noodle Bar", "image_url": "https://s3-media4.fl.yelpcdn.com/bphoto/xGrN3cozlgycYPkCXgNrcA/o.jpg", "is_closed": false, "url": "https://www.yelp.com/biz/mi-and-yu-noodle-bar-baltimore?adjust_creative=vyhy616UjsMTA_hrWyg_5w&utm_campaign=yelp_api_v3&utm_medium=api_v3_business_search&utm_source=vyhy616UjsMTA_hrWyg_5w", "review_count": 372, "categories": [{"alias": "ramen", "title": "Ramen"}, {"alias": "noodles", "title": "Noodles"}, {"alias": "beerbar", "title": "Beer Bar"}], "rating": 4.0, "coordinates": {"latitude": 39.2775395144376, "longitude": -76.614495953057}, "transactions": ["delivery", "pickup"], "price": "$$", "location": {"address1": "1016 S Charles St", "address2": "", "address3": "", "city": "Baltimore", "zip_code": "21230", "country": "US", "state": "MD", "display_address": ["1016 S Charles St", "Baltimore, MD 21230"]}, "phone": "+14433889295", "display_phone": "(443) 388-9295", "distance": 3561.1613569216447}, {"id": "EyzwOeUWwoKGeZcOcVUW0A", "alias": "ekiben-baltimore-3", "name": "Ekiben", "image_url": "https://s3-media3.fl.yelpcdn.com/bphoto/Wcriq5edNKNhvahXe7SbBQ/o.jpg", "is_closed": false, "url": "https://www.yelp.com/biz/ekiben-baltimore-3?adjust_creative=vyhy616UjsMTA_hrWyg_5w&utm_campaign=yelp_api_v3&utm_medium=api_v3_business_search&utm_source=vyhy616UjsMTA_hrWyg_5w", "review_count": 1289, "categories": [{"alias": "asianfusion", "title": "Asian Fusion"}, {"alias": "sandwiches", "title": "Sandwiches"}], "rating": 5.0, "coordinates": {"latitude": 39.2857429, "longitude": -76.594557}, "transactions": ["delivery"], "price": "$$", "location": {"address1": "1622 Eastern Ave", "address2": "", "address3": "", "city": "Baltimore", "zip_code": "21231", "country": "US", "state": "MD", "display_address": ["1622 Eastern Ave", "Baltimore, MD 21231"]}, "phone": "", "display_phone": "", "distance": 2899.3769673605893}, {"id": "wwfTFc9B_cKGE0sg-_533A", "alias": "kippo-ramen-baltimore", "name": "Kippo Ramen", "image_url": "https://s3-media4.fl.yelpcdn.com/bphoto/5xIK7HFijMrHVSItSIw3sw/o.jpg", "is_closed": false, "url": "https://www.yelp.com/biz/kippo-ramen-baltimore?adjust_creative=vyhy616UjsMTA_hrWyg_5w&utm_campaign=yelp_api_v3&utm_medium=api_v3_business_search&utm_source=vyhy616UjsMTA_hrWyg_5w", "review_count": 575, "categories": [{"alias": "ramen", "title": "Ramen"}, {"alias": "soup", "title": "Soup"}], "rating": 4.5, "coordinates": {"latitude": 39.2841531081, "longitude": -76.5935978293}, "transactions": ["delivery", "pickup"], "price": "$$", "location": {"address1": "606 S Bdwy", "address2": "", "address3": "", "city": "Baltimore", "zip_code": "21231", "country": "US", "state": "MD", "display_address": ["606 S Bdwy", "Baltimore, MD 21231"]}, "phone": "+16672124841", "display_phone": "(667) 212-4841", "distance": 3094.473885379635}, {"id": "GuHS8LsYYyns4MfxiqIN0A", "alias": "pho-bac-baltimore", "name": "Pho Bac", "image_url": "https://s3-media3.fl.yelpcdn.com/bphoto/F3yMnShiGxsbw4JcWfbZwA/o.jpg", "is_closed": false, "url": "https://www.yelp.com/biz/pho-bac-baltimore?adjust_creative=vyhy616UjsMTA_hrWyg_5w&utm_campaign=yelp_api_v3&utm_medium=api_v3_business_search&utm_source=vyhy616UjsMTA_hrWyg_5w", "review_count": 262, "categories": [{"alias": "vietnamese", "title": "Vietnamese"}], "rating": 4.5, "coordinates": {"latitude": 39.2841886, "longitude": -76.5743862328375}, "transactions": ["delivery", "pickup"], "price": "$$", "location": {"address1": "700 S Potomac St", "address2": null, "address3": null, "city": "Baltimore", "zip_code": "21224", "country": "US", "state": "MD", "display_address": ["700 S Potomac St", "Baltimore, MD 21224"]}, "phone": "+16672051589", "display_phone": "(667) 205-1589", "distance": 4084.1223642629147}, {"id": "8noXwvC2lMTODTX7X8pVDw", "alias": "kong-pocha-baltimore-2", "name": "Kong Pocha", "image_url": "https://s3-media3.fl.yelpcdn.com/bphoto/hh1U4vuwVgrj-5Px62pcbw/o.jpg", "is_closed": false, "url": "https://www.yelp.com/biz/kong-pocha-baltimore-2?adjust_creative=vyhy616UjsMTA_hrWyg_5w&utm_campaign=yelp_api_v3&utm_medium=api_v3_business_search&utm_source=vyhy616UjsMTA_hrWyg_5w", "review_count": 91, "categories": [{"alias": "korean", "title": "Korean"}, {"alias": "bbq", "title": "Barbeque"}, {"alias": "asianfusion", "title": "Asian Fusion"}], "rating": 4.5, "coordinates": {"latitude": 39.31242, "longitude": -76.61722}, "transactions": ["delivery", "pickup"], "location": {"address1": "12 W 20th St", "address2": null, "address3": "", "city": "Baltimore", "zip_code": "21218", "country": "US", "state": "MD", "display_address": ["12 W 20th St", "Baltimore, MD 21218"]}, "phone": "+14108018963", "display_phone": "(410) 801-8963", "distance": 782.3894401546171}, {"id": "L9pJFzvZXQTn8WeGE3Vw1g", "alias": "my-thai-baltimore-baltimore-4", "name": "My Thai Baltimore", "image_url": "https://s3-media3.fl.yelpcdn.com/bphoto/fCvznXSDGZ-Q06cxJma2vQ/o.jpg", "is_closed": false, "url": "https://www.yelp.com/biz/my-thai-baltimore-baltimore-4?adjust_creative=vyhy616UjsMTA_hrWyg_5w&utm_campaign=yelp_api_v3&utm_medium=api_v3_business_search&utm_source=vyhy616UjsMTA_hrWyg_5w", "review_count": 301, "categories": [{"alias": "thai", "title": "Thai"}], "rating": 4.0, "coordinates": {"latitude": 39.2866436, "longitude": -76.598757}, "transactions": ["delivery", "pickup"], "price": "$$", "location": {"address1": "1300 Bank St", "address2": "", "address3": "", "city": "Baltimore", "zip_code": "21231", "country": "US", "state": "MD", "display_address": ["1300 Bank St", "Baltimore, MD 21231"]}, "phone": "+14103270023", "display_phone": "(410) 327-0023", "distance": 2668.681856086788}, {"id": "X19jig0ubkRVdHdOup5onQ", "alias": "ramen-utsuke-baltimore-2", "name": "Ramen Utsuke", "image_url": "https://s3-media2.fl.yelpcdn.com/bphoto/xmklrb__YHaNXwT0uKOZcg/o.jpg", "is_closed": false, "url": "https://www.yelp.com/biz/ramen-utsuke-baltimore-2?adjust_creative=vyhy616UjsMTA_hrWyg_5w&utm_campaign=yelp_api_v3&utm_medium=api_v3_business_search&utm_source=vyhy616UjsMTA_hrWyg_5w", "review_count": 231, "categories": [{"alias": "ramen", "title": "Ramen"}], "rating": 4.5, "coordinates": {"latitude": 39.28383, "longitude": -76.61398}, "transactions": ["delivery", "pickup"], "price": "$$", "location": {"address1": "414 Light St", "address2": "Ste 103", "address3": null, "city": "Baltimore", "zip_code": "21202", "country": "US", "state": "MD", "display_address": ["414 Light St", "Ste 103", "Baltimore, MD 21202"]}, "phone": "+14435632977", "display_phone": "(443) 563-2977", "distance": 2865.1437280027026}, {"id": "QUJMPZ791jmep_DRvl5I3g", "alias": "akira-ramen-and-izakaya-baltimore-2", "name": "Akira Ramen & Izakaya", "image_url": "https://s3-media2.fl.yelpcdn.com/bphoto/K31ZdFpe9QUq6xw0H5MWyg/o.jpg", "is_closed": false, "url": "https://www.yelp.com/biz/akira-ramen-and-izakaya-baltimore-2?adjust_creative=vyhy616UjsMTA_hrWyg_5w&utm_campaign=yelp_api_v3&utm_medium=api_v3_business_search&utm_source=vyhy616UjsMTA_hrWyg_5w", "review_count": 119, "categories": [{"alias": "ramen", "title": "Ramen"}], "rating": 4.0, "coordinates": {"latitude": 39.27701, "longitude": -76.56507}, "transactions": ["delivery", "pickup"], "price": "$$", "location": {"address1": "3731 Boston St", "address2": null, "address3": "", "city": "Baltimore", "zip_code": "21224", "country": "US", "state": "MD", "display_address": ["3731 Boston St", "Baltimore, MD 21224"]}, "phone": "+14434384722", "display_phone": "(443) 438-4722", "distance": 5273.753560849846}, {"id": "ynbOCrd_UK6IyDgEamb4gw", "alias": "shoyou-sushi-baltimore", "name": "Shoyou Sushi", "image_url": "https://s3-media1.fl.yelpcdn.com/bphoto/PoFQHhHesKnlZqU5iAfGUw/o.jpg", "is_closed": false, "url": "https://www.yelp.com/biz/shoyou-sushi-baltimore?adjust_creative=vyhy616UjsMTA_hrWyg_5w&utm_campaign=yelp_api_v3&utm_medium=api_v3_business_search&utm_source=vyhy616UjsMTA_hrWyg_5w", "review_count": 546, "categories": [{"alias": "sushi", "title": "Sushi Bars"}, {"alias": "japanese", "title": "Japanese"}], "rating": 4.5, "coordinates": {"latitude": 39.2728666047061, "longitude": -76.6119887125992}, "transactions": ["delivery"], "price": "$$", "location": {"address1": "1450 Light St", "address2": "", "address3": "", "city": "Baltimore", "zip_code": "21230", "country": "US", "state": "MD", "display_address": ["1450 Light St", "Baltimore, MD 21230"]}, "phone": "+14106852989", "display_phone": "(410) 685-2989", "distance": 4057.61664509091}, {"id": "fd4IlclVNXRIfFVULLMf4Q", "alias": "thai-arroy-baltimore", "name": "Thai Arroy", "image_url": "https://s3-media3.fl.yelpcdn.com/bphoto/RLeGobQC7sqz8g_xwuFCHQ/o.jpg", "is_closed": false, "url": "https://www.yelp.com/biz/thai-arroy-baltimore?adjust_creative=vyhy616UjsMTA_hrWyg_5w&utm_campaign=yelp_api_v3&utm_medium=api_v3_business_search&utm_source=vyhy616UjsMTA_hrWyg_5w", "review_count": 399, "categories": [{"alias": "thai", "title": "Thai"}], "rating": 4.0, "coordinates": {"latitude": 39.2778501, "longitude": -76.6123021}, "transactions": ["delivery", "pickup"], "price": "$$", "location": {"address1": "1019 Light St", "address2": "", "address3": "", "city": "Baltimore", "zip_code": "21230", "country": "US", "state": "MD", "display_address": ["1019 Light St", "Baltimore, MD 21230"]}, "phone": "+14103858587", "display_phone": "(410) 385-8587", "distance": 3507.4825092432834}, {"id": "3Szif3O7-yN90I_SEkxWNw", "alias": "red-pepper-sichuan-bistro-towson", "name": "Red Pepper Sichuan Bistro", "image_url": "https://s3-media2.fl.yelpcdn.com/bphoto/0Lzq6kLxa0DAbO1hzFV8Vg/o.jpg", "is_closed": false, "url": "https://www.yelp.com/biz/red-pepper-sichuan-bistro-towson?adjust_creative=vyhy616UjsMTA_hrWyg_5w&utm_campaign=yelp_api_v3&utm_medium=api_v3_business_search&utm_source=vyhy616UjsMTA_hrWyg_5w", "review_count": 114, "categories": [{"alias": "szechuan", "title": "Szechuan"}], "rating": 4.5, "coordinates": {"latitude": 39.40145, "longitude": -76.6032}, "transactions": ["delivery", "pickup"], "price": "$$", "location": {"address1": "11 Allegheny Ave", "address2": null, "address3": "", "city": "Towson", "zip_code": "21204", "country": "US", "state": "MD", "display_address": ["11 Allegheny Ave", "Towson, MD 21204"]}, "phone": "+14108327333", "display_phone": "(410) 832-7333", "distance": 10260.957618018312}, {"id": "m4z8d3ZA6uv5DHAl3vdH7Q", "alias": "naked-grill-sushi-and-yakitori-baltimore", "name": "Naked Grill Sushi & Yakitori", "image_url": "https://s3-media4.fl.yelpcdn.com/bphoto/vDpDTCo7m5bY7GrwZAqysQ/o.jpg", "is_closed": false, "url": "https://www.yelp.com/biz/naked-grill-sushi-and-yakitori-baltimore?adjust_creative=vyhy616UjsMTA_hrWyg_5w&utm_campaign=yelp_api_v3&utm_medium=api_v3_business_search&utm_source=vyhy616UjsMTA_hrWyg_5w", "review_count": 29, "categories": [{"alias": "sushi", "title": "Sushi Bars"}], "rating": 4.5, "coordinates": {"latitude": 39.2782275, "longitude": -76.57795217}, "transactions": ["delivery", "pickup"], "location": {"address1": "2748 Lighthouse Point E", "address2": null, "address3": "", "city": "Baltimore", "zip_code": "21224", "country": "US", "state": "MD", "display_address": ["2748 Lighthouse Point E", "Baltimore, MD 21224"]}, "phone": "+14105348888", "display_phone": "(410) 534-8888", "distance": 4353.338552089456}, {"id": "5rYJkTY_V5y5IGepcDmW_w", "alias": "bambao-baltimore", "name": "Bambao", "image_url": "https://s3-media4.fl.yelpcdn.com/bphoto/m7bhGjM4Gz_rfHjlXllyAQ/o.jpg", "is_closed": false, "url": "https://www.yelp.com/biz/bambao-baltimore?adjust_creative=vyhy616UjsMTA_hrWyg_5w&utm_campaign=yelp_api_v3&utm_medium=api_v3_business_search&utm_source=vyhy616UjsMTA_hrWyg_5w", "review_count": 86, "categories": [{"alias": "asianfusion", "title": "Asian Fusion"}, {"alias": "bubbletea", "title": "Bubble Tea"}, {"alias": "chinese", "title": "Chinese"}], "rating": 4.0, "coordinates": {"latitude": 39.28348, "longitude": -76.599289}, "transactions": ["delivery", "pickup"], "price": "$$", "location": {"address1": "1010 Aliceanna St", "address2": "", "address3": null, "city": "Baltimore", "zip_code": "21202", "country": "US", "state": "MD", "display_address": ["1010 Aliceanna St", "Baltimore, MD 21202"]}, "phone": "+14434383528", "display_phone": "(443) 438-3528", "distance": 2989.663641579894}, {"id": "VhC1yXf0GKGexOMtFlRmRg", "alias": "thai-street-baltimore", "name": "Thai Street", "image_url": "https://s3-media2.fl.yelpcdn.com/bphoto/YDioRzVJVHXC1YmbJXjRBA/o.jpg", "is_closed": false, "url": "https://www.yelp.com/biz/thai-street-baltimore?adjust_creative=vyhy616UjsMTA_hrWyg_5w&utm_campaign=yelp_api_v3&utm_medium=api_v3_business_search&utm_source=vyhy616UjsMTA_hrWyg_5w", "review_count": 129, "categories": [{"alias": "thai", "title": "Thai"}], "rating": 4.5, "coordinates": {"latitude": 39.284, "longitude": -76.59337}, "transactions": ["delivery"], "price": "$$", "location": {"address1": "1640 Aliceanna St", "address2": "#11", "address3": "", "city": "Baltimore", "zip_code": "21231", "country": "US", "state": "MD", "display_address": ["1640 Aliceanna St", "#11", "Baltimore, MD 21231"]}, "phone": "+16672125906", "display_phone": "(667) 212-5906", "distance": 3086.9141791068837}, {"id": "cg13fezwJfj0IANw9vNpJw", "alias": "mekong-delta-cafe-baltimore-3", "name": "Mekong Delta Cafe", "image_url": "https://s3-media3.fl.yelpcdn.com/bphoto/9AzYlnDWuqroFxVnD68akQ/o.jpg", "is_closed": false, "url": "https://www.yelp.com/biz/mekong-delta-cafe-baltimore-3?adjust_creative=vyhy616UjsMTA_hrWyg_5w&utm_campaign=yelp_api_v3&utm_medium=api_v3_business_search&utm_source=vyhy616UjsMTA_hrWyg_5w", "review_count": 205, "categories": [{"alias": "vietnamese", "title": "Vietnamese"}], "rating": 4.0, "coordinates": {"latitude": 39.2918512617792, "longitude": -76.6158219994986}, "transactions": ["delivery"], "price": "$", "location": {"address1": "222 N Charles St", "address2": "", "address3": "", "city": "Baltimore", "zip_code": "21201", "country": "US", "state": "MD", "display_address": ["222 N Charles St", "Baltimore, MD 21201"]}, "phone": "+14439551100", "display_phone": "(443) 955-1100", "distance": 2024.6183492135217}, {"id": "hf462K6DsmrRGh7m7zowAw", "alias": "the-local-fry-baltimore-6", "name": "The Local Fry", "image_url": "https://s3-media2.fl.yelpcdn.com/bphoto/utAX0Vl3GVryYqjDUnDPcA/o.jpg", "is_closed": false, "url": "https://www.yelp.com/biz/the-local-fry-baltimore-6?adjust_creative=vyhy616UjsMTA_hrWyg_5w&utm_campaign=yelp_api_v3&utm_medium=api_v3_business_search&utm_source=vyhy616UjsMTA_hrWyg_5w", "review_count": 425, "categories": [{"alias": "tradamerican", "title": "American (Traditional)"}, {"alias": "chicken_wings", "title": "Chicken Wings"}, {"alias": "korean", "title": "Korean"}], "rating": 4.5, "coordinates": {"latitude": 39.336042, "longitude": -76.629814}, "transactions": ["delivery"], "price": "$$", "location": {"address1": "711 W 40th St", "address2": "Ste 152", "address3": "", "city": "Baltimore", "zip_code": "21211", "country": "US", "state": "MD", "display_address": ["711 W 40th St", "Ste 152", "Baltimore, MD 21211"]}, "phone": "+16672102633", "display_phone": "(667) 210-2633", "distance": 3470.547201178081}, {"id": "rtJyAgZTFkPigOSXdvD-HA", "alias": "mama-rosa-grill-baltimore-baltimore", "name": "Mama Rosa Grill - Baltimore", "image_url": "https://s3-media1.fl.yelpcdn.com/bphoto/7V1L4EXwdc7VA2vu2_BXDw/o.jpg", "is_closed": false, "url": "https://www.yelp.com/biz/mama-rosa-grill-baltimore-baltimore?adjust_creative=vyhy616UjsMTA_hrWyg_5w&utm_campaign=yelp_api_v3&utm_medium=api_v3_business_search&utm_source=vyhy616UjsMTA_hrWyg_5w", "review_count": 32, "categories": [{"alias": "filipino", "title": "Filipino"}], "rating": 4.0, "coordinates": {"latitude": 39.250009, "longitude": -76.6392977}, "transactions": ["delivery", "pickup"], "price": "$$", "location": {"address1": "3321 Annapolis Rd", "address2": null, "address3": "", "city": "Baltimore", "zip_code": "21230", "country": "US", "state": "MD", "display_address": ["3321 Annapolis Rd", "Baltimore, MD 21230"]}, "phone": "+14104699600", "display_phone": "(410) 469-9600", "distance": 7144.171065633715}, {"id": "VTfawN586c5Lk3-UOIgmDQ", "alias": "winli-asian-restaurant-parkville", "name": "Winli Asian Restaurant", "image_url": "https://s3-media2.fl.yelpcdn.com/bphoto/OSj9-HGKA9oWPt4k3usarQ/o.jpg", "is_closed": false, "url": "https://www.yelp.com/biz/winli-asian-restaurant-parkville?adjust_creative=vyhy616UjsMTA_hrWyg_5w&utm_campaign=yelp_api_v3&utm_medium=api_v3_business_search&utm_source=vyhy616UjsMTA_hrWyg_5w", "review_count": 55, "categories": [{"alias": "asianfusion", "title": "Asian Fusion"}, {"alias": "thai", "title": "Thai"}, {"alias": "chinese", "title": "Chinese"}], "rating": 5.0, "coordinates": {"latitude": 39.38913, "longitude": -76.54284}, "transactions": ["delivery", "pickup"], "price": "$$", "location": {"address1": "2519 Putty Hill Ave", "address2": null, "address3": "", "city": "Parkville", "zip_code": "21234", "country": "US", "state": "MD", "display_address": ["2519 Putty Hill Ave", "Parkville, MD 21234"]}, "phone": "+14108821388", "display_phone": "(410) 882-1388", "distance": 10541.24056050453}, {"id": "fQank0bQQ83eg4zxn_PVag", "alias": "brown-rice-korean-grill-baltimore", "name": "Brown Rice Korean Grill", "image_url": "https://s3-media3.fl.yelpcdn.com/bphoto/dVDuKGs3lo6x0iFoczsZPQ/o.jpg", "is_closed": false, "url": "https://www.yelp.com/biz/brown-rice-korean-grill-baltimore?adjust_creative=vyhy616UjsMTA_hrWyg_5w&utm_campaign=yelp_api_v3&utm_medium=api_v3_business_search&utm_source=vyhy616UjsMTA_hrWyg_5w", "review_count": 240, "categories": [{"alias": "korean", "title": "Korean"}], "rating": 4.5, "coordinates": {"latitude": 39.316543, "longitude": -76.617202}, "transactions": ["delivery", "pickup"], "price": "$", "location": {"address1": "2404 N Charles St", "address2": "", "address3": "", "city": "Baltimore", "zip_code": "21218", "country": "US", "state": "MD", "display_address": ["2404 N Charles St", "Baltimore, MD 21218"]}, "phone": "+16673033256", "display_phone": "(667) 303-3256", "distance": 1069.6197410934851}, {"id": "17_ORcuaA7X85eBvIAWcNQ", "alias": "be-one-korean-bbq-baltimore", "name": "Be-One Korean BBQ", "image_url": "https://s3-media2.fl.yelpcdn.com/bphoto/qrTM0g4VTVofBtGxsj1L4Q/o.jpg", "is_closed": false, "url": "https://www.yelp.com/biz/be-one-korean-bbq-baltimore?adjust_creative=vyhy616UjsMTA_hrWyg_5w&utm_campaign=yelp_api_v3&utm_medium=api_v3_business_search&utm_source=vyhy616UjsMTA_hrWyg_5w", "review_count": 142, "categories": [{"alias": "korean", "title": "Korean"}, {"alias": "bbq", "title": "Barbeque"}], "rating": 4.0, "coordinates": {"latitude": 39.3124151, "longitude": -76.618154}, "transactions": ["delivery", "pickup"], "price": "$$", "location": {"address1": "2016 Maryland Ave", "address2": "", "address3": "", "city": "Baltimore", "zip_code": "21218", "country": "US", "state": "MD", "display_address": ["2016 Maryland Ave", "Baltimore, MD 21218"]}, "phone": "+14102445600", "display_phone": "(410) 244-5600", "distance": 922.1883201323834}, {"id": "Xayjp8lOBLcnOKk6AUZrxA", "alias": "doobys-baltimore", "name": "Dooby's", "image_url": "https://s3-media3.fl.yelpcdn.com/bphoto/LKZXvhHhkAHnLHjVqTvc_g/o.jpg", "is_closed": false, "url": "https://www.yelp.com/biz/doobys-baltimore?adjust_creative=vyhy616UjsMTA_hrWyg_5w&utm_campaign=yelp_api_v3&utm_medium=api_v3_business_search&utm_source=vyhy616UjsMTA_hrWyg_5w", "review_count": 618, "categories": [{"alias": "coffee", "title": "Coffee & Tea"}, {"alias": "cafes", "title": "Cafes"}, {"alias": "asianfusion", "title": "Asian Fusion"}], "rating": 4.0, "coordinates": {"latitude": 39.2987920067243, "longitude": -76.6158836451553}, "transactions": ["delivery", "pickup"], "price": "$$", "location": {"address1": "802 N Charles St", "address2": null, "address3": "", "city": "Baltimore", "zip_code": "21201", "country": "US", "state": "MD", "display_address": ["802 N Charles St", "Baltimore, MD 21201"]}, "phone": "+14106093162", "display_phone": "(410) 609-3162", "distance": 1307.0808113669723}, {"id": "7lVzZWZLlPxnxQtU8eGvpg", "alias": "thai-mekong-baltimore", "name": "Thai Mekong", "image_url": "https://s3-media2.fl.yelpcdn.com/bphoto/G11KjcjSKlqk-H7xXOENhQ/o.jpg", "is_closed": false, "url": "https://www.yelp.com/biz/thai-mekong-baltimore?adjust_creative=vyhy616UjsMTA_hrWyg_5w&utm_campaign=yelp_api_v3&utm_medium=api_v3_business_search&utm_source=vyhy616UjsMTA_hrWyg_5w", "review_count": 54, "categories": [{"alias": "thai", "title": "Thai"}], "rating": 4.0, "coordinates": {"latitude": 39.2939058104387, "longitude": -76.6157508641481}, "transactions": ["delivery", "pickup"], "location": {"address1": "340 N Charles St", "address2": "", "address3": null, "city": "Baltimore", "zip_code": "21201", "country": "US", "state": "MD", "display_address": ["340 N Charles St", "Baltimore, MD 21201"]}, "phone": "+14107277971", "display_phone": "(410) 727-7971", "distance": 1805.0910592816454}, {"id": "Erzc9mS35xdDtoYNv3Gkmw", "alias": "azumi-baltimore", "name": "Azumi", "image_url": "https://s3-media4.fl.yelpcdn.com/bphoto/Wxp2ebK5ypJVV7eTHrB6RQ/o.jpg", "is_closed": false, "url": "https://www.yelp.com/biz/azumi-baltimore?adjust_creative=vyhy616UjsMTA_hrWyg_5w&utm_campaign=yelp_api_v3&utm_medium=api_v3_business_search&utm_source=vyhy616UjsMTA_hrWyg_5w", "review_count": 435, "categories": [{"alias": "sushi", "title": "Sushi Bars"}, {"alias": "teppanyaki", "title": "Teppanyaki"}], "rating": 4.0, "coordinates": {"latitude": 39.282787197393, "longitude": -76.6028602654079}, "transactions": ["delivery"], "price": "$$$", "location": {"address1": "725 Aliceanna St", "address2": null, "address3": "", "city": "Baltimore", "zip_code": "21202", "country": "US", "state": "MD", "display_address": ["725 Aliceanna St", "Baltimore, MD 21202"]}, "phone": "+14432200477", "display_phone": "(443) 220-0477", "distance": 2994.142886177001}, {"id": "x_LG8IhwHdmHae2jKm3biQ", "alias": "matsuri-japanese-restaurant-baltimore-2", "name": "Matsuri Japanese Restaurant", "image_url": "https://s3-media3.fl.yelpcdn.com/bphoto/eSGoxSdOPHPKua2Z5kXw4Q/o.jpg", "is_closed": false, "url": "https://www.yelp.com/biz/matsuri-japanese-restaurant-baltimore-2?adjust_creative=vyhy616UjsMTA_hrWyg_5w&utm_campaign=yelp_api_v3&utm_medium=api_v3_business_search&utm_source=vyhy616UjsMTA_hrWyg_5w", "review_count": 213, "categories": [{"alias": "japanese", "title": "Japanese"}, {"alias": "sushi", "title": "Sushi Bars"}], "rating": 4.0, "coordinates": {"latitude": 39.2765045166016, "longitude": -76.6141357421875}, "transactions": ["delivery", "pickup"], "price": "$$", "location": {"address1": "1105 S Charles St", "address2": "", "address3": "", "city": "Baltimore", "zip_code": "21230", "country": "US", "state": "MD", "display_address": ["1105 S Charles St", "Baltimore, MD 21230"]}, "phone": "+14107528561", "display_phone": "(410) 752-8561", "distance": 3670.73205062488}, {"id": "qp7RYiO0I2igRZWLoSMF2A", "alias": "the-red-boat-asian-fusion-baltimore-2", "name": "The Red Boat Asian Fusion", "image_url": "https://s3-media2.fl.yelpcdn.com/bphoto/As8ZFx6JZNTMwyM3W_mOtg/o.jpg", "is_closed": false, "url": "https://www.yelp.com/biz/the-red-boat-asian-fusion-baltimore-2?adjust_creative=vyhy616UjsMTA_hrWyg_5w&utm_campaign=yelp_api_v3&utm_medium=api_v3_business_search&utm_source=vyhy616UjsMTA_hrWyg_5w", "review_count": 154, "categories": [{"alias": "vietnamese", "title": "Vietnamese"}], "rating": 4.0, "coordinates": {"latitude": 39.2894694, "longitude": -76.6207578}, "transactions": ["delivery", "pickup"], "price": "$", "location": {"address1": "3 N Eutaw St", "address2": null, "address3": "", "city": "Baltimore", "zip_code": "21201", "country": "US", "state": "MD", "display_address": ["3 N Eutaw St", "Baltimore, MD 21201"]}, "phone": "+14438859162", "display_phone": "(443) 885-9162", "distance": 2396.210053653609}, {"id": "nzQw7cSUCBs3Y486R8wMKA", "alias": "nanami-cafe-baltimore-4", "name": "Nanami Cafe", "image_url": "https://s3-media4.fl.yelpcdn.com/bphoto/jwhDY36hF490v6tv091IVQ/o.jpg", "is_closed": false, "url": "https://www.yelp.com/biz/nanami-cafe-baltimore-4?adjust_creative=vyhy616UjsMTA_hrWyg_5w&utm_campaign=yelp_api_v3&utm_medium=api_v3_business_search&utm_source=vyhy616UjsMTA_hrWyg_5w", "review_count": 251, "categories": [{"alias": "sushi", "title": "Sushi Bars"}, {"alias": "japanese", "title": "Japanese"}], "rating": 4.0, "coordinates": {"latitude": 39.281297, "longitude": -76.590942}, "transactions": ["delivery", "pickup"], "price": "$$", "location": {"address1": "907 S Ann St", "address2": "", "address3": "", "city": "Baltimore", "zip_code": "21231", "country": "US", "state": "MD", "display_address": ["907 S Ann St", "Baltimore, MD 21231"]}, "phone": "+14103279400", "display_phone": "(410) 327-9400", "distance": 3480.1411479971184}, {"id": "TFTpMx-oPw19w3UaEWiD-g", "alias": "be-more-thai-restaurant-baltimore", "name": "Be More Thai Restaurant", "image_url": "https://s3-media2.fl.yelpcdn.com/bphoto/SPQo7ezzziQyWIb3PPM-TQ/o.jpg", "is_closed": false, "url": "https://www.yelp.com/biz/be-more-thai-restaurant-baltimore?adjust_creative=vyhy616UjsMTA_hrWyg_5w&utm_campaign=yelp_api_v3&utm_medium=api_v3_business_search&utm_source=vyhy616UjsMTA_hrWyg_5w", "review_count": 12, "categories": [{"alias": "thai", "title": "Thai"}, {"alias": "noodles", "title": "Noodles"}, {"alias": "desserts", "title": "Desserts"}], "rating": 5.0, "coordinates": {"latitude": 39.2781233929, "longitude": -76.6126726262}, "transactions": ["delivery", "pickup", "restaurant_reservation"], "location": {"address1": "1006 Light St", "address2": "", "address3": "", "city": "Baltimore", "zip_code": "21230", "country": "US", "state": "MD", "display_address": ["1006 Light St", "Baltimore, MD 21230"]}, "phone": "+14434384805", "display_phone": "(443) 438-4805", "distance": 3479.220081703541}, {"id": "WbUjyJmQGCPipqNvj7GbDA", "alias": "thai-restaurant-baltimore", "name": "Thai Restaurant", "image_url": "https://s3-media2.fl.yelpcdn.com/bphoto/-lXVZcWiRUCwuH5Jwkbi0Q/o.jpg", "is_closed": false, "url": "https://www.yelp.com/biz/thai-restaurant-baltimore?adjust_creative=vyhy616UjsMTA_hrWyg_5w&utm_campaign=yelp_api_v3&utm_medium=api_v3_business_search&utm_source=vyhy616UjsMTA_hrWyg_5w", "review_count": 152, "categories": [{"alias": "thai", "title": "Thai"}], "rating": 4.0, "coordinates": {"latitude": 39.3289452, "longitude": -76.6095734}, "transactions": ["delivery"], "price": "$$", "location": {"address1": "3316 Greenmount Ave", "address2": "", "address3": "", "city": "Baltimore", "zip_code": "21218", "country": "US", "state": "MD", "display_address": ["3316 Greenmount Ave", "Baltimore, MD 21218"]}, "phone": "+14108896003", "display_phone": "(410) 889-6003", "distance": 2193.9165102468237}, {"id": "agf95R52ibcUTde8FjsZAg", "alias": "chopstix-gourmet-rosedale-2", "name": "Chopstix Gourmet", "image_url": "https://s3-media2.fl.yelpcdn.com/bphoto/bW2Dwrb3aryo5fpa1kDRZQ/o.jpg", "is_closed": false, "url": "https://www.yelp.com/biz/chopstix-gourmet-rosedale-2?adjust_creative=vyhy616UjsMTA_hrWyg_5w&utm_campaign=yelp_api_v3&utm_medium=api_v3_business_search&utm_source=vyhy616UjsMTA_hrWyg_5w", "review_count": 271, "categories": [{"alias": "sushi", "title": "Sushi Bars"}, {"alias": "dimsum", "title": "Dim Sum"}, {"alias": "seafood", "title": "Seafood"}], "rating": 4.0, "coordinates": {"latitude": 39.311612418845, "longitude": -76.5224506720849}, "transactions": ["delivery", "pickup"], "price": "$$", "location": {"address1": "1201 67th St", "address2": "", "address3": "", "city": "Rosedale", "zip_code": "21237", "country": "US", "state": "MD", "display_address": ["1201 67th St", "Rosedale, MD 21237"]}, "phone": "+14108662903", "display_phone": "(410) 866-2903", "distance": 7454.0697796768945}, {"id": "NPztC7E-HNw1pIEyy5Mo7Q", "alias": "indochine-baltimore-5", "name": "Indochine", "image_url": "https://s3-media3.fl.yelpcdn.com/bphoto/TjWy5mtYi5NPyijAAYTG8Q/o.jpg", "is_closed": false, "url": "https://www.yelp.com/biz/indochine-baltimore-5?adjust_creative=vyhy616UjsMTA_hrWyg_5w&utm_campaign=yelp_api_v3&utm_medium=api_v3_business_search&utm_source=vyhy616UjsMTA_hrWyg_5w", "review_count": 191, "categories": [{"alias": "vietnamese", "title": "Vietnamese"}, {"alias": "asianfusion", "title": "Asian Fusion"}], "rating": 3.5, "coordinates": {"latitude": 39.301633, "longitude": -76.615518}, "transactions": ["delivery", "pickup"], "price": "$$", "location": {"address1": "1015 N Charles St", "address2": "", "address3": "", "city": "Baltimore", "zip_code": "21201", "country": "US", "state": "MD", "display_address": ["1015 N Charles St", "Baltimore, MD 21201"]}, "phone": "+14105394636", "display_phone": "(410) 539-4636", "distance": 1017.3110510541911}, {"id": "1i7J-ChCAtY-71H9fDDKgg", "alias": "ja-kum-sung-glen-burnie", "name": "Ja Kum Sung", "image_url": "https://s3-media1.fl.yelpcdn.com/bphoto/PsWvje8076KUs148mqlY7Q/o.jpg", "is_closed": false, "url": "https://www.yelp.com/biz/ja-kum-sung-glen-burnie?adjust_creative=vyhy616UjsMTA_hrWyg_5w&utm_campaign=yelp_api_v3&utm_medium=api_v3_business_search&utm_source=vyhy616UjsMTA_hrWyg_5w", "review_count": 237, "categories": [{"alias": "korean", "title": "Korean"}, {"alias": "chinese", "title": "Chinese"}], "rating": 4.5, "coordinates": {"latitude": 39.1605684234704, "longitude": -76.6204474121332}, "transactions": ["pickup"], "price": "$$", "location": {"address1": "7523 Ritchie Hwy", "address2": "", "address3": "", "city": "Glen Burnie", "zip_code": "21061", "country": "US", "state": "MD", "display_address": ["7523 Ritchie Hwy", "Glen Burnie, MD 21061"]}, "phone": "+14107665208", "display_phone": "(410) 766-5208", "distance": 16565.80812914766}, {"id": "JWq_HpbFkPZsHgIGUpxPPQ", "alias": "mizu-sushi-baltimore-4", "name": "Mizu Sushi", "image_url": "https://s3-media3.fl.yelpcdn.com/bphoto/ZcNdbbZd5vKegab7WFA04A/o.jpg", "is_closed": false, "url": "https://www.yelp.com/biz/mizu-sushi-baltimore-4?adjust_creative=vyhy616UjsMTA_hrWyg_5w&utm_campaign=yelp_api_v3&utm_medium=api_v3_business_search&utm_source=vyhy616UjsMTA_hrWyg_5w", "review_count": 129, "categories": [{"alias": "japanese", "title": "Japanese"}, {"alias": "sushi", "title": "Sushi Bars"}], "rating": 4.0, "coordinates": {"latitude": 39.28508, "longitude": -76.58501}, "transactions": ["delivery", "pickup"], "price": "$$", "location": {"address1": "2224 Fleet St", "address2": "", "address3": "", "city": "Baltimore", "zip_code": "21231", "country": "US", "state": "MD", "display_address": ["2224 Fleet St", "Baltimore, MD 21231"]}, "phone": "+14105220888", "display_phone": "(410) 522-0888", "distance": 3393.7176373908396}, {"id": "EjhbOkB7s0gvH4_EEU9nmg", "alias": "foobao-catonsville", "name": "Foobao", "image_url": "https://s3-media2.fl.yelpcdn.com/bphoto/aCbokka6wyHCfE_Gou2POw/o.jpg", "is_closed": false, "url": "https://www.yelp.com/biz/foobao-catonsville?adjust_creative=vyhy616UjsMTA_hrWyg_5w&utm_campaign=yelp_api_v3&utm_medium=api_v3_business_search&utm_source=vyhy616UjsMTA_hrWyg_5w", "review_count": 40, "categories": [{"alias": "chinese", "title": "Chinese"}, {"alias": "coffee", "title": "Coffee & Tea"}, {"alias": "breakfast_brunch", "title": "Breakfast & Brunch"}], "rating": 4.0, "coordinates": {"latitude": 39.287613, "longitude": -76.76483}, "transactions": ["delivery", "pickup"], "price": "$", "location": {"address1": "6600 Baltimore National Pike", "address2": "", "address3": null, "city": "Catonsville", "zip_code": "21228", "country": "US", "state": "MD", "display_address": ["6600 Baltimore National Pike", "Catonsville, MD 21228"]}, "phone": "+14433693333", "display_phone": "(443) 369-3333", "distance": 13573.656609972853}, {"id": "Mt8KF8_1T27QAY3ol1S2cg", "alias": "wow-food-cafe-baltimore-9", "name": "WOW Food Cafe", "image_url": "https://s3-media2.fl.yelpcdn.com/bphoto/O8J8BF4mR8a95j4y77K71A/o.jpg", "is_closed": false, "url": "https://www.yelp.com/biz/wow-food-cafe-baltimore-9?adjust_creative=vyhy616UjsMTA_hrWyg_5w&utm_campaign=yelp_api_v3&utm_medium=api_v3_business_search&utm_source=vyhy616UjsMTA_hrWyg_5w", "review_count": 177, "categories": [{"alias": "bubbletea", "title": "Bubble Tea"}, {"alias": "chinese", "title": "Chinese"}, {"alias": "coffee", "title": "Coffee & Tea"}], "rating": 4.5, "coordinates": {"latitude": 39.292012, "longitude": -76.616007}, "transactions": ["delivery"], "price": "$$", "location": {"address1": "222 N Charles St", "address2": "", "address3": "", "city": "Baltimore", "zip_code": "21201", "country": "US", "state": "MD", "display_address": ["222 N Charles St", "Baltimore, MD 21201"]}, "phone": "+16672130043", "display_phone": "(667) 213-0043", "distance": 2012.1957279863468}, {"id": "bukhngCAdZIkSyi2zwsfFA", "alias": "gallery-grill-and-poke-house-baltimore-3", "name": "Gallery Grill & Poke House", "image_url": "https://s3-media3.fl.yelpcdn.com/bphoto/ApIuiVNpGE_x9zC91urz0w/o.jpg", "is_closed": false, "url": "https://www.yelp.com/biz/gallery-grill-and-poke-house-baltimore-3?adjust_creative=vyhy616UjsMTA_hrWyg_5w&utm_campaign=yelp_api_v3&utm_medium=api_v3_business_search&utm_source=vyhy616UjsMTA_hrWyg_5w", "review_count": 63, "categories": [{"alias": "poke", "title": "Poke"}, {"alias": "asianfusion", "title": "Asian Fusion"}], "rating": 4.5, "coordinates": {"latitude": 39.29619, "longitude": -76.61637}, "transactions": ["delivery", "pickup"], "price": "$", "location": {"address1": "13 W Centre St", "address2": "", "address3": "", "city": "Baltimore", "zip_code": "21201", "country": "US", "state": "MD", "display_address": ["13 W Centre St", "Baltimore, MD 21201"]}, "phone": "+14105394026", "display_phone": "(410) 539-4026", "distance": 1586.840071685274}, {"id": "-s_-JZLfrkvXTMglGYb1hw", "alias": "pho-saigon-catonsville-3", "name": "Pho Saigon", "image_url": "https://s3-media2.fl.yelpcdn.com/bphoto/SSMLq3MKxWl9XFzTXFj43w/o.jpg", "is_closed": false, "url": "https://www.yelp.com/biz/pho-saigon-catonsville-3?adjust_creative=vyhy616UjsMTA_hrWyg_5w&utm_campaign=yelp_api_v3&utm_medium=api_v3_business_search&utm_source=vyhy616UjsMTA_hrWyg_5w", "review_count": 590, "categories": [{"alias": "vietnamese", "title": "Vietnamese"}], "rating": 4.0, "coordinates": {"latitude": 39.285951, "longitude": -76.753921}, "transactions": [], "price": "$", "location": {"address1": "1116 N Rolling Rd", "address2": null, "address3": "", "city": "Catonsville", "zip_code": "21228", "country": "US", "state": "MD", "display_address": ["1116 N Rolling Rd", "Catonsville, MD 21228"]}, "phone": "+14107442740", "display_phone": "(410) 744-2740", "distance": 12734.217895985596}, {"id": "FJnWA-O8yjGfs-sP6aDeUg", "alias": "yums-asian-bistro-baltimore", "name": "Yum's Asian Bistro", "image_url": "https://s3-media1.fl.yelpcdn.com/bphoto/DF9P7LdBSZh1WBPea-l7qg/o.jpg", "is_closed": false, "url": "https://www.yelp.com/biz/yums-asian-bistro-baltimore?adjust_creative=vyhy616UjsMTA_hrWyg_5w&utm_campaign=yelp_api_v3&utm_medium=api_v3_business_search&utm_source=vyhy616UjsMTA_hrWyg_5w", "review_count": 112, "categories": [{"alias": "chinese", "title": "Chinese"}, {"alias": "asianfusion", "title": "Asian Fusion"}], "rating": 3.5, "coordinates": {"latitude": 39.3180160522461, "longitude": -76.6167373657227}, "transactions": ["delivery", "pickup"], "price": "$$", "location": {"address1": "2501 N Charles St", "address2": "", "address3": "", "city": "Baltimore", "zip_code": "21218", "country": "US", "state": "MD", "display_address": ["2501 N Charles St", "Baltimore, MD 21218"]}, "phone": "+14108892828", "display_phone": "(410) 889-2828", "distance": 1179.471050660839}, {"id": "ajnib-5m4eNZAcfnoCS59w", "alias": "the-hub-asian-food-hall-catonsville-2", "name": "The Hub Asian Food Hall", "image_url": "https://s3-media1.fl.yelpcdn.com/bphoto/ezf62W31nn_iaufMSMbD7g/o.jpg", "is_closed": false, "url": "https://www.yelp.com/biz/the-hub-asian-food-hall-catonsville-2?adjust_creative=vyhy616UjsMTA_hrWyg_5w&utm_campaign=yelp_api_v3&utm_medium=api_v3_business_search&utm_source=vyhy616UjsMTA_hrWyg_5w", "review_count": 97, "categories": [{"alias": "asianfusion", "title": "Asian Fusion"}, {"alias": "desserts", "title": "Desserts"}, {"alias": "food_court", "title": "Food Court"}], "rating": 4.0, "coordinates": {"latitude": 39.28703, "longitude": -76.761989}, "transactions": ["delivery", "pickup"], "location": {"address1": "6510 Baltimore National Pike", "address2": "", "address3": null, "city": "Catonsville", "zip_code": "21228", "country": "US", "state": "MD", "display_address": ["6510 Baltimore National Pike", "Catonsville, MD 21228"]}, "phone": "+16678025177", "display_phone": "(667) 802-5177", "distance": 13391.859836651864}, {"id": "taPbBYFpVGIkrAQimwjdhQ", "alias": "sizka-restaurant-baltimore", "name": "Sizka Restaurant", "image_url": "https://s3-media1.fl.yelpcdn.com/bphoto/061FxgPMovHoKERDx5gRZA/o.jpg", "is_closed": false, "url": "https://www.yelp.com/biz/sizka-restaurant-baltimore?adjust_creative=vyhy616UjsMTA_hrWyg_5w&utm_campaign=yelp_api_v3&utm_medium=api_v3_business_search&utm_source=vyhy616UjsMTA_hrWyg_5w", "review_count": 56, "categories": [{"alias": "sushi", "title": "Sushi Bars"}, {"alias": "japanese", "title": "Japanese"}, {"alias": "desserts", "title": "Desserts"}], "rating": 4.5, "coordinates": {"latitude": 39.28017, "longitude": -76.57572}, "transactions": ["delivery"], "price": "$$", "location": {"address1": "1030 S Linwood Ave", "address2": null, "address3": null, "city": "Baltimore", "zip_code": "21224", "country": "US", "state": "MD", "display_address": ["1030 S Linwood Ave", "Baltimore, MD 21224"]}, "phone": "+14437083723", "display_phone": "(443) 708-3723", "distance": 4325.561964456272}, {"id": "21VPL2aT-DY8zVJtGd5eOQ", "alias": "ajumma-cuisine-baltimore", "name": "Ajumma Cuisine", "image_url": "https://s3-media4.fl.yelpcdn.com/bphoto/-OtKh3hkV4ctkrzd1VXVlw/o.jpg", "is_closed": false, "url": "https://www.yelp.com/biz/ajumma-cuisine-baltimore?adjust_creative=vyhy616UjsMTA_hrWyg_5w&utm_campaign=yelp_api_v3&utm_medium=api_v3_business_search&utm_source=vyhy616UjsMTA_hrWyg_5w", "review_count": 83, "categories": [{"alias": "korean", "title": "Korean"}, {"alias": "asianfusion", "title": "Asian Fusion"}], "rating": 3.5, "coordinates": {"latitude": 39.3267135620117, "longitude": -76.6155624389648}, "transactions": [], "price": "$", "location": {"address1": "3121 St Paul St", "address2": "", "address3": "", "city": "Baltimore", "zip_code": "21218", "country": "US", "state": "MD", "display_address": ["3121 St Paul St", "Baltimore, MD 21218"]}, "phone": "+14102354429", "display_phone": "(410) 235-4429", "distance": 2019.7994248274645}, {"id": "GrY_7WvQT6iwDghmJLCW8w", "alias": "spice-and-dice-towson-2", "name": "Spice & Dice", "image_url": "https://s3-media2.fl.yelpcdn.com/bphoto/ANGaEFq25OQ14OiEIkMicw/o.jpg", "is_closed": false, "url": "https://www.yelp.com/biz/spice-and-dice-towson-2?adjust_creative=vyhy616UjsMTA_hrWyg_5w&utm_campaign=yelp_api_v3&utm_medium=api_v3_business_search&utm_source=vyhy616UjsMTA_hrWyg_5w", "review_count": 660, "categories": [{"alias": "thai", "title": "Thai"}, {"alias": "vegan", "title": "Vegan"}, {"alias": "soup", "title": "Soup"}], "rating": 4.0, "coordinates": {"latitude": 39.3968355, "longitude": -76.5764848}, "transactions": ["delivery"], "price": "$$", "location": {"address1": "1220A E Joppa Rd", "address2": "Ste 106", "address3": "", "city": "Towson", "zip_code": "21286", "country": "US", "state": "MD", "display_address": ["1220A E Joppa Rd", "Ste 106", "Towson, MD 21286"]}, "phone": "+14104948777", "display_phone": "(410) 494-8777", "distance": 10129.445489817388}, {"id": "ol3olnRgSqefs8SvuVjcxQ", "alias": "mayuree-thai-tavern-baltimore", "name": "Mayuree Thai Tavern", "image_url": "https://s3-media1.fl.yelpcdn.com/bphoto/4M8eJiYa9Ca0xWaI3hPOOA/o.jpg", "is_closed": false, "url": "https://www.yelp.com/biz/mayuree-thai-tavern-baltimore?adjust_creative=vyhy616UjsMTA_hrWyg_5w&utm_campaign=yelp_api_v3&utm_medium=api_v3_business_search&utm_source=vyhy616UjsMTA_hrWyg_5w", "review_count": 288, "categories": [{"alias": "thai", "title": "Thai"}, {"alias": "vegetarian", "title": "Vegetarian"}, {"alias": "bars", "title": "Bars"}], "rating": 4.0, "coordinates": {"latitude": 39.2852592468262, "longitude": -76.5836334228516}, "transactions": ["delivery", "pickup"], "price": "$$", "location": {"address1": "2318 Fleet St", "address2": "", "address3": "", "city": "Baltimore", "zip_code": "21224", "country": "US", "state": "MD", "display_address": ["2318 Fleet St", "Baltimore, MD 21224"]}, "phone": "+16672125509", "display_phone": "(667) 212-5509", "distance": 3464.027853004819}, {"id": "5qWaWZ1_5f_O6VhIrcYi6Q", "alias": "ejji-ramen-baltimore", "name": "Ejji Ramen", "image_url": "https://s3-media2.fl.yelpcdn.com/bphoto/FIqAm9cG1ObAjxAeJRkMEg/o.jpg", "is_closed": false, "url": "https://www.yelp.com/biz/ejji-ramen-baltimore?adjust_creative=vyhy616UjsMTA_hrWyg_5w&utm_campaign=yelp_api_v3&utm_medium=api_v3_business_search&utm_source=vyhy616UjsMTA_hrWyg_5w", "review_count": 297, "categories": [{"alias": "ramen", "title": "Ramen"}], "rating": 3.5, "coordinates": {"latitude": 39.3639525452055, "longitude": -76.6083380675535}, "transactions": ["delivery"], "price": "$$", "location": {"address1": "529 E Belvedere Ave", "address2": "", "address3": "", "city": "Baltimore", "zip_code": "21212", "country": "US", "state": "MD", "display_address": ["529 E Belvedere Ave", "Baltimore, MD 21212"]}, "phone": "+14104358688", "display_phone": "(410) 435-8688", "distance": 6078.912252418003}, {"id": "i2ElBiJe_VrYqsigZU1SWA", "alias": "mona-s-super-noodle-baltimore", "name": "Mona\u2019s Super Noodle", "image_url": "https://s3-media4.fl.yelpcdn.com/bphoto/e3vg74jSCC0cVIZlZbCbzg/o.jpg", "is_closed": false, "url": "https://www.yelp.com/biz/mona-s-super-noodle-baltimore?adjust_creative=vyhy616UjsMTA_hrWyg_5w&utm_campaign=yelp_api_v3&utm_medium=api_v3_business_search&utm_source=vyhy616UjsMTA_hrWyg_5w", "review_count": 21, "categories": [{"alias": "noodles", "title": "Noodles"}, {"alias": "vietnamese", "title": "Vietnamese"}, {"alias": "thai", "title": "Thai"}], "rating": 4.0, "coordinates": {"latitude": 39.331408, "longitude": -76.631084}, "transactions": ["delivery", "pickup"], "location": {"address1": "850 W 36th St", "address2": null, "address3": null, "city": "Baltimore", "zip_code": "21211", "country": "US", "state": "MD", "display_address": ["850 W 36th St", "Baltimore, MD 21211"]}, "phone": "+16679303119", "display_phone": "(667) 930-3119", "distance": 3104.299578832563}, {"id": "sGj6gCAj0McGYhBUyNrlYA", "alias": "mi-and-yu-noodle-bar-baltimore-3", "name": "Mi & Yu Noodle Bar", "image_url": "https://s3-media4.fl.yelpcdn.com/bphoto/tB93JkLLAr_F0cZ5Y1HzUQ/o.jpg", "is_closed": false, "url": "https://www.yelp.com/biz/mi-and-yu-noodle-bar-baltimore-3?adjust_creative=vyhy616UjsMTA_hrWyg_5w&utm_campaign=yelp_api_v3&utm_medium=api_v3_business_search&utm_source=vyhy616UjsMTA_hrWyg_5w", "review_count": 113, "categories": [{"alias": "asianfusion", "title": "Asian Fusion"}], "rating": 3.5, "coordinates": {"latitude": 39.335901064749, "longitude": -76.6300839185715}, "transactions": ["delivery", "pickup"], "price": "$$", "location": {"address1": "711 W 40th St", "address2": "Ste 154", "address3": null, "city": "Baltimore", "zip_code": "21211", "country": "US", "state": "MD", "display_address": ["711 W 40th St", "Ste 154", "Baltimore, MD 21211"]}, "phone": "+14436027601", "display_phone": "(443) 602-7601", "distance": 3469.182109574088}, {"id": "oGWt1ZMFELnRyzKwZHplfQ", "alias": "asian-delight-baltimore", "name": "Asian Delight", "image_url": "", "is_closed": false, "url": "https://www.yelp.com/biz/asian-delight-baltimore?adjust_creative=vyhy616UjsMTA_hrWyg_5w&utm_campaign=yelp_api_v3&utm_medium=api_v3_business_search&utm_source=vyhy616UjsMTA_hrWyg_5w", "review_count": 1, "categories": [{"alias": "indonesian", "title": "Indonesian"}], "rating": 5.0, "coordinates": {"latitude": 39.264724, "longitude": -76.686237}, "transactions": ["delivery"], "location": {"address1": "1015 Leeds Ave", "address2": "", "address3": null, "city": "Baltimore", "zip_code": "21229", "country": "US", "state": "MD", "display_address": ["1015 Leeds Ave", "Baltimore, MD 21229"]}, "phone": "+14107371312", "display_phone": "(410) 737-1312", "distance": 8288.102966389532}], "total": 344, "region": {"center": {"longitude": -76.60903930664062, "latitude": 39.309286203696686}}}