{"businesses": [{"id": "IeF4q_ZeohItUszVVnSk0w", "alias": "mi-sen-noodle-bar-portland", "name": "Mi Sen Noodle Bar", "image_url": "https://s3-media1.fl.yelpcdn.com/bphoto/A-F2zc_q4Z_CT1S_H_-ISQ/o.jpg", "is_closed": false, "url": "https://www.yelp.com/biz/mi-sen-noodle-bar-portland?adjust_creative=vyhy616UjsMTA_hrWyg_5w&utm_campaign=yelp_api_v3&utm_medium=api_v3_business_search&utm_source=vyhy616UjsMTA_hrWyg_5w", "review_count": 293, "categories": [{"alias": "thai", "title": "Thai"}, {"alias": "asianfusion", "title": "Asian Fusion"}, {"alias": "noodles", "title": "Noodles"}], "rating": 4.5, "coordinates": {"latitude": 43.653434, "longitude": -70.264304}, "transactions": ["pickup", "delivery"], "price": "$$", "location": {"address1": "630 Congress St", "address2": "", "address3": "", "city": "Portland", "zip_code": "04101", "country": "US", "state": "ME", "display_address": ["630 Congress St", "Portland, ME 04101"]}, "phone": "+12077474838", "display_phone": "(207) 747-4838", "distance": 1591.0100849371122}, {"id": "EjYdvC0Ye6QcFBUaQ8ngBw", "alias": "yobo-portland", "name": "Yobo", "image_url": "https://s3-media2.fl.yelpcdn.com/bphoto/zZDKsyANYt3G4b-IPg38QQ/o.jpg", "is_closed": false, "url": "https://www.yelp.com/biz/yobo-portland?adjust_creative=vyhy616UjsMTA_hrWyg_5w&utm_campaign=yelp_api_v3&utm_medium=api_v3_business_search&utm_source=vyhy616UjsMTA_hrWyg_5w", "review_count": 37, "categories": [{"alias": "korean", "title": "Korean"}, {"alias": "asianfusion", "title": "Asian Fusion"}], "rating": 4.5, "coordinates": {"latitude": 43.6551699341811, "longitude": -70.2628979948421}, "transactions": [], "price": "$$", "location": {"address1": "23 Forest Ave", "address2": "", "address3": null, "city": "Portland", "zip_code": "04101", "country": "US", "state": "ME", "display_address": ["23 Forest Ave", "Portland, ME 04101"]}, "phone": "+12075360986", "display_phone": "(207) 536-0986", "distance": 1468.0630090359728}, {"id": "D1eBBfWnx2w1BkKVogChng", "alias": "empire-chinese-kitchen-portland", "name": "Empire Chinese Kitchen", "image_url": "https://s3-media1.fl.yelpcdn.com/bphoto/OJ09f0pjC8L9SCtysr1Qug/o.jpg", "is_closed": false, "url": "https://www.yelp.com/biz/empire-chinese-kitchen-portland?adjust_creative=vyhy616UjsMTA_hrWyg_5w&utm_campaign=yelp_api_v3&utm_medium=api_v3_business_search&utm_source=vyhy616UjsMTA_hrWyg_5w", "review_count": 524, "categories": [{"alias": "dimsum", "title": "Dim Sum"}, {"alias": "cantonese", "title": "Cantonese"}], "rating": 4.5, "coordinates": {"latitude": 43.654899597168, "longitude": -70.2625198364258}, "transactions": ["delivery"], "price": "$$", "location": {"address1": "575 Congress St", "address2": "", "address3": "", "city": "Portland", "zip_code": "04101", "country": "US", "state": "ME", "display_address": ["575 Congress St", "Portland, ME 04101"]}, "phone": "+12077475063", "display_phone": "(207) 747-5063", "distance": 1509.3753357599403}, {"id": "p3P063twC78ZQxR7pf8TnQ", "alias": "bao-bao-dumpling-house-portland-2", "name": "Bao Bao Dumpling House", "image_url": "https://s3-media1.fl.yelpcdn.com/bphoto/B6VKfjAEOtaMLvCFgE5RYw/o.jpg", "is_closed": false, "url": "https://www.yelp.com/biz/bao-bao-dumpling-house-portland-2?adjust_creative=vyhy616UjsMTA_hrWyg_5w&utm_campaign=yelp_api_v3&utm_medium=api_v3_business_search&utm_source=vyhy616UjsMTA_hrWyg_5w", "review_count": 303, "categories": [{"alias": "chinese", "title": "Chinese"}, {"alias": "bars", "title": "Bars"}], "rating": 4.0, "coordinates": {"latitude": 43.65263, "longitude": -70.26295}, "transactions": ["pickup", "delivery"], "price": "$$", "location": {"address1": "133 Spring St", "address2": null, "address3": "", "city": "Portland", "zip_code": "04101", "country": "US", "state": "ME", "display_address": ["133 Spring St", "Portland, ME 04101"]}, "phone": "+12077728400", "display_phone": "(207) 772-8400", "distance": 1713.4114825941788}, {"id": "aqbSiJBpDeaLLQAZWb_g2w", "alias": "veranda-noodle-house-portland", "name": "Veranda Noodle House", "image_url": "https://s3-media3.fl.yelpcdn.com/bphoto/gTY7JfAYILkmyWD8HxkFaA/o.jpg", "is_closed": false, "url": "https://www.yelp.com/biz/veranda-noodle-house-portland?adjust_creative=vyhy616UjsMTA_hrWyg_5w&utm_campaign=yelp_api_v3&utm_medium=api_v3_business_search&utm_source=vyhy616UjsMTA_hrWyg_5w", "review_count": 138, "categories": [{"alias": "vietnamese", "title": "Vietnamese"}, {"alias": "thai", "title": "Thai"}, {"alias": "noodles", "title": "Noodles"}], "rating": 4.0, "coordinates": {"latitude": 43.65484, "longitude": -70.25467}, "transactions": ["pickup", "delivery"], "price": "$$", "location": {"address1": "245 Commercial St", "address2": "", "address3": "", "city": "Portland", "zip_code": "04101", "country": "US", "state": "ME", "display_address": ["245 Commercial St", "Portland, ME 04101"]}, "phone": "+12075361996", "display_phone": "(207) 536-1996", "distance": 1907.6308074326023}, {"id": "dzuAplfW1er3D8Z5aDcV3w", "alias": "boda-portland", "name": "Boda", "image_url": "https://s3-media4.fl.yelpcdn.com/bphoto/xXnJkcLxkpCmhScdbNaxzA/o.jpg", "is_closed": false, "url": "https://www.yelp.com/biz/boda-portland?adjust_creative=vyhy616UjsMTA_hrWyg_5w&utm_campaign=yelp_api_v3&utm_medium=api_v3_business_search&utm_source=vyhy616UjsMTA_hrWyg_5w", "review_count": 467, "categories": [{"alias": "thai", "title": "Thai"}, {"alias": "tapasmallplates", "title": "Tapas/Small Plates"}], "rating": 4.5, "coordinates": {"latitude": 43.6533299, "longitude": -70.2665899}, "transactions": ["delivery"], "price": "$$", "location": {"address1": "671 Congress St", "address2": "", "address3": "", "city": "Portland", "zip_code": "04101", "country": "US", "state": "ME", "display_address": ["671 Congress St", "Portland, ME 04101"]}, "phone": "+12073477557", "display_phone": "(207) 347-7557", "distance": 1541.8665803537715}, {"id": "bDQwF87UDdCdL788rLLxFQ", "alias": "the-green-elephant-portland", "name": "The Green Elephant", "image_url": "https://s3-media4.fl.yelpcdn.com/bphoto/qGr6tt3cY7TEzqH-bFoPkQ/o.jpg", "is_closed": false, "url": "https://www.yelp.com/biz/the-green-elephant-portland?adjust_creative=vyhy616UjsMTA_hrWyg_5w&utm_campaign=yelp_api_v3&utm_medium=api_v3_business_search&utm_source=vyhy616UjsMTA_hrWyg_5w", "review_count": 549, "categories": [{"alias": "vegetarian", "title": "Vegetarian"}, {"alias": "vegan", "title": "Vegan"}, {"alias": "asianfusion", "title": "Asian Fusion"}], "rating": 4.5, "coordinates": {"latitude": 43.65368, "longitude": -70.26344}, "transactions": ["delivery"], "price": "$$", "location": {"address1": "608 Congress St", "address2": "", "address3": "", "city": "Portland", "zip_code": "04101", "country": "US", "state": "ME", "display_address": ["608 Congress St", "Portland, ME 04101"]}, "phone": "+12073473111", "display_phone": "(207) 347-3111", "distance": 1598.6059728432506}, {"id": "LHY6N6zoRDiqMIJncYIXdQ", "alias": "sichuan-kitchen-portland", "name": "Sichuan Kitchen", "image_url": "https://s3-media2.fl.yelpcdn.com/bphoto/0XixmJ-ojhb6UzDoaqvyYw/o.jpg", "is_closed": false, "url": "https://www.yelp.com/biz/sichuan-kitchen-portland?adjust_creative=vyhy616UjsMTA_hrWyg_5w&utm_campaign=yelp_api_v3&utm_medium=api_v3_business_search&utm_source=vyhy616UjsMTA_hrWyg_5w", "review_count": 122, "categories": [{"alias": "szechuan", "title": "Szechuan"}], "rating": 4.5, "coordinates": {"latitude": 43.65364, "longitude": -70.26356}, "transactions": ["pickup", "delivery"], "price": "$$", "location": {"address1": "612 Congress St", "address2": null, "address3": "", "city": "Portland", "zip_code": "04101", "country": "US", "state": "ME", "display_address": ["612 Congress St", "Portland, ME 04101"]}, "phone": "+12075367226", "display_phone": "(207) 536-7226", "distance": 1603.7208016287725}, {"id": "VNzSaud6CO3LoYqQy7tFXQ", "alias": "the-honey-paw-portland", "name": "The Honey Paw", "image_url": "https://s3-media2.fl.yelpcdn.com/bphoto/rdQxfocYfqSuk-7Gel1j2w/o.jpg", "is_closed": false, "url": "https://www.yelp.com/biz/the-honey-paw-portland?adjust_creative=vyhy616UjsMTA_hrWyg_5w&utm_campaign=yelp_api_v3&utm_medium=api_v3_business_search&utm_source=vyhy616UjsMTA_hrWyg_5w", "review_count": 452, "categories": [{"alias": "asianfusion", "title": "Asian Fusion"}, {"alias": "newamerican", "title": "American (New)"}, {"alias": "noodles", "title": "Noodles"}], "rating": 4.0, "coordinates": {"latitude": 43.6595876703614, "longitude": -70.2510230719194}, "transactions": ["delivery"], "price": "$$", "location": {"address1": "78 Middle St", "address2": "", "address3": "", "city": "Portland", "zip_code": "04101", "country": "US", "state": "ME", "display_address": ["78 Middle St", "Portland, ME 04101"]}, "phone": "+12077748538", "display_phone": "(207) 774-8538", "distance": 1858.7971406845502}, {"id": "zmwUzQXn3nVJ7J1l2QvrKw", "alias": "cong-tu-bot-portland", "name": "Cong Tu Bot", "image_url": "https://s3-media1.fl.yelpcdn.com/bphoto/EQ2wVwYE25-0kVLGE8dlfw/o.jpg", "is_closed": false, "url": "https://www.yelp.com/biz/cong-tu-bot-portland?adjust_creative=vyhy616UjsMTA_hrWyg_5w&utm_campaign=yelp_api_v3&utm_medium=api_v3_business_search&utm_source=vyhy616UjsMTA_hrWyg_5w", "review_count": 97, "categories": [{"alias": "vietnamese", "title": "Vietnamese"}], "rating": 4.0, "coordinates": {"latitude": 43.6652297, "longitude": -70.2520589}, "transactions": ["delivery"], "price": "$$", "location": {"address1": "57 Washington Ave", "address2": "", "address3": null, "city": "Portland", "zip_code": "04101", "country": "US", "state": "ME", "display_address": ["57 Washington Ave", "Portland, ME 04101"]}, "phone": "+12072218022", "display_phone": "(207) 221-8022", "distance": 1610.4268869275325}, {"id": "ydpCQt4ZADqDFo2EZ7HTSg", "alias": "miyake-portland", "name": "Miyake", "image_url": "https://s3-media3.fl.yelpcdn.com/bphoto/zZupRnmd4YoO6JKbaZZ1lg/o.jpg", "is_closed": false, "url": "https://www.yelp.com/biz/miyake-portland?adjust_creative=vyhy616UjsMTA_hrWyg_5w&utm_campaign=yelp_api_v3&utm_medium=api_v3_business_search&utm_source=vyhy616UjsMTA_hrWyg_5w", "review_count": 394, "categories": [{"alias": "japanese", "title": "Japanese"}, {"alias": "sushi", "title": "Sushi Bars"}], "rating": 4.5, "coordinates": {"latitude": 43.6554271720976, "longitude": -70.2554401850103}, "transactions": ["delivery"], "price": "$$$", "location": {"address1": "468 Fore St", "address2": "", "address3": "", "city": "Portland", "zip_code": "04101", "country": "US", "state": "ME", "display_address": ["468 Fore St", "Portland, ME 04101"]}, "phone": "+12078719170", "display_phone": "(207) 871-9170", "distance": 1822.212174339416}, {"id": "8ldzD67dzJhcSOcrnyvenA", "alias": "saeng-thai-house-portland", "name": "Saeng Thai House", "image_url": "https://s3-media1.fl.yelpcdn.com/bphoto/9RT7060quY-4uKbqeYetXg/o.jpg", "is_closed": false, "url": "https://www.yelp.com/biz/saeng-thai-house-portland?adjust_creative=vyhy616UjsMTA_hrWyg_5w&utm_campaign=yelp_api_v3&utm_medium=api_v3_business_search&utm_source=vyhy616UjsMTA_hrWyg_5w", "review_count": 200, "categories": [{"alias": "thai", "title": "Thai"}, {"alias": "asianfusion", "title": "Asian Fusion"}], "rating": 4.5, "coordinates": {"latitude": 43.6539489667328, "longitude": -70.2782385765991}, "transactions": ["delivery"], "price": "$$", "location": {"address1": "921 Congress St", "address2": "", "address3": "", "city": "Portland", "zip_code": "04102", "country": "US", "state": "ME", "display_address": ["921 Congress St", "Portland, ME 04102"]}, "phone": "+12077800900", "display_phone": "(207) 780-0900", "distance": 1495.8122186707435}, {"id": "iWR2CC0pnLY6OpJ7I6SvfQ", "alias": "pai-men-miyake-portland", "name": "Pai Men Miyake", "image_url": "https://s3-media2.fl.yelpcdn.com/bphoto/l6PLOJpKG8d0N11nVafqLw/o.jpg", "is_closed": false, "url": "https://www.yelp.com/biz/pai-men-miyake-portland?adjust_creative=vyhy616UjsMTA_hrWyg_5w&utm_campaign=yelp_api_v3&utm_medium=api_v3_business_search&utm_source=vyhy616UjsMTA_hrWyg_5w", "review_count": 489, "categories": [{"alias": "sushi", "title": "Sushi Bars"}, {"alias": "ramen", "title": "Ramen"}], "rating": 4.0, "coordinates": {"latitude": 43.652919218049, "longitude": -70.267085747193}, "transactions": ["delivery"], "price": "$$", "location": {"address1": "188 State St", "address2": "", "address3": "", "city": "Portland", "zip_code": "04101", "country": "US", "state": "ME", "display_address": ["188 State St", "Portland, ME 04101"]}, "phone": "+12075419204", "display_phone": "(207) 541-9204", "distance": 1573.4865273206267}, {"id": "FRbKH-v2tOlh5PK0Cm9oyQ", "alias": "saigon-restaurant-portland", "name": "Saigon Restaurant", "image_url": "https://s3-media3.fl.yelpcdn.com/bphoto/E70_pVDIn2l_WUQHZcoWgw/o.jpg", "is_closed": false, "url": "https://www.yelp.com/biz/saigon-restaurant-portland?adjust_creative=vyhy616UjsMTA_hrWyg_5w&utm_campaign=yelp_api_v3&utm_medium=api_v3_business_search&utm_source=vyhy616UjsMTA_hrWyg_5w", "review_count": 165, "categories": [{"alias": "vietnamese", "title": "Vietnamese"}], "rating": 4.0, "coordinates": {"latitude": 43.67528, "longitude": -70.28645}, "transactions": ["delivery"], "price": "$$", "location": {"address1": "795 Forest Ave", "address2": "", "address3": "", "city": "Portland", "zip_code": "04103", "country": "US", "state": "ME", "display_address": ["795 Forest Ave", "Portland, ME 04103"]}, "phone": "+12078746666", "display_phone": "(207) 874-6666", "distance": 1497.7088578403234}, {"id": "E3rxBAdXny4cqy21xDN_9A", "alias": "izakaya-minato-portland", "name": "Izakaya Minato", "image_url": "https://s3-media1.fl.yelpcdn.com/bphoto/UTo8hdYF71fr5P8Hdz4Gdg/o.jpg", "is_closed": false, "url": "https://www.yelp.com/biz/izakaya-minato-portland?adjust_creative=vyhy616UjsMTA_hrWyg_5w&utm_campaign=yelp_api_v3&utm_medium=api_v3_business_search&utm_source=vyhy616UjsMTA_hrWyg_5w", "review_count": 123, "categories": [{"alias": "izakaya", "title": "Izakaya"}], "rating": 4.5, "coordinates": {"latitude": 43.665095, "longitude": -70.252187}, "transactions": ["delivery"], "price": "$$", "location": {"address1": "54 Washington Ave", "address2": "", "address3": null, "city": "Portland", "zip_code": "04101", "country": "US", "state": "ME", "display_address": ["54 Washington Ave", "Portland, ME 04101"]}, "phone": "+12076139939", "display_phone": "(207) 613-9939", "distance": 1601.6872696132189}, {"id": "F_twE5ZAXa-eIPqoq-lh_g", "alias": "huongs-vietnamese-restaurant-portland-2", "name": "Huong's Vietnamese Restaurant", "image_url": "https://s3-media2.fl.yelpcdn.com/bphoto/5kR2bwHCZfi7RCt75htm_w/o.jpg", "is_closed": false, "url": "https://www.yelp.com/biz/huongs-vietnamese-restaurant-portland-2?adjust_creative=vyhy616UjsMTA_hrWyg_5w&utm_campaign=yelp_api_v3&utm_medium=api_v3_business_search&utm_source=vyhy616UjsMTA_hrWyg_5w", "review_count": 108, "categories": [{"alias": "vietnamese", "title": "Vietnamese"}], "rating": 4.0, "coordinates": {"latitude": 43.6523928, "longitude": -70.279056}, "transactions": ["pickup", "delivery"], "price": "$$", "location": {"address1": "267 St John St", "address2": null, "address3": "", "city": "Portland", "zip_code": "04102", "country": "US", "state": "ME", "display_address": ["267 St John St", "Portland, ME 04102"]}, "phone": "+12077752344", "display_phone": "(207) 775-2344", "distance": 1680.8912594011633}, {"id": "G96_6Kpz751_Axys7rNNlA", "alias": "mainely-noods-portland", "name": "Mainely Noods", "image_url": "https://s3-media4.fl.yelpcdn.com/bphoto/occocwOGSzqyRFKyITao0A/o.jpg", "is_closed": false, "url": "https://www.yelp.com/biz/mainely-noods-portland?adjust_creative=vyhy616UjsMTA_hrWyg_5w&utm_campaign=yelp_api_v3&utm_medium=api_v3_business_search&utm_source=vyhy616UjsMTA_hrWyg_5w", "review_count": 48, "categories": [{"alias": "noodles", "title": "Noodles"}], "rating": 4.5, "coordinates": {"latitude": 43.65304, "longitude": -70.26571}, "transactions": ["pickup", "delivery"], "location": {"address1": "658 Congress St", "address2": "", "address3": null, "city": "Portland", "zip_code": "04101", "country": "US", "state": "ME", "display_address": ["658 Congress St", "Portland, ME 04101"]}, "phone": "+12075364014", "display_phone": "(207) 536-4014", "distance": 1592.4449583228197}, {"id": "msvjyjb9XQkb3dXgqcs5WA", "alias": "n-to-tail-portland", "name": "N To Tail", "image_url": "https://s3-media2.fl.yelpcdn.com/bphoto/1TgzAKPG1dl7R46E33DSYw/o.jpg", "is_closed": false, "url": "https://www.yelp.com/biz/n-to-tail-portland?adjust_creative=vyhy616UjsMTA_hrWyg_5w&utm_campaign=yelp_api_v3&utm_medium=api_v3_business_search&utm_source=vyhy616UjsMTA_hrWyg_5w", "review_count": 107, "categories": [{"alias": "korean", "title": "Korean"}, {"alias": "bbq", "title": "Barbeque"}, {"alias": "tapasmallplates", "title": "Tapas/Small Plates"}], "rating": 4.0, "coordinates": {"latitude": 43.6571927481999, "longitude": -70.2538183758938}, "transactions": ["delivery"], "location": {"address1": "29 Exchange St", "address2": "", "address3": null, "city": "Portland", "zip_code": "04101", "country": "US", "state": "ME", "display_address": ["29 Exchange St", "Portland, ME 04101"]}, "phone": "+12077732900", "display_phone": "(207) 773-2900", "distance": 1798.5208222557164}, {"id": "9VUAChf0B9Ut1puSfQ8JKg", "alias": "benkay-japanese-restaurant-and-sushi-bar-portland", "name": "Benkay Japanese Restaurant & Sushi Bar", "image_url": "https://s3-media1.fl.yelpcdn.com/bphoto/rzYHI-E2iUKaelbN4cIoKA/o.jpg", "is_closed": false, "url": "https://www.yelp.com/biz/benkay-japanese-restaurant-and-sushi-bar-portland?adjust_creative=vyhy616UjsMTA_hrWyg_5w&utm_campaign=yelp_api_v3&utm_medium=api_v3_business_search&utm_source=vyhy616UjsMTA_hrWyg_5w", "review_count": 210, "categories": [{"alias": "japanese", "title": "Japanese"}, {"alias": "sushi", "title": "Sushi Bars"}], "rating": 4.0, "coordinates": {"latitude": 43.660937, "longitude": -70.248797}, "transactions": ["delivery"], "price": "$$", "location": {"address1": "16 Middle St", "address2": "", "address3": "", "city": "Portland", "zip_code": "04112", "country": "US", "state": "ME", "display_address": ["16 Middle St", "Portland, ME 04112"]}, "phone": "+12077735555", "display_phone": "(207) 773-5555", "distance": 1969.5133405246413}, {"id": "Kwi1tBox5ySzJ5qZjFeM0A", "alias": "sun-vietnamese-restaurant-portland-5", "name": "Sun Vietnamese Restaurant", "image_url": "https://s3-media1.fl.yelpcdn.com/bphoto/ROG3DO0oTu8XLHCBZNd6Pw/o.jpg", "is_closed": false, "url": "https://www.yelp.com/biz/sun-vietnamese-restaurant-portland-5?adjust_creative=vyhy616UjsMTA_hrWyg_5w&utm_campaign=yelp_api_v3&utm_medium=api_v3_business_search&utm_source=vyhy616UjsMTA_hrWyg_5w", "review_count": 51, "categories": [{"alias": "vietnamese", "title": "Vietnamese"}, {"alias": "salad", "title": "Salad"}, {"alias": "chicken_wings", "title": "Chicken Wings"}], "rating": 4.5, "coordinates": {"latitude": 43.67211, "longitude": -70.28434}, "transactions": ["delivery"], "price": "$", "location": {"address1": "699 Forest Ave", "address2": "", "address3": null, "city": "Portland", "zip_code": "04103", "country": "US", "state": "ME", "display_address": ["699 Forest Ave", "Portland, ME 04103"]}, "phone": "+12076139036", "display_phone": "(207) 613-9036", "distance": 1167.1453580570442}, {"id": "n2M6ycC7s12PSSFrOLx4Gg", "alias": "mekong-asian-bistro-portland", "name": "Mekong Asian Bistro", "image_url": "https://s3-media2.fl.yelpcdn.com/bphoto/WIGvlkVj234mdn2hDMdXjQ/o.jpg", "is_closed": false, "url": "https://www.yelp.com/biz/mekong-asian-bistro-portland?adjust_creative=vyhy616UjsMTA_hrWyg_5w&utm_campaign=yelp_api_v3&utm_medium=api_v3_business_search&utm_source=vyhy616UjsMTA_hrWyg_5w", "review_count": 63, "categories": [{"alias": "vietnamese", "title": "Vietnamese"}, {"alias": "chinese", "title": "Chinese"}, {"alias": "thai", "title": "Thai"}], "rating": 3.5, "coordinates": {"latitude": 43.677266, "longitude": -70.28763}, "transactions": ["pickup", "delivery"], "price": "$$", "location": {"address1": "865 Forest Ave", "address2": null, "address3": null, "city": "Portland", "zip_code": "04103", "country": "US", "state": "ME", "display_address": ["865 Forest Ave", "Portland, ME 04103"]}, "phone": "+12077738424", "display_phone": "(207) 773-8424", "distance": 1727.567317144016}, {"id": "LDAPYS0_gvAp-nymwnA0JQ", "alias": "zen-chinese-bistro-portland", "name": "Zen Chinese Bistro", "image_url": "https://s3-media1.fl.yelpcdn.com/bphoto/pqU7JWYQcL0_XZFm2ajbJQ/o.jpg", "is_closed": false, "url": "https://www.yelp.com/biz/zen-chinese-bistro-portland?adjust_creative=vyhy616UjsMTA_hrWyg_5w&utm_campaign=yelp_api_v3&utm_medium=api_v3_business_search&utm_source=vyhy616UjsMTA_hrWyg_5w", "review_count": 140, "categories": [{"alias": "bars", "title": "Bars"}, {"alias": "szechuan", "title": "Szechuan"}, {"alias": "dimsum", "title": "Dim Sum"}], "rating": 4.0, "coordinates": {"latitude": 43.65334, "longitude": -70.25858}, "transactions": ["pickup", "delivery"], "price": "$$", "location": {"address1": "45 Danforth St", "address2": null, "address3": null, "city": "Portland", "zip_code": "04101", "country": "US", "state": "ME", "display_address": ["45 Danforth St", "Portland, ME 04101"]}, "phone": "+12077756888", "display_phone": "(207) 775-6888", "distance": 1827.899276918363}, {"id": "O6AAjTGZOuIlRy2cAizJGA", "alias": "mami-portland-portland", "name": "MAMI PORTLAND", "image_url": "https://s3-media4.fl.yelpcdn.com/bphoto/lDE7L2vZ5GbZojFIevDQSg/o.jpg", "is_closed": false, "url": "https://www.yelp.com/biz/mami-portland-portland?adjust_creative=vyhy616UjsMTA_hrWyg_5w&utm_campaign=yelp_api_v3&utm_medium=api_v3_business_search&utm_source=vyhy616UjsMTA_hrWyg_5w", "review_count": 83, "categories": [{"alias": "japanese", "title": "Japanese"}, {"alias": "foodtrucks", "title": "Food Trucks"}], "rating": 4.5, "coordinates": {"latitude": 43.65712, "longitude": -70.25205}, "transactions": ["delivery"], "price": "$$", "location": {"address1": "339 Fore St", "address2": "", "address3": null, "city": "Portland", "zip_code": "04101", "country": "US", "state": "ME", "display_address": ["339 Fore St", "Portland, ME 04101"]}, "phone": "+12075364702", "display_phone": "(207) 536-4702", "distance": 1922.5302894085319}, {"id": "JwwIL-DcZuifTuto8uMSiw", "alias": "yosaku-portland", "name": "Yosaku", "image_url": "https://s3-media1.fl.yelpcdn.com/bphoto/xfh4y-DG6ZitLx6NUETCjw/o.jpg", "is_closed": false, "url": "https://www.yelp.com/biz/yosaku-portland?adjust_creative=vyhy616UjsMTA_hrWyg_5w&utm_campaign=yelp_api_v3&utm_medium=api_v3_business_search&utm_source=vyhy616UjsMTA_hrWyg_5w", "review_count": 334, "categories": [{"alias": "japanese", "title": "Japanese"}, {"alias": "sushi", "title": "Sushi Bars"}], "rating": 4.0, "coordinates": {"latitude": 43.65439, "longitude": -70.2574}, "transactions": ["delivery"], "price": "$$", "location": {"address1": "1 Danforth St", "address2": "", "address3": "", "city": "Portland", "zip_code": "04101", "country": "US", "state": "ME", "display_address": ["1 Danforth St", "Portland, ME 04101"]}, "phone": "+12078993774", "display_phone": "(207) 899-3774", "distance": 1795.9133388637008}, {"id": "SKFznCDNVQh1ZUSlz5Erzg", "alias": "thanh-thanh-2-portland", "name": "Thanh Thanh 2", "image_url": "https://s3-media4.fl.yelpcdn.com/bphoto/lHPsTRghjY2A2IKZ-3TmYg/o.jpg", "is_closed": false, "url": "https://www.yelp.com/biz/thanh-thanh-2-portland?adjust_creative=vyhy616UjsMTA_hrWyg_5w&utm_campaign=yelp_api_v3&utm_medium=api_v3_business_search&utm_source=vyhy616UjsMTA_hrWyg_5w", "review_count": 82, "categories": [{"alias": "vietnamese", "title": "Vietnamese"}], "rating": 4.0, "coordinates": {"latitude": 43.674823, "longitude": -70.286796}, "transactions": ["delivery"], "price": "$$", "location": {"address1": "782 Forest Ave", "address2": null, "address3": null, "city": "Portland", "zip_code": "04103", "country": "US", "state": "ME", "display_address": ["782 Forest Ave", "Portland, ME 04103"]}, "phone": "+12078281114", "display_phone": "(207) 828-1114", "distance": 1493.4470160094959}, {"id": "2hUcNeWXly8UwPntVUv7Uw", "alias": "golden-lotus-chinese-cuisine-portland", "name": "Golden Lotus Chinese Cuisine", "image_url": "https://s3-media1.fl.yelpcdn.com/bphoto/QpLr7_rNnOHzbWtZZQZXQw/o.jpg", "is_closed": false, "url": "https://www.yelp.com/biz/golden-lotus-chinese-cuisine-portland?adjust_creative=vyhy616UjsMTA_hrWyg_5w&utm_campaign=yelp_api_v3&utm_medium=api_v3_business_search&utm_source=vyhy616UjsMTA_hrWyg_5w", "review_count": 91, "categories": [{"alias": "cantonese", "title": "Cantonese"}, {"alias": "dimsum", "title": "Dim Sum"}], "rating": 4.0, "coordinates": {"latitude": 43.6565299292241, "longitude": -70.2607053367706}, "transactions": ["delivery"], "price": "$$", "location": {"address1": "511 Congress St", "address2": "", "address3": "", "city": "Portland", "zip_code": "04101", "country": "US", "state": "ME", "display_address": ["511 Congress St", "Portland, ME 04101"]}, "phone": "+12077475322", "display_phone": "(207) 747-5322", "distance": 1442.9488150255515}, {"id": "_qbwWK_0Vyxp22mUrGE7GQ", "alias": "poms-thai-taste-portland", "name": "Pom's Thai Taste", "image_url": "https://s3-media2.fl.yelpcdn.com/bphoto/lngFGw5GGVRgEPgsNqC_hQ/o.jpg", "is_closed": false, "url": "https://www.yelp.com/biz/poms-thai-taste-portland?adjust_creative=vyhy616UjsMTA_hrWyg_5w&utm_campaign=yelp_api_v3&utm_medium=api_v3_business_search&utm_source=vyhy616UjsMTA_hrWyg_5w", "review_count": 149, "categories": [{"alias": "thai", "title": "Thai"}], "rating": 4.0, "coordinates": {"latitude": 43.6549592, "longitude": -70.2623825}, "transactions": ["pickup", "delivery"], "price": "$$", "location": {"address1": "571 Congress St", "address2": "", "address3": "", "city": "Portland", "zip_code": "04101", "country": "US", "state": "ME", "display_address": ["571 Congress St", "Portland, ME 04101"]}, "phone": "+12077727999", "display_phone": "(207) 772-7999", "distance": 1511.5157620885464}, {"id": "TFZlzFMfSRmZF7Eon35bXA", "alias": "ginza-town-portland", "name": "Ginza Town", "image_url": "https://s3-media4.fl.yelpcdn.com/bphoto/sevlELGcobMdZzXx3KwXag/o.jpg", "is_closed": false, "url": "https://www.yelp.com/biz/ginza-town-portland?adjust_creative=vyhy616UjsMTA_hrWyg_5w&utm_campaign=yelp_api_v3&utm_medium=api_v3_business_search&utm_source=vyhy616UjsMTA_hrWyg_5w", "review_count": 97, "categories": [{"alias": "japanese", "title": "Japanese"}, {"alias": "vietnamese", "title": "Vietnamese"}, {"alias": "sushi", "title": "Sushi Bars"}], "rating": 4.0, "coordinates": {"latitude": 43.68343, "longitude": -70.29022}, "transactions": ["pickup", "delivery"], "price": "$$", "location": {"address1": "1053 Forest Ave", "address2": "", "address3": null, "city": "Portland", "zip_code": "04103", "country": "US", "state": "ME", "display_address": ["1053 Forest Ave", "Portland, ME 04103"]}, "phone": "+12078789993", "display_phone": "(207) 878-9993", "distance": 2388.882280504804}, {"id": "XpHcmEvWzDTvam061HFnVw", "alias": "crunchy-pok\u00e9-portland-2", "name": "Crunchy Pok\u00e9", "image_url": "https://s3-media4.fl.yelpcdn.com/bphoto/JLXTcl0kz91g8VozFN4fyw/o.jpg", "is_closed": false, "url": "https://www.yelp.com/biz/crunchy-pok%C3%A9-portland-2?adjust_creative=vyhy616UjsMTA_hrWyg_5w&utm_campaign=yelp_api_v3&utm_medium=api_v3_business_search&utm_source=vyhy616UjsMTA_hrWyg_5w", "review_count": 123, "categories": [{"alias": "sushi", "title": "Sushi Bars"}, {"alias": "ramen", "title": "Ramen"}, {"alias": "poke", "title": "Poke"}], "rating": 5.0, "coordinates": {"latitude": 43.6559, "longitude": -70.25416}, "transactions": ["pickup", "delivery"], "price": "$$", "location": {"address1": "426 Fore St", "address2": null, "address3": "", "city": "Portland", "zip_code": "04101", "country": "US", "state": "ME", "display_address": ["426 Fore St", "Portland, ME 04101"]}, "phone": "+12078350838", "display_phone": "(207) 835-0838", "distance": 1868.9328222781198}, {"id": "1ZRqAKuAqpfzEadiqHRArA", "alias": "kon-asian-bistro-portland", "name": "Kon Asian Bistro", "image_url": "https://s3-media4.fl.yelpcdn.com/bphoto/qLQNGxKSGd0HYnU0RzoXTQ/o.jpg", "is_closed": false, "url": "https://www.yelp.com/biz/kon-asian-bistro-portland?adjust_creative=vyhy616UjsMTA_hrWyg_5w&utm_campaign=yelp_api_v3&utm_medium=api_v3_business_search&utm_source=vyhy616UjsMTA_hrWyg_5w", "review_count": 135, "categories": [{"alias": "asianfusion", "title": "Asian Fusion"}, {"alias": "sushi", "title": "Sushi Bars"}, {"alias": "japanese", "title": "Japanese"}], "rating": 3.5, "coordinates": {"latitude": 43.675612, "longitude": -70.326376}, "transactions": ["delivery"], "price": "$$", "location": {"address1": "1140 Brighton Ave", "address2": "", "address3": "", "city": "Portland", "zip_code": "04102", "country": "US", "state": "ME", "display_address": ["1140 Brighton Ave", "Portland, ME 04102"]}, "phone": "+12078740000", "display_phone": "(207) 874-0000", "distance": 4487.2320155951}, {"id": "05SAUh9ezB2cHuRlryrOow", "alias": "veranda-asian-market-portland", "name": "Veranda Asian Market", "image_url": "https://s3-media1.fl.yelpcdn.com/bphoto/iFrsDJIV5S2SPBsooPxEBg/o.jpg", "is_closed": false, "url": "https://www.yelp.com/biz/veranda-asian-market-portland?adjust_creative=vyhy616UjsMTA_hrWyg_5w&utm_campaign=yelp_api_v3&utm_medium=api_v3_business_search&utm_source=vyhy616UjsMTA_hrWyg_5w", "review_count": 43, "categories": [{"alias": "vietnamese", "title": "Vietnamese"}, {"alias": "thai", "title": "Thai"}, {"alias": "intlgrocery", "title": "International Grocery"}], "rating": 4.0, "coordinates": {"latitude": 43.6716232, "longitude": -70.2844162}, "transactions": ["delivery"], "price": "$", "location": {"address1": "695 Forest Ave", "address2": "", "address3": "", "city": "Portland", "zip_code": "04103", "country": "US", "state": "ME", "display_address": ["695 Forest Ave", "Portland, ME 04103"]}, "phone": "+12078748001", "display_phone": "(207) 874-8001", "distance": 1141.530460495875}, {"id": "-s28wKHPaxdjs2HF1It2ng", "alias": "bubble-maineia-portland", "name": "Bubble Maineia", "image_url": "https://s3-media1.fl.yelpcdn.com/bphoto/Hy-zUmIcq7qMFXDSdkXB9A/o.jpg", "is_closed": false, "url": "https://www.yelp.com/biz/bubble-maineia-portland?adjust_creative=vyhy616UjsMTA_hrWyg_5w&utm_campaign=yelp_api_v3&utm_medium=api_v3_business_search&utm_source=vyhy616UjsMTA_hrWyg_5w", "review_count": 140, "categories": [{"alias": "taiwanese", "title": "Taiwanese"}, {"alias": "chinese", "title": "Chinese"}, {"alias": "asianfusion", "title": "Asian Fusion"}], "rating": 4.0, "coordinates": {"latitude": 43.65752, "longitude": -70.25637}, "transactions": ["pickup", "delivery"], "price": "$", "location": {"address1": "15 Temple St", "address2": "", "address3": "", "city": "Portland", "zip_code": "04101", "country": "US", "state": "ME", "display_address": ["15 Temple St", "Portland, ME 04101"]}, "phone": "+12077739559", "display_phone": "(207) 773-9559", "distance": 1596.8360419950416}, {"id": "6lwBkdgNU4UkXPkCOH08dg", "alias": "banh-appetit-portland", "name": "Banh Appetit", "image_url": "https://s3-media1.fl.yelpcdn.com/bphoto/KS4kISIwGsdGkEVy3ReSnw/o.jpg", "is_closed": false, "url": "https://www.yelp.com/biz/banh-appetit-portland?adjust_creative=vyhy616UjsMTA_hrWyg_5w&utm_campaign=yelp_api_v3&utm_medium=api_v3_business_search&utm_source=vyhy616UjsMTA_hrWyg_5w", "review_count": 44, "categories": [{"alias": "vietnamese", "title": "Vietnamese"}, {"alias": "sandwiches", "title": "Sandwiches"}], "rating": 5.0, "coordinates": {"latitude": 43.662527, "longitude": -70.25436}, "transactions": ["delivery"], "location": {"address1": "171 Cumberland Ave", "address2": "", "address3": null, "city": "Portland", "zip_code": "04101", "country": "US", "state": "ME", "display_address": ["171 Cumberland Ave", "Portland, ME 04101"]}, "phone": "+12076139399", "display_phone": "(207) 613-9399", "distance": 1495.4012682512357}, {"id": "m0kAh6QI1mEUenPta6f_cA", "alias": "pho-huong-portland", "name": "Pho Huong", "image_url": "https://s3-media3.fl.yelpcdn.com/bphoto/m2Cj7SuMmpUjFKT0iVarcA/o.jpg", "is_closed": false, "url": "https://www.yelp.com/biz/pho-huong-portland?adjust_creative=vyhy616UjsMTA_hrWyg_5w&utm_campaign=yelp_api_v3&utm_medium=api_v3_business_search&utm_source=vyhy616UjsMTA_hrWyg_5w", "review_count": 5, "categories": [{"alias": "vietnamese", "title": "Vietnamese"}], "rating": 5.0, "coordinates": {"latitude": 43.656968, "longitude": -70.259096}, "transactions": [], "location": {"address1": "28 Monument Sq", "address2": "Fl 2", "address3": "", "city": "Portland", "zip_code": "04101", "country": "US", "state": "ME", "display_address": ["28 Monument Sq", "Fl 2", "Portland, ME 04101"]}, "phone": "+12074059018", "display_phone": "(207) 405-9018", "distance": 1492.2896776247476}, {"id": "ZiBASNF0RXmdJW90xhmb0g", "alias": "jing-yan-portland", "name": "Jing Yan", "image_url": "https://s3-media3.fl.yelpcdn.com/bphoto/vzjPwa2ECpFyZYBgVSaxoA/o.jpg", "is_closed": false, "url": "https://www.yelp.com/biz/jing-yan-portland?adjust_creative=vyhy616UjsMTA_hrWyg_5w&utm_campaign=yelp_api_v3&utm_medium=api_v3_business_search&utm_source=vyhy616UjsMTA_hrWyg_5w", "review_count": 10, "categories": [{"alias": "chinese", "title": "Chinese"}], "rating": 4.0, "coordinates": {"latitude": 43.6666, "longitude": -70.24669}, "transactions": ["pickup", "delivery"], "location": {"address1": "90 Congress St", "address2": null, "address3": "", "city": "Portland", "zip_code": "04101", "country": "US", "state": "ME", "display_address": ["90 Congress St", "Portland, ME 04101"]}, "phone": "+12078350010", "display_phone": "(207) 835-0010", "distance": 2029.8931054654176}, {"id": "4pLOc-hETcvopT20h_6A9w", "alias": "eventide-oyster-company-portland-2", "name": "Eventide Oyster Company", "image_url": "https://s3-media1.fl.yelpcdn.com/bphoto/x59hv3KQrmsHxObSrcxqew/o.jpg", "is_closed": false, "url": "https://www.yelp.com/biz/eventide-oyster-company-portland-2?adjust_creative=vyhy616UjsMTA_hrWyg_5w&utm_campaign=yelp_api_v3&utm_medium=api_v3_business_search&utm_source=vyhy616UjsMTA_hrWyg_5w", "review_count": 3161, "categories": [{"alias": "seafood", "title": "Seafood"}], "rating": 4.5, "coordinates": {"latitude": 43.65943, "longitude": -70.25123}, "transactions": ["delivery"], "price": "$$", "location": {"address1": "86 Middle St", "address2": "", "address3": "", "city": "Portland", "zip_code": "04101", "country": "US", "state": "ME", "display_address": ["86 Middle St", "Portland, ME 04101"]}, "phone": "+12077748538", "display_phone": "(207) 774-8538", "distance": 1857.0962965566903}, {"id": "8pV_n-dq4skeMZaulLzKgg", "alias": "phoever-maine-vietnamese-bar-and-grill-westbrook", "name": "Phoever Maine Vietnamese Bar & Grill", "image_url": "https://s3-media2.fl.yelpcdn.com/bphoto/wZpqHfeN7RflHPXdLc04Uw/o.jpg", "is_closed": false, "url": "https://www.yelp.com/biz/phoever-maine-vietnamese-bar-and-grill-westbrook?adjust_creative=vyhy616UjsMTA_hrWyg_5w&utm_campaign=yelp_api_v3&utm_medium=api_v3_business_search&utm_source=vyhy616UjsMTA_hrWyg_5w", "review_count": 190, "categories": [{"alias": "vietnamese", "title": "Vietnamese"}, {"alias": "soup", "title": "Soup"}, {"alias": "cocktailbars", "title": "Cocktail Bars"}], "rating": 4.0, "coordinates": {"latitude": 43.6777334611162, "longitude": -70.3349377262807}, "transactions": ["delivery"], "price": "$$", "location": {"address1": "100 Larrabee Rd", "address2": null, "address3": "", "city": "Westbrook", "zip_code": "04092", "country": "US", "state": "ME", "display_address": ["100 Larrabee Rd", "Westbrook, ME 04092"]}, "phone": "+12078879093", "display_phone": "(207) 887-9093", "distance": 5211.570627043838}, {"id": "c4rrBGnrRJS_k0C-2lL7Rw", "alias": "vientiane-market-portland", "name": "Vientiane Market", "image_url": "https://s3-media1.fl.yelpcdn.com/bphoto/mWEtPoC-ZRk4TMr2GI1zrA/o.jpg", "is_closed": false, "url": "https://www.yelp.com/biz/vientiane-market-portland?adjust_creative=vyhy616UjsMTA_hrWyg_5w&utm_campaign=yelp_api_v3&utm_medium=api_v3_business_search&utm_source=vyhy616UjsMTA_hrWyg_5w", "review_count": 76, "categories": [{"alias": "thai", "title": "Thai"}], "rating": 4.5, "coordinates": {"latitude": 43.66387, "longitude": -70.28455}, "transactions": [], "price": "$", "location": {"address1": "157 Noyes St", "address2": "", "address3": "", "city": "Portland", "zip_code": "04103", "country": "US", "state": "ME", "display_address": ["157 Noyes St", "Portland, ME 04103"]}, "phone": "+12077747311", "display_phone": "(207) 774-7311", "distance": 1056.354560015238}, {"id": "V2sf1nCGjyFYwHJ_detCow", "alias": "sabieng-portland-2", "name": "Sabieng", "image_url": "https://s3-media4.fl.yelpcdn.com/bphoto/Rc2NktGBcjPHZCmJqDqIDA/o.jpg", "is_closed": false, "url": "https://www.yelp.com/biz/sabieng-portland-2?adjust_creative=vyhy616UjsMTA_hrWyg_5w&utm_campaign=yelp_api_v3&utm_medium=api_v3_business_search&utm_source=vyhy616UjsMTA_hrWyg_5w", "review_count": 52, "categories": [{"alias": "thai", "title": "Thai"}], "rating": 4.0, "coordinates": {"latitude": 43.6553211635856, "longitude": -70.2630078792572}, "transactions": ["delivery"], "price": "$$", "location": {"address1": "21 Forest Ave", "address2": null, "address3": "", "city": "Portland", "zip_code": "04101", "country": "US", "state": "ME", "display_address": ["21 Forest Ave", "Portland, ME 04101"]}, "phone": "+12072535311", "display_phone": "(207) 253-5311", "distance": 1449.078399270839}, {"id": "Ei0ZUPMcHzYo_MBGF_ouAg", "alias": "little-sichuan-portland", "name": "Little Sichuan", "image_url": "https://s3-media3.fl.yelpcdn.com/bphoto/rpyKkslUzDGieL7LMTkbVw/o.jpg", "is_closed": false, "url": "https://www.yelp.com/biz/little-sichuan-portland?adjust_creative=vyhy616UjsMTA_hrWyg_5w&utm_campaign=yelp_api_v3&utm_medium=api_v3_business_search&utm_source=vyhy616UjsMTA_hrWyg_5w", "review_count": 6, "categories": [{"alias": "chinese", "title": "Chinese"}], "rating": 5.0, "coordinates": {"latitude": 43.656956, "longitude": -70.259076}, "transactions": ["delivery"], "location": {"address1": "28 Monument Sq", "address2": "", "address3": null, "city": "Portland", "zip_code": "04101", "country": "US", "state": "ME", "display_address": ["28 Monument Sq", "Portland, ME 04101"]}, "phone": "", "display_phone": "", "distance": 1494.3672837190677}, {"id": "Fz_WQlCnMUD8p5LGHe5Dyw", "alias": "asia-restaurant-south-portland-2", "name": "Asia Restaurant", "image_url": "https://s3-media4.fl.yelpcdn.com/bphoto/5T8XOvHiAb1dcEL3hyL_3w/o.jpg", "is_closed": false, "url": "https://www.yelp.com/biz/asia-restaurant-south-portland-2?adjust_creative=vyhy616UjsMTA_hrWyg_5w&utm_campaign=yelp_api_v3&utm_medium=api_v3_business_search&utm_source=vyhy616UjsMTA_hrWyg_5w", "review_count": 39, "categories": [{"alias": "cantonese", "title": "Cantonese"}, {"alias": "szechuan", "title": "Szechuan"}, {"alias": "buffets", "title": "Buffets"}], "rating": 3.5, "coordinates": {"latitude": 43.6352232719171, "longitude": -70.2541734053858}, "transactions": ["pickup", "delivery"], "price": "$", "location": {"address1": "50 Market St", "address2": "", "address3": "", "city": "South Portland", "zip_code": "04106", "country": "US", "state": "ME", "display_address": ["50 Market St", "South Portland, ME 04106"]}, "phone": "+12077671882", "display_phone": "(207) 767-1882", "distance": 3773.7441382951993}, {"id": "HbCg_n_FAtKEWhOB1VTg4g", "alias": "sapporo-restaurant-portland-2", "name": "Sapporo Restaurant", "image_url": "https://s3-media2.fl.yelpcdn.com/bphoto/h518cYsF0VzQBKbfjvC_wQ/o.jpg", "is_closed": false, "url": "https://www.yelp.com/biz/sapporo-restaurant-portland-2?adjust_creative=vyhy616UjsMTA_hrWyg_5w&utm_campaign=yelp_api_v3&utm_medium=api_v3_business_search&utm_source=vyhy616UjsMTA_hrWyg_5w", "review_count": 142, "categories": [{"alias": "japanese", "title": "Japanese"}, {"alias": "sushi", "title": "Sushi Bars"}], "rating": 3.5, "coordinates": {"latitude": 43.6549888083803, "longitude": -70.2538959284551}, "transactions": ["delivery"], "price": "$$", "location": {"address1": "230 Commercial St", "address2": "", "address3": "", "city": "Portland", "zip_code": "04101", "country": "US", "state": "ME", "display_address": ["230 Commercial St", "Portland, ME 04101"]}, "phone": "+12077721233", "display_phone": "(207) 772-1233", "distance": 1946.8722874433774}, {"id": "LmJ7U0RPugawXRCfhhONNw", "alias": "veranda-noodle-bar-portland", "name": "Veranda Noodle Bar", "image_url": "https://s3-media2.fl.yelpcdn.com/bphoto/t5kYMzzBQIMQvgMiSEhBpw/o.jpg", "is_closed": false, "url": "https://www.yelp.com/biz/veranda-noodle-bar-portland?adjust_creative=vyhy616UjsMTA_hrWyg_5w&utm_campaign=yelp_api_v3&utm_medium=api_v3_business_search&utm_source=vyhy616UjsMTA_hrWyg_5w", "review_count": 79, "categories": [{"alias": "vietnamese", "title": "Vietnamese"}, {"alias": "noodles", "title": "Noodles"}], "rating": 3.5, "coordinates": {"latitude": 43.6807824545902, "longitude": -70.2572666806493}, "transactions": ["pickup", "delivery"], "price": "$$", "location": {"address1": "14 Veranda St", "address2": null, "address3": null, "city": "Portland", "zip_code": "04103", "country": "US", "state": "ME", "display_address": ["14 Veranda St", "Portland, ME 04103"]}, "phone": "+12078749090", "display_phone": "(207) 874-9090", "distance": 1970.3610188788655}, {"id": "LapbLyTkLAKdxS2ToAkk0g", "alias": "kushiya-benkay-portland", "name": "Kushiya Benkay", "image_url": "https://s3-media2.fl.yelpcdn.com/bphoto/dtvxFbyPnV_av4GUEVvxcw/o.jpg", "is_closed": false, "url": "https://www.yelp.com/biz/kushiya-benkay-portland?adjust_creative=vyhy616UjsMTA_hrWyg_5w&utm_campaign=yelp_api_v3&utm_medium=api_v3_business_search&utm_source=vyhy616UjsMTA_hrWyg_5w", "review_count": 86, "categories": [{"alias": "japanese", "title": "Japanese"}, {"alias": "sushi", "title": "Sushi Bars"}, {"alias": "bars", "title": "Bars"}], "rating": 4.0, "coordinates": {"latitude": 43.65345, "longitude": -70.26568}, "transactions": [], "price": "$$", "location": {"address1": "653 Congress St", "address2": "", "address3": "", "city": "Portland", "zip_code": "04101", "country": "US", "state": "ME", "display_address": ["653 Congress St", "Portland, ME 04101"]}, "phone": "+12076197505", "display_phone": "(207) 619-7505", "distance": 1547.8167941004733}, {"id": "GwMI5lBjDk_NlDF-PqFt8w", "alias": "the-highroller-lobster-portland-2", "name": "The HighRoller Lobster", "image_url": "https://s3-media4.fl.yelpcdn.com/bphoto/E_X1c6ccwcxgqtumywaOug/o.jpg", "is_closed": false, "url": "https://www.yelp.com/biz/the-highroller-lobster-portland-2?adjust_creative=vyhy616UjsMTA_hrWyg_5w&utm_campaign=yelp_api_v3&utm_medium=api_v3_business_search&utm_source=vyhy616UjsMTA_hrWyg_5w", "review_count": 878, "categories": [{"alias": "seafood", "title": "Seafood"}, {"alias": "tradamerican", "title": "American (Traditional)"}, {"alias": "beerbar", "title": "Beer Bar"}], "rating": 4.5, "coordinates": {"latitude": 43.658297, "longitude": -70.256063}, "transactions": ["pickup", "delivery"], "price": "$$", "location": {"address1": "104 Exchange St", "address2": "", "address3": "", "city": "Portland", "zip_code": "04101", "country": "US", "state": "ME", "display_address": ["104 Exchange St", "Portland, ME 04101"]}, "phone": "+12075361623", "display_phone": "(207) 536-1623", "distance": 1580.2337642549521}, {"id": "XsGyk3AaOCtDFYBUBaabHA", "alias": "hong-kong-market-portland", "name": "Hong Kong Market", "image_url": "https://s3-media3.fl.yelpcdn.com/bphoto/8Aqifc_wi-CkP5LJDrHivA/o.jpg", "is_closed": false, "url": "https://www.yelp.com/biz/hong-kong-market-portland?adjust_creative=vyhy616UjsMTA_hrWyg_5w&utm_campaign=yelp_api_v3&utm_medium=api_v3_business_search&utm_source=vyhy616UjsMTA_hrWyg_5w", "review_count": 23, "categories": [{"alias": "intlgrocery", "title": "International Grocery"}], "rating": 4.0, "coordinates": {"latitude": 43.6537999, "longitude": -70.27925}, "transactions": [], "price": "$", "location": {"address1": "945 Congress St", "address2": null, "address3": null, "city": "Portland", "zip_code": "04102", "country": "US", "state": "ME", "display_address": ["945 Congress St", "Portland, ME 04102"]}, "phone": "+12077728688", "display_phone": "(207) 772-8688", "distance": 1539.5044833506977}, {"id": "rqKPuHlp8G-QLmZUa0n-ig", "alias": "luiss-arepera-portland-2", "name": "Luis's Arepera", "image_url": "https://s3-media4.fl.yelpcdn.com/bphoto/l-AV53UoTbGse4ITeCnMGw/o.jpg", "is_closed": false, "url": "https://www.yelp.com/biz/luiss-arepera-portland-2?adjust_creative=vyhy616UjsMTA_hrWyg_5w&utm_campaign=yelp_api_v3&utm_medium=api_v3_business_search&utm_source=vyhy616UjsMTA_hrWyg_5w", "review_count": 147, "categories": [{"alias": "venezuelan", "title": "Venezuelan"}, {"alias": "gluten_free", "title": "Gluten-Free"}], "rating": 4.5, "coordinates": {"latitude": 43.68002, "longitude": -70.28924}, "transactions": ["pickup", "delivery"], "price": "$", "location": {"address1": "948 Forest Ave", "address2": null, "address3": null, "city": "Portland", "zip_code": "04103", "country": "US", "state": "ME", "display_address": ["948 Forest Ave", "Portland, ME 04103"]}, "phone": "+12072868646", "display_phone": "(207) 286-8646", "distance": 2048.2983103088395}, {"id": "XXiDK3Z3MoQgpgZmgCCJkw", "alias": "evergreen-chinese-restaurant-south-portland", "name": "Evergreen Chinese Restaurant", "image_url": "https://s3-media2.fl.yelpcdn.com/bphoto/DV2TkTkUOIgIZG3Kl-0MPA/o.jpg", "is_closed": false, "url": "https://www.yelp.com/biz/evergreen-chinese-restaurant-south-portland?adjust_creative=vyhy616UjsMTA_hrWyg_5w&utm_campaign=yelp_api_v3&utm_medium=api_v3_business_search&utm_source=vyhy616UjsMTA_hrWyg_5w", "review_count": 75, "categories": [{"alias": "chinese", "title": "Chinese"}], "rating": 4.0, "coordinates": {"latitude": 43.634329, "longitude": -70.3163074}, "transactions": ["delivery"], "price": "$", "location": {"address1": "29 Western Ave", "address2": "", "address3": "", "city": "South Portland", "zip_code": "04106", "country": "US", "state": "ME", "display_address": ["29 Western Ave", "South Portland, ME 04106"]}, "phone": "+12077718866", "display_phone": "(207) 771-8866", "distance": 5060.225793184191}, {"id": "MGErU6ux7-BxYD9x0bqo8Q", "alias": "pho-co-variety-westbrook", "name": "Pho Co Variety", "image_url": "https://s3-media3.fl.yelpcdn.com/bphoto/bIQS2Owid0dSIlv0OuKRCQ/o.jpg", "is_closed": false, "url": "https://www.yelp.com/biz/pho-co-variety-westbrook?adjust_creative=vyhy616UjsMTA_hrWyg_5w&utm_campaign=yelp_api_v3&utm_medium=api_v3_business_search&utm_source=vyhy616UjsMTA_hrWyg_5w", "review_count": 13, "categories": [{"alias": "vietnamese", "title": "Vietnamese"}, {"alias": "asianfusion", "title": "Asian Fusion"}, {"alias": "bubbletea", "title": "Bubble Tea"}], "rating": 4.0, "coordinates": {"latitude": 43.671214, "longitude": -70.360697}, "transactions": ["delivery"], "price": "$", "location": {"address1": "158 Spring St", "address2": "", "address3": null, "city": "Westbrook", "zip_code": "04092", "country": "US", "state": "ME", "display_address": ["158 Spring St", "Westbrook, ME 04092"]}, "phone": "+12074095822", "display_phone": "(207) 409-5822", "distance": 7153.917067608575}, {"id": "2QEKLsB6n2y7sdr_W4UxBQ", "alias": "poms-thai-restaurant-south-portland", "name": "Pom's Thai Restaurant", "image_url": "https://s3-media2.fl.yelpcdn.com/bphoto/op_RDPAe4HW_UK7yI1SQSQ/o.jpg", "is_closed": false, "url": "https://www.yelp.com/biz/poms-thai-restaurant-south-portland?adjust_creative=vyhy616UjsMTA_hrWyg_5w&utm_campaign=yelp_api_v3&utm_medium=api_v3_business_search&utm_source=vyhy616UjsMTA_hrWyg_5w", "review_count": 99, "categories": [{"alias": "thai", "title": "Thai"}], "rating": 3.5, "coordinates": {"latitude": 43.6367947608232, "longitude": -70.3220620751381}, "transactions": ["pickup", "delivery"], "price": "$$", "location": {"address1": "209 Western Ave", "address2": "", "address3": "", "city": "South Portland", "zip_code": "04106", "country": "US", "state": "ME", "display_address": ["209 Western Ave", "South Portland, ME 04106"]}, "phone": "+12073473000", "display_phone": "(207) 347-3000", "distance": 5132.182484160975}], "total": 80, "region": {"center": {"longitude": -70.27198791503906, "latitude": 43.66661831770135}}}