{"businesses": [{"id": "Q29r313KvqpOhaBiQwYolw", "alias": "blue-koi-noodles-and-dumplings-kansas-city-3", "name": "Blue Koi Noodles & Dumplings", "image_url": "https://s3-media1.fl.yelpcdn.com/bphoto/_tbCMyxGN9OIPrIkY7tYqg/o.jpg", "is_closed": false, "url": "https://www.yelp.com/biz/blue-koi-noodles-and-dumplings-kansas-city-3?adjust_creative=vyhy616UjsMTA_hrWyg_5w&utm_campaign=yelp_api_v3&utm_medium=api_v3_business_search&utm_source=vyhy616UjsMTA_hrWyg_5w", "review_count": 561, "categories": [{"alias": "chinese", "title": "Chinese"}], "rating": 4.5, "coordinates": {"latitude": 39.0572802722454, "longitude": -94.6062279492617}, "transactions": ["delivery"], "price": "$$", "location": {"address1": "1803 W 39th St", "address2": "", "address3": "", "city": "Kansas City", "zip_code": "64111", "country": "US", "state": "MO", "display_address": ["1803 W 39th St", "Kansas City, MO 64111"]}, "phone": "+18165615003", "display_phone": "(816) 561-5003", "distance": 3596.8407360151396}, {"id": "mFrRCK7Q7DHxj09noHfuPw", "alias": "vietnam-cafe-kansas-city", "name": "Vietnam Cafe", "image_url": "https://s3-media4.fl.yelpcdn.com/bphoto/0icip4O-Hyevn-ItsrUMZQ/o.jpg", "is_closed": false, "url": "https://www.yelp.com/biz/vietnam-cafe-kansas-city?adjust_creative=vyhy616UjsMTA_hrWyg_5w&utm_campaign=yelp_api_v3&utm_medium=api_v3_business_search&utm_source=vyhy616UjsMTA_hrWyg_5w", "review_count": 651, "categories": [{"alias": "vietnamese", "title": "Vietnamese"}], "rating": 4.5, "coordinates": {"latitude": 39.1093329, "longitude": -94.5732875}, "transactions": ["delivery"], "price": "$", "location": {"address1": "522 Campbell St", "address2": "", "address3": "", "city": "Kansas City", "zip_code": "64106", "country": "US", "state": "MO", "display_address": ["522 Campbell St", "Kansas City, MO 64106"]}, "phone": "+18164724888", "display_phone": "(816) 472-4888", "distance": 3013.2059570555234}, {"id": "l3dWPzUllRCmWhH93FqI4A", "alias": "kobi-q-kansas-city", "name": "Kobi-Q", "image_url": "https://s3-media1.fl.yelpcdn.com/bphoto/Kb-hWrp1kEKlyusyRGNP-Q/o.jpg", "is_closed": false, "url": "https://www.yelp.com/biz/kobi-q-kansas-city?adjust_creative=vyhy616UjsMTA_hrWyg_5w&utm_campaign=yelp_api_v3&utm_medium=api_v3_business_search&utm_source=vyhy616UjsMTA_hrWyg_5w", "review_count": 172, "categories": [{"alias": "korean", "title": "Korean"}, {"alias": "panasian", "title": "Pan Asian"}], "rating": 4.0, "coordinates": {"latitude": 39.09469, "longitude": -94.5808}, "transactions": ["delivery", "pickup"], "price": "$$", "location": {"address1": "1531 Grand Blvd", "address2": "", "address3": null, "city": "Kansas City", "zip_code": "64108", "country": "US", "state": "MO", "display_address": ["1531 Grand Blvd", "Kansas City, MO 64108"]}, "phone": "+18167028844", "display_phone": "(816) 702-8844", "distance": 1300.071367413961}, {"id": "Rs7UHcXm5CcYOnYzJCCUOA", "alias": "ssongs-hot-dog-overland-park", "name": "Ssong's Hot Dog", "image_url": "https://s3-media3.fl.yelpcdn.com/bphoto/tJNcEPP8MHmF_EC0bVK0BA/o.jpg", "is_closed": false, "url": "https://www.yelp.com/biz/ssongs-hot-dog-overland-park?adjust_creative=vyhy616UjsMTA_hrWyg_5w&utm_campaign=yelp_api_v3&utm_medium=api_v3_business_search&utm_source=vyhy616UjsMTA_hrWyg_5w", "review_count": 7, "categories": [{"alias": "korean", "title": "Korean"}, {"alias": "hotdog", "title": "Hot Dogs"}], "rating": 4.5, "coordinates": {"latitude": 38.94080014807663, "longitude": -94.66941006481646}, "transactions": [], "location": {"address1": "10308 Metcalf Ave", "address2": "", "address3": null, "city": "Overland Park", "zip_code": "66212", "country": "US", "state": "KS", "display_address": ["10308 Metcalf Ave", "Overland Park, KS 66212"]}, "phone": "+19134865836", "display_phone": "(913) 486-5836", "distance": 17548.186529062306}, {"id": "qxXjJv1nKxtQBOTlHAuj3Q", "alias": "boru-asian-eatery-kansas-city", "name": "Boru Asian Eatery", "image_url": "https://s3-media1.fl.yelpcdn.com/bphoto/_xjZZS4XUTXdul8mKepkoA/o.jpg", "is_closed": false, "url": "https://www.yelp.com/biz/boru-asian-eatery-kansas-city?adjust_creative=vyhy616UjsMTA_hrWyg_5w&utm_campaign=yelp_api_v3&utm_medium=api_v3_business_search&utm_source=vyhy616UjsMTA_hrWyg_5w", "review_count": 399, "categories": [{"alias": "japanese", "title": "Japanese"}, {"alias": "korean", "title": "Korean"}, {"alias": "chinese", "title": "Chinese"}], "rating": 4.0, "coordinates": {"latitude": 38.9926349, "longitude": -94.5954754}, "transactions": ["delivery", "pickup"], "price": "$$", "location": {"address1": "500 W 75th St", "address2": null, "address3": "", "city": "Kansas City", "zip_code": "64114", "country": "US", "state": "MO", "display_address": ["500 W 75th St", "Kansas City, MO 64114"]}, "phone": "+18165413651", "display_phone": "(816) 541-3651", "distance": 10123.127332708009}, {"id": "9SZcbNXgz_rEwSHYAq4Rcw", "alias": "abc-cafe-overland-park", "name": "ABC Cafe", "image_url": "https://s3-media3.fl.yelpcdn.com/bphoto/Fg8OWI4RfdxvQdYeRkK0Tw/o.jpg", "is_closed": false, "url": "https://www.yelp.com/biz/abc-cafe-overland-park?adjust_creative=vyhy616UjsMTA_hrWyg_5w&utm_campaign=yelp_api_v3&utm_medium=api_v3_business_search&utm_source=vyhy616UjsMTA_hrWyg_5w", "review_count": 451, "categories": [{"alias": "dimsum", "title": "Dim Sum"}, {"alias": "seafood", "title": "Seafood"}, {"alias": "soup", "title": "Soup"}], "rating": 4.5, "coordinates": {"latitude": 38.97079, "longitude": -94.70167}, "transactions": ["delivery"], "price": "$$", "location": {"address1": "10001 W 87th St", "address2": "", "address3": "", "city": "Overland Park", "zip_code": "66212", "country": "US", "state": "KS", "display_address": ["10001 W 87th St", "Overland Park, KS 66212"]}, "phone": "+19138590089", "display_phone": "(913) 859-0089", "distance": 16249.172123241766}, {"id": "OvE87s8FL1KL5rSGL34rXQ", "alias": "saki-asian-restaurant-kansas-city-2", "name": "Saki Asian restaurant", "image_url": "https://s3-media2.fl.yelpcdn.com/bphoto/SdRCYBBZoek_i3E2krThsA/o.jpg", "is_closed": false, "url": "https://www.yelp.com/biz/saki-asian-restaurant-kansas-city-2?adjust_creative=vyhy616UjsMTA_hrWyg_5w&utm_campaign=yelp_api_v3&utm_medium=api_v3_business_search&utm_source=vyhy616UjsMTA_hrWyg_5w", "review_count": 145, "categories": [{"alias": "asianfusion", "title": "Asian Fusion"}], "rating": 4.0, "coordinates": {"latitude": 39.209944, "longitude": -94.64086}, "transactions": ["delivery", "pickup"], "price": "$$", "location": {"address1": "5225 NW 64th St", "address2": "", "address3": "", "city": "Kansas City", "zip_code": "64151", "country": "US", "state": "MO", "display_address": ["5225 NW 64th St", "Kansas City, MO 64151"]}, "phone": "+18165848888", "display_phone": "(816) 584-8888", "distance": 15021.897381189308}, {"id": "5dl1oXaR25OfChO7aNIRbw", "alias": "bun-mee-phan-kansas-city", "name": "Bun Mee Phan", "image_url": "https://s3-media3.fl.yelpcdn.com/bphoto/qdp1TzQsQ8cAASh7i4pIeA/o.jpg", "is_closed": false, "url": "https://www.yelp.com/biz/bun-mee-phan-kansas-city?adjust_creative=vyhy616UjsMTA_hrWyg_5w&utm_campaign=yelp_api_v3&utm_medium=api_v3_business_search&utm_source=vyhy616UjsMTA_hrWyg_5w", "review_count": 260, "categories": [{"alias": "vietnamese", "title": "Vietnamese"}, {"alias": "asianfusion", "title": "Asian Fusion"}, {"alias": "sandwiches", "title": "Sandwiches"}], "rating": 4.5, "coordinates": {"latitude": 39.167427, "longitude": -94.576282}, "transactions": ["delivery"], "price": "$", "location": {"address1": "4011 N Oak Traffic Way", "address2": null, "address3": "", "city": "Kansas City", "zip_code": "64116", "country": "US", "state": "MO", "display_address": ["4011 N Oak Traffic Way", "Kansas City, MO 64116"]}, "phone": "+18165996603", "display_phone": "(816) 599-6603", "distance": 9398.815069067612}, {"id": "NU4tgKSpFLwztlOsGPGbpQ", "alias": "mama-ramen-kansas-city", "name": "Mama Ramen", "image_url": "https://s3-media2.fl.yelpcdn.com/bphoto/dyRi5yTU6-7mM8smD2_IWA/o.jpg", "is_closed": false, "url": "https://www.yelp.com/biz/mama-ramen-kansas-city?adjust_creative=vyhy616UjsMTA_hrWyg_5w&utm_campaign=yelp_api_v3&utm_medium=api_v3_business_search&utm_source=vyhy616UjsMTA_hrWyg_5w", "review_count": 51, "categories": [{"alias": "ramen", "title": "Ramen"}], "rating": 3.5, "coordinates": {"latitude": 39.095262, "longitude": -94.580964}, "transactions": ["delivery"], "price": "$$", "location": {"address1": "1513 Grand Blvd", "address2": "Ste A", "address3": null, "city": "Kansas City", "zip_code": "64108", "country": "US", "state": "MO", "display_address": ["1513 Grand Blvd", "Ste A", "Kansas City, MO 64108"]}, "phone": "+18168008900", "display_phone": "(816) 800-8900", "distance": 1364.7798024607048}, {"id": "JWvpDSqOV6FIbxk5f9o0Pw", "alias": "gyu-kaku-japanese-bbq-overland-park-2", "name": "Gyu-Kaku Japanese BBQ", "image_url": "https://s3-media2.fl.yelpcdn.com/bphoto/c_okXGPWcmNzZX1nCUq-RA/o.jpg", "is_closed": false, "url": "https://www.yelp.com/biz/gyu-kaku-japanese-bbq-overland-park-2?adjust_creative=vyhy616UjsMTA_hrWyg_5w&utm_campaign=yelp_api_v3&utm_medium=api_v3_business_search&utm_source=vyhy616UjsMTA_hrWyg_5w", "review_count": 64, "categories": [{"alias": "japanese", "title": "Japanese"}, {"alias": "bbq", "title": "Barbeque"}, {"alias": "asianfusion", "title": "Asian Fusion"}], "rating": 4.5, "coordinates": {"latitude": 38.839284824362494, "longitude": -94.68168725337328}, "transactions": ["delivery"], "location": {"address1": "7865 W 159th St", "address2": "", "address3": null, "city": "Overland Park", "zip_code": "66223", "country": "US", "state": "KS", "display_address": ["7865 W 159th St", "Overland Park, KS 66223"]}, "phone": "+19136819788", "display_phone": "(913) 681-9788", "distance": 28454.99019487485}, {"id": "FMbHAZfDDs_-IWexe7DB-g", "alias": "bangkok-kitchen-kansas-city", "name": "Bangkok Kitchen", "image_url": "https://s3-media2.fl.yelpcdn.com/bphoto/uQUgKUXEjnPysI1l-HTs1Q/o.jpg", "is_closed": false, "url": "https://www.yelp.com/biz/bangkok-kitchen-kansas-city?adjust_creative=vyhy616UjsMTA_hrWyg_5w&utm_campaign=yelp_api_v3&utm_medium=api_v3_business_search&utm_source=vyhy616UjsMTA_hrWyg_5w", "review_count": 61, "categories": [{"alias": "thai", "title": "Thai"}], "rating": 4.5, "coordinates": {"latitude": 39.055793, "longitude": -94.612186}, "transactions": ["delivery", "pickup"], "location": {"address1": "3934 Rainbow Blvd", "address2": null, "address3": "", "city": "Kansas City", "zip_code": "66103", "country": "US", "state": "KS", "display_address": ["3934 Rainbow Blvd", "Kansas City, KS 66103"]}, "phone": "+19137661710", "display_phone": "(913) 766-1710", "distance": 4031.917894355311}, {"id": "JnLnUZ_4_iXfiwUcGJYnVw", "alias": "new-peking-chinese-restaurant-kansas-city", "name": "New Peking Chinese Restaurant", "image_url": "https://s3-media2.fl.yelpcdn.com/bphoto/5aR4TeQHohk20rnoaxlpkQ/o.jpg", "is_closed": false, "url": "https://www.yelp.com/biz/new-peking-chinese-restaurant-kansas-city?adjust_creative=vyhy616UjsMTA_hrWyg_5w&utm_campaign=yelp_api_v3&utm_medium=api_v3_business_search&utm_source=vyhy616UjsMTA_hrWyg_5w", "review_count": 215, "categories": [{"alias": "chinese", "title": "Chinese"}], "rating": 4.0, "coordinates": {"latitude": 39.0524053, "longitude": -94.5927078}, "transactions": ["delivery", "pickup"], "price": "$$", "location": {"address1": "540 Westport Rd", "address2": "", "address3": "", "city": "Kansas City", "zip_code": "64111", "country": "US", "state": "MO", "display_address": ["540 Westport Rd", "Kansas City, MO 64111"]}, "phone": "+18165316969", "display_phone": "(816) 531-6969", "distance": 3514.5980855455264}, {"id": "zZ4AE8FoPDmmrJlFLrRGqA", "alias": "bibibop-asian-grill-kansas-city", "name": "BIBIBOP Asian Grill", "image_url": "https://s3-media3.fl.yelpcdn.com/bphoto/K6hxZ-bE3g0QcE8TrvdZVg/o.jpg", "is_closed": false, "url": "https://www.yelp.com/biz/bibibop-asian-grill-kansas-city?adjust_creative=vyhy616UjsMTA_hrWyg_5w&utm_campaign=yelp_api_v3&utm_medium=api_v3_business_search&utm_source=vyhy616UjsMTA_hrWyg_5w", "review_count": 49, "categories": [{"alias": "asianfusion", "title": "Asian Fusion"}, {"alias": "salad", "title": "Salad"}, {"alias": "gluten_free", "title": "Gluten-Free"}], "rating": 4.5, "coordinates": {"latitude": 38.992368, "longitude": -94.5955641}, "transactions": ["delivery"], "price": "$$", "location": {"address1": "505 W 75th St", "address2": "", "address3": null, "city": "Kansas City", "zip_code": "64114", "country": "US", "state": "MO", "display_address": ["505 W 75th St", "Kansas City, MO 64114"]}, "phone": "+18166211874", "display_phone": "(816) 621-1874", "distance": 10151.846229923001}, {"id": "HSqoLIz90ftplqMCH0G0qw", "alias": "spices-asian-restaurant-north-kansas-city", "name": "Spices Asian Restaurant", "image_url": "https://s3-media4.fl.yelpcdn.com/bphoto/Eyc0KeUdbWiuX-tLEMgghA/o.jpg", "is_closed": false, "url": "https://www.yelp.com/biz/spices-asian-restaurant-north-kansas-city?adjust_creative=vyhy616UjsMTA_hrWyg_5w&utm_campaign=yelp_api_v3&utm_medium=api_v3_business_search&utm_source=vyhy616UjsMTA_hrWyg_5w", "review_count": 240, "categories": [{"alias": "asianfusion", "title": "Asian Fusion"}], "rating": 4.0, "coordinates": {"latitude": 39.1464471, "longitude": -94.5800756}, "transactions": ["delivery", "pickup"], "price": "$$", "location": {"address1": "2417 Burlington St", "address2": null, "address3": "", "city": "North Kansas City", "zip_code": "64116", "country": "US", "state": "MO", "display_address": ["2417 Burlington St", "North Kansas City, MO 64116"]}, "phone": "+18162210981", "display_phone": "(816) 221-0981", "distance": 7036.60273089369}, {"id": "SWMuyeAyjTlcMFv3v2yjdw", "alias": "waldo-thai-kansas-city", "name": "Waldo Thai", "image_url": "https://s3-media3.fl.yelpcdn.com/bphoto/0OlbQYwLh-655ItXkqaN4A/o.jpg", "is_closed": false, "url": "https://www.yelp.com/biz/waldo-thai-kansas-city?adjust_creative=vyhy616UjsMTA_hrWyg_5w&utm_campaign=yelp_api_v3&utm_medium=api_v3_business_search&utm_source=vyhy616UjsMTA_hrWyg_5w", "review_count": 146, "categories": [{"alias": "thai", "title": "Thai"}, {"alias": "cocktailbars", "title": "Cocktail Bars"}], "rating": 4.5, "coordinates": {"latitude": 38.97477, "longitude": -94.59474}, "transactions": ["delivery"], "price": "$$", "location": {"address1": "8431 Wornall Rd", "address2": "", "address3": null, "city": "Kansas City", "zip_code": "64114", "country": "US", "state": "MO", "display_address": ["8431 Wornall Rd", "Kansas City, MO 64114"]}, "phone": "+18166051188", "display_phone": "(816) 605-1188", "distance": 12064.767620405077}, {"id": "1MookEKRlp4RtXvBtT9fjQ", "alias": "asian-buffet-kansas-city-2", "name": "Asian Buffet", "image_url": "https://s3-media1.fl.yelpcdn.com/bphoto/qyPqdvlGiqoBkk5qjN-tHA/o.jpg", "is_closed": false, "url": "https://www.yelp.com/biz/asian-buffet-kansas-city-2?adjust_creative=vyhy616UjsMTA_hrWyg_5w&utm_campaign=yelp_api_v3&utm_medium=api_v3_business_search&utm_source=vyhy616UjsMTA_hrWyg_5w", "review_count": 82, "categories": [{"alias": "buffets", "title": "Buffets"}, {"alias": "sushi", "title": "Sushi Bars"}, {"alias": "japanese", "title": "Japanese"}], "rating": 4.0, "coordinates": {"latitude": 39.245769, "longitude": -94.58789}, "transactions": ["delivery", "pickup"], "price": "$", "location": {"address1": "511 NW Barry Rd", "address2": "", "address3": "", "city": "Kansas City", "zip_code": "64155", "country": "US", "state": "MO", "display_address": ["511 NW Barry Rd", "Kansas City, MO 64155"]}, "phone": "+18164681685", "display_phone": "(816) 468-1685", "distance": 18126.326732527057}, {"id": "T4S0aprOvkjX-8Kt_eOrLg", "alias": "lotus-hot-pot-and-grill-gladstone-2", "name": "Lotus Hot Pot & Grill", "image_url": "https://s3-media3.fl.yelpcdn.com/bphoto/Cz1QOlUW0wlJbNEa9o-vnA/o.jpg", "is_closed": false, "url": "https://www.yelp.com/biz/lotus-hot-pot-and-grill-gladstone-2?adjust_creative=vyhy616UjsMTA_hrWyg_5w&utm_campaign=yelp_api_v3&utm_medium=api_v3_business_search&utm_source=vyhy616UjsMTA_hrWyg_5w", "review_count": 68, "categories": [{"alias": "vietnamese", "title": "Vietnamese"}, {"alias": "chinese", "title": "Chinese"}, {"alias": "hotpot", "title": "Hot Pot"}], "rating": 4.5, "coordinates": {"latitude": 39.2129375815411, "longitude": -94.5737326744068}, "transactions": [], "location": {"address1": "6591 N Oak Trafficway", "address2": "", "address3": null, "city": "Gladstone", "zip_code": "64118", "country": "US", "state": "MO", "display_address": ["6591 N Oak Trafficway", "Gladstone, MO 64118"]}, "phone": "+18162987901", "display_phone": "(816) 298-7901", "distance": 14464.110173331208}, {"id": "cE2OkgQyUMfQaTY43pjUDA", "alias": "lulus-thai-noodle-shop-kansas-city-3", "name": "Lulu's Thai Noodle Shop", "image_url": "https://s3-media3.fl.yelpcdn.com/bphoto/rnmJo14ibev13pVfdiGM6A/o.jpg", "is_closed": false, "url": "https://www.yelp.com/biz/lulus-thai-noodle-shop-kansas-city-3?adjust_creative=vyhy616UjsMTA_hrWyg_5w&utm_campaign=yelp_api_v3&utm_medium=api_v3_business_search&utm_source=vyhy616UjsMTA_hrWyg_5w", "review_count": 663, "categories": [{"alias": "thai", "title": "Thai"}, {"alias": "noodles", "title": "Noodles"}], "rating": 3.5, "coordinates": {"latitude": 39.0879056908574, "longitude": -94.5877270686735}, "transactions": ["delivery", "pickup"], "price": "$$", "location": {"address1": "2030 Central St", "address2": "", "address3": "", "city": "Kansas City", "zip_code": "64108", "country": "US", "state": "MO", "display_address": ["2030 Central St", "Kansas City, MO 64108"]}, "phone": "+18164748424", "display_phone": "(816) 474-8424", "distance": 778.7680321299168}, {"id": "tMSg_GugKTFAjKNT2eIcoA", "alias": "sweet-siam-thai-kansas-city", "name": "Sweet Siam Thai", "image_url": "https://s3-media2.fl.yelpcdn.com/bphoto/Qt7RpDA5whubXFFE_4aRLA/o.jpg", "is_closed": false, "url": "https://www.yelp.com/biz/sweet-siam-thai-kansas-city?adjust_creative=vyhy616UjsMTA_hrWyg_5w&utm_campaign=yelp_api_v3&utm_medium=api_v3_business_search&utm_source=vyhy616UjsMTA_hrWyg_5w", "review_count": 321, "categories": [{"alias": "thai", "title": "Thai"}], "rating": 4.0, "coordinates": {"latitude": 39.051545, "longitude": -94.590876}, "transactions": ["delivery", "pickup"], "price": "$$", "location": {"address1": "4130 Pennsylvania Ave", "address2": "", "address3": "", "city": "Kansas City", "zip_code": "64111", "country": "US", "state": "MO", "display_address": ["4130 Pennsylvania Ave", "Kansas City, MO 64111"]}, "phone": "+18164926196", "display_phone": "(816) 492-6196", "distance": 3593.0555684445294}, {"id": "h9srWTzN-DuetBis1Ikz0A", "alias": "bob-wasabi-kitchen-kansas-city", "name": "Bob Wasabi Kitchen", "image_url": "https://s3-media2.fl.yelpcdn.com/bphoto/N0kezkat33puA2F2DyB_rA/o.jpg", "is_closed": false, "url": "https://www.yelp.com/biz/bob-wasabi-kitchen-kansas-city?adjust_creative=vyhy616UjsMTA_hrWyg_5w&utm_campaign=yelp_api_v3&utm_medium=api_v3_business_search&utm_source=vyhy616UjsMTA_hrWyg_5w", "review_count": 432, "categories": [{"alias": "sushi", "title": "Sushi Bars"}, {"alias": "japanese", "title": "Japanese"}], "rating": 4.5, "coordinates": {"latitude": 39.0575970134193, "longitude": -94.6059091254527}, "transactions": ["delivery"], "price": "$$", "location": {"address1": "1726 W 39th St", "address2": null, "address3": "", "city": "Kansas  City", "zip_code": "64111", "country": "US", "state": "MO", "display_address": ["1726 W 39th St", "Kansas  City, MO 64111"]}, "phone": "+18167535797", "display_phone": "(816) 753-5797", "distance": 3533.6903426321333}, {"id": "xB1uUDd1aFKcWkSf57mx6A", "alias": "ipho-tower-kansas-city-4", "name": "iPho Tower", "image_url": "https://s3-media2.fl.yelpcdn.com/bphoto/4JEUKY0ifx_ks7ciRhzITQ/o.jpg", "is_closed": false, "url": "https://www.yelp.com/biz/ipho-tower-kansas-city-4?adjust_creative=vyhy616UjsMTA_hrWyg_5w&utm_campaign=yelp_api_v3&utm_medium=api_v3_business_search&utm_source=vyhy616UjsMTA_hrWyg_5w", "review_count": 341, "categories": [{"alias": "vietnamese", "title": "Vietnamese"}, {"alias": "sportsbars", "title": "Sports Bars"}, {"alias": "seafood", "title": "Seafood"}], "rating": 4.0, "coordinates": {"latitude": 39.0613865189808, "longitude": -94.5904372630453}, "transactions": ["delivery"], "price": "$$", "location": {"address1": "3623 Broadway St", "address2": "", "address3": "", "city": "Kansas City", "zip_code": "64111", "country": "US", "state": "MO", "display_address": ["3623 Broadway St", "Kansas City, MO 64111"]}, "phone": "+18165312353", "display_phone": "(816) 531-2353", "distance": 2507.5785764084567}, {"id": "3S0RW9h8SNBHbS0_8-BPSw", "alias": "baramee-thai-bistro-kansas-city", "name": "Baramee Thai Bistro", "image_url": "https://s3-media4.fl.yelpcdn.com/bphoto/Zx4lZ3bcj0gvdkQv8qAZwQ/o.jpg", "is_closed": false, "url": "https://www.yelp.com/biz/baramee-thai-bistro-kansas-city?adjust_creative=vyhy616UjsMTA_hrWyg_5w&utm_campaign=yelp_api_v3&utm_medium=api_v3_business_search&utm_source=vyhy616UjsMTA_hrWyg_5w", "review_count": 183, "categories": [{"alias": "thai", "title": "Thai"}], "rating": 4.5, "coordinates": {"latitude": 39.091378651991, "longitude": -94.5847295607085}, "transactions": ["delivery"], "price": "$$", "location": {"address1": "1810 Baltimore Avenue", "address2": "", "address3": null, "city": "Kansas City", "zip_code": "64108", "country": "US", "state": "MO", "display_address": ["1810 Baltimore Avenue", "Kansas City, MO 64108"]}, "phone": "+18164427070", "display_phone": "(816) 442-7070", "distance": 978.5399175240092}, {"id": "5CCx3-oy6n71JrhXoPma2w", "alias": "duck-and-roll-kansas-city", "name": "Duck and Roll", "image_url": "https://s3-media2.fl.yelpcdn.com/bphoto/0U3qua9FWRWrFFCPTLgczQ/o.jpg", "is_closed": false, "url": "https://www.yelp.com/biz/duck-and-roll-kansas-city?adjust_creative=vyhy616UjsMTA_hrWyg_5w&utm_campaign=yelp_api_v3&utm_medium=api_v3_business_search&utm_source=vyhy616UjsMTA_hrWyg_5w", "review_count": 53, "categories": [{"alias": "chinese", "title": "Chinese"}, {"alias": "bbq", "title": "Barbeque"}, {"alias": "hkcafe", "title": "Hong Kong Style Cafe"}], "rating": 3.5, "coordinates": {"latitude": 39.038944, "longitude": -94.587836}, "transactions": ["delivery", "pickup"], "location": {"address1": "4800 Main St", "address2": null, "address3": null, "city": "Kansas City", "zip_code": "64112", "country": "US", "state": "MO", "display_address": ["4800 Main St", "Kansas City, MO 64112"]}, "phone": "+18162148736", "display_phone": "(816) 214-8736", "distance": 4926.723720512164}, {"id": "yb5UNElwCD6U0Rn3mlrDyw", "alias": "gangnam-korean-restaurant-overland-park", "name": "Gangnam Korean Restaurant", "image_url": "https://s3-media1.fl.yelpcdn.com/bphoto/UelFv1RG9UM62hMKV2bPCg/o.jpg", "is_closed": false, "url": "https://www.yelp.com/biz/gangnam-korean-restaurant-overland-park?adjust_creative=vyhy616UjsMTA_hrWyg_5w&utm_campaign=yelp_api_v3&utm_medium=api_v3_business_search&utm_source=vyhy616UjsMTA_hrWyg_5w", "review_count": 110, "categories": [{"alias": "korean", "title": "Korean"}], "rating": 4.0, "coordinates": {"latitude": 38.9405521, "longitude": -94.6677949}, "transactions": ["delivery"], "price": "$$", "location": {"address1": "10326 Metcalf Ave", "address2": null, "address3": "", "city": "Overland Park", "zip_code": "66212", "country": "US", "state": "KS", "display_address": ["10326 Metcalf Ave", "Overland Park, KS 66212"]}, "phone": "+19133838888", "display_phone": "(913) 383-8888", "distance": 17552.947531780326}, {"id": "pf9i9iS3q-0xMTZ5hA-g-Q", "alias": "pine-and-bamboo-garden-shawnee-2", "name": "Pine and Bamboo Garden", "image_url": "https://s3-media2.fl.yelpcdn.com/bphoto/GRVDaaCB6Sd-Zs1nYWAx6Q/o.jpg", "is_closed": false, "url": "https://www.yelp.com/biz/pine-and-bamboo-garden-shawnee-2?adjust_creative=vyhy616UjsMTA_hrWyg_5w&utm_campaign=yelp_api_v3&utm_medium=api_v3_business_search&utm_source=vyhy616UjsMTA_hrWyg_5w", "review_count": 229, "categories": [{"alias": "dimsum", "title": "Dim Sum"}, {"alias": "cantonese", "title": "Cantonese"}], "rating": 3.5, "coordinates": {"latitude": 39.01442, "longitude": -94.71235}, "transactions": ["delivery"], "price": "$$", "location": {"address1": "10915 Shawnee Mission Pkwy", "address2": "", "address3": "", "city": "Shawnee", "zip_code": "66203", "country": "US", "state": "KS", "display_address": ["10915 Shawnee Mission Pkwy", "Shawnee, KS 66203"]}, "phone": "+19132689545", "display_phone": "(913) 268-9545", "distance": 13660.284278805313}, {"id": "FjELUUdnl5ks2_LbRaqQZQ", "alias": "prime-sushi-kansas-city-8", "name": "Prime Sushi", "image_url": "https://s3-media4.fl.yelpcdn.com/bphoto/-0v2kn-i11WjgJcuVQP_Mg/o.jpg", "is_closed": false, "url": "https://www.yelp.com/biz/prime-sushi-kansas-city-8?adjust_creative=vyhy616UjsMTA_hrWyg_5w&utm_campaign=yelp_api_v3&utm_medium=api_v3_business_search&utm_source=vyhy616UjsMTA_hrWyg_5w", "review_count": 250, "categories": [{"alias": "sushi", "title": "Sushi Bars"}, {"alias": "japanese", "title": "Japanese"}, {"alias": "bars", "title": "Bars"}], "rating": 4.0, "coordinates": {"latitude": 39.0368018896932, "longitude": -94.5874249454529}, "transactions": ["delivery", "pickup"], "price": "$$", "location": {"address1": "4980 Main St", "address2": null, "address3": "", "city": "Kansas City", "zip_code": "64112", "country": "US", "state": "MO", "display_address": ["4980 Main St", "Kansas City, MO 64112"]}, "phone": "+18169314829", "display_phone": "(816) 931-4829", "distance": 5163.151512465455}, {"id": "j_-6njossoNFd9BBKcGJ4g", "alias": "aoyama-point-hot-pot-overland-park", "name": "Aoyama Point Hot Pot", "image_url": "https://s3-media4.fl.yelpcdn.com/bphoto/WHKuezwON_ozNSuAiyh-iw/o.jpg", "is_closed": false, "url": "https://www.yelp.com/biz/aoyama-point-hot-pot-overland-park?adjust_creative=vyhy616UjsMTA_hrWyg_5w&utm_campaign=yelp_api_v3&utm_medium=api_v3_business_search&utm_source=vyhy616UjsMTA_hrWyg_5w", "review_count": 70, "categories": [{"alias": "hotpot", "title": "Hot Pot"}], "rating": 4.5, "coordinates": {"latitude": 38.8827215696, "longitude": -94.6823903}, "transactions": ["delivery", "pickup"], "price": "$$", "location": {"address1": "8327 W 135th St", "address2": null, "address3": "", "city": "Overland Park", "zip_code": "66223", "country": "US", "state": "KS", "display_address": ["8327 W 135th St", "Overland Park, KS 66223"]}, "phone": "+19132328503", "display_phone": "(913) 232-8503", "distance": 23921.857192631058}, {"id": "Wyv3Q3ajU_hOYDDt3qtZ5A", "alias": "princess-garden-restaurant-kansas-city", "name": "Princess Garden Restaurant", "image_url": "https://s3-media2.fl.yelpcdn.com/bphoto/QoO950tYMwWIHkGVsWHV4g/o.jpg", "is_closed": false, "url": "https://www.yelp.com/biz/princess-garden-restaurant-kansas-city?adjust_creative=vyhy616UjsMTA_hrWyg_5w&utm_campaign=yelp_api_v3&utm_medium=api_v3_business_search&utm_source=vyhy616UjsMTA_hrWyg_5w", "review_count": 131, "categories": [{"alias": "chinese", "title": "Chinese"}], "rating": 4.0, "coordinates": {"latitude": 38.96644, "longitude": -94.5961}, "transactions": ["delivery"], "price": "$$", "location": {"address1": "8906 Wornall Rd", "address2": "", "address3": "", "city": "Kansas City", "zip_code": "64114", "country": "US", "state": "MO", "display_address": ["8906 Wornall Rd", "Kansas City, MO 64114"]}, "phone": "+18164443709", "display_phone": "(816) 444-3709", "distance": 13039.110739314314}, {"id": "N73MFLjdIyZzJY_ZiG-rxw", "alias": "red-snapper-kansas-city", "name": "Red Snapper", "image_url": "https://s3-media2.fl.yelpcdn.com/bphoto/wEzscMV1ppAnKrAcDphBwA/o.jpg", "is_closed": false, "url": "https://www.yelp.com/biz/red-snapper-kansas-city?adjust_creative=vyhy616UjsMTA_hrWyg_5w&utm_campaign=yelp_api_v3&utm_medium=api_v3_business_search&utm_source=vyhy616UjsMTA_hrWyg_5w", "review_count": 186, "categories": [{"alias": "panasian", "title": "Pan Asian"}], "rating": 4.0, "coordinates": {"latitude": 38.97527, "longitude": -94.60745}, "transactions": ["delivery", "pickup"], "price": "$$", "location": {"address1": "8430 Ward Pkwy", "address2": null, "address3": "", "city": "Kansas City", "zip_code": "64114", "country": "US", "state": "MO", "display_address": ["8430 Ward Pkwy", "Kansas City, MO 64114"]}, "phone": "+18163338899", "display_phone": "(816) 333-8899", "distance": 12167.062829155982}, {"id": "GrpBG3lTihVrZn6yOEmFvA", "alias": "pho-sai-gon-overland-park", "name": "Pho Sai Gon", "image_url": "https://s3-media2.fl.yelpcdn.com/bphoto/fEYiDZt038K9OyAsg8ls_g/o.jpg", "is_closed": false, "url": "https://www.yelp.com/biz/pho-sai-gon-overland-park?adjust_creative=vyhy616UjsMTA_hrWyg_5w&utm_campaign=yelp_api_v3&utm_medium=api_v3_business_search&utm_source=vyhy616UjsMTA_hrWyg_5w", "review_count": 83, "categories": [{"alias": "vietnamese", "title": "Vietnamese"}], "rating": 4.5, "coordinates": {"latitude": 38.85904, "longitude": -94.66619}, "transactions": ["delivery"], "price": "$", "location": {"address1": "14861 Metcalf Ave", "address2": null, "address3": "", "city": "Overland Park", "zip_code": "66223", "country": "US", "state": "KS", "display_address": ["14861 Metcalf Ave", "Overland Park, KS 66223"]}, "phone": "+19135494620", "display_phone": "(913) 549-4620", "distance": 25960.133676860816}, {"id": "38VLdh8NrqABgh2vG5Lpvg", "alias": "genghis-khan-mongolian-barbeque-kansas-city", "name": "Genghis Khan Mongolian Barbeque", "image_url": "https://s3-media4.fl.yelpcdn.com/bphoto/S6O0idPZBguMmZDdwnH3Rw/o.jpg", "is_closed": false, "url": "https://www.yelp.com/biz/genghis-khan-mongolian-barbeque-kansas-city?adjust_creative=vyhy616UjsMTA_hrWyg_5w&utm_campaign=yelp_api_v3&utm_medium=api_v3_business_search&utm_source=vyhy616UjsMTA_hrWyg_5w", "review_count": 200, "categories": [{"alias": "mongolian", "title": "Mongolian"}, {"alias": "chinese", "title": "Chinese"}, {"alias": "bbq", "title": "Barbeque"}], "rating": 4.0, "coordinates": {"latitude": 39.056901, "longitude": -94.6062993}, "transactions": ["delivery", "pickup"], "price": "$$", "location": {"address1": "3906 Bell St", "address2": "", "address3": "", "city": "Kansas City", "zip_code": "64111", "country": "US", "state": "MO", "display_address": ["3906 Bell St", "Kansas City, MO 64111"]}, "phone": "+18167533600", "display_phone": "(816) 753-3600", "distance": 3615.844138292612}, {"id": "iHC7jRt8Fb7pDtPC98phAQ", "alias": "red-dragon-house-kansas-city", "name": "Red Dragon House", "image_url": "https://s3-media3.fl.yelpcdn.com/bphoto/OgUm2At7b0_Ic60GvbR-LQ/o.jpg", "is_closed": false, "url": "https://www.yelp.com/biz/red-dragon-house-kansas-city?adjust_creative=vyhy616UjsMTA_hrWyg_5w&utm_campaign=yelp_api_v3&utm_medium=api_v3_business_search&utm_source=vyhy616UjsMTA_hrWyg_5w", "review_count": 104, "categories": [{"alias": "chinese", "title": "Chinese"}], "rating": 3.5, "coordinates": {"latitude": 39.1048202514648, "longitude": -94.5869903564453}, "transactions": ["delivery"], "price": "$", "location": {"address1": "312 W 8th St", "address2": "", "address3": "", "city": "Kansas City", "zip_code": "64105", "country": "US", "state": "MO", "display_address": ["312 W 8th St", "Kansas City, MO 64105"]}, "phone": "+18162211388", "display_phone": "(816) 221-1388", "distance": 2484.174942921682}, {"id": "AcTGEUX6174k-GSotT8a6g", "alias": "mi-gia-kc-gladstone", "name": "Mi Gia KC", "image_url": "https://s3-media4.fl.yelpcdn.com/bphoto/Sl7Yg_7f5yefC3oOIH3KEw/o.jpg", "is_closed": false, "url": "https://www.yelp.com/biz/mi-gia-kc-gladstone?adjust_creative=vyhy616UjsMTA_hrWyg_5w&utm_campaign=yelp_api_v3&utm_medium=api_v3_business_search&utm_source=vyhy616UjsMTA_hrWyg_5w", "review_count": 35, "categories": [{"alias": "vietnamese", "title": "Vietnamese"}, {"alias": "noodles", "title": "Noodles"}], "rating": 3.5, "coordinates": {"latitude": 39.2121138925901, "longitude": -94.5738945180268}, "transactions": ["pickup"], "price": "$", "location": {"address1": "6569 N Oak Trafficway", "address2": "", "address3": null, "city": "Gladstone", "zip_code": "64118", "country": "US", "state": "MO", "display_address": ["6569 N Oak Trafficway", "Gladstone, MO 64118"]}, "phone": "+18162148048", "display_phone": "(816) 214-8048", "distance": 14371.987435937652}, {"id": "idCFuwimk6SeDdUnk-Qr1A", "alias": "tasty-thai-kansas-city", "name": "Tasty Thai", "image_url": "https://s3-media2.fl.yelpcdn.com/bphoto/1_aMXcIHiDAazguCG0VflQ/o.jpg", "is_closed": false, "url": "https://www.yelp.com/biz/tasty-thai-kansas-city?adjust_creative=vyhy616UjsMTA_hrWyg_5w&utm_campaign=yelp_api_v3&utm_medium=api_v3_business_search&utm_source=vyhy616UjsMTA_hrWyg_5w", "review_count": 254, "categories": [{"alias": "thai", "title": "Thai"}], "rating": 4.0, "coordinates": {"latitude": 39.2236723559196, "longitude": -94.6522018751812}, "transactions": ["delivery", "pickup"], "price": "$$", "location": {"address1": "7104 NW Prairie View Rd", "address2": "", "address3": "", "city": "Kansas City", "zip_code": "64151", "country": "US", "state": "MO", "display_address": ["7104 NW Prairie View Rd", "Kansas City, MO 64151"]}, "phone": "+18165848801", "display_phone": "(816) 584-8801", "distance": 16795.315435550452}, {"id": "g9z6bkvfsSUdFAmgeaO2aw", "alias": "anousone-overland-park", "name": "Anousone", "image_url": "https://s3-media3.fl.yelpcdn.com/bphoto/rNLks3FJBVb33QMhWuJIuQ/o.jpg", "is_closed": false, "url": "https://www.yelp.com/biz/anousone-overland-park?adjust_creative=vyhy616UjsMTA_hrWyg_5w&utm_campaign=yelp_api_v3&utm_medium=api_v3_business_search&utm_source=vyhy616UjsMTA_hrWyg_5w", "review_count": 36, "categories": [{"alias": "laotian", "title": "Laotian"}, {"alias": "asianfusion", "title": "Asian Fusion"}, {"alias": "comfortfood", "title": "Comfort Food"}], "rating": 5.0, "coordinates": {"latitude": 38.98392433, "longitude": -94.67060717}, "transactions": [], "price": "$$", "location": {"address1": "7313 W 80th St", "address2": "", "address3": null, "city": "Overland Park", "zip_code": "66204", "country": "US", "state": "KS", "display_address": ["7313 W 80th St", "Overland Park, KS 66204"]}, "phone": "+19132040121", "display_phone": "(913) 204-0121", "distance": 13448.035884678255}, {"id": "DPV358FNX7CfDDtHWmh5sg", "alias": "sichuan-dynasty-overland-park-2", "name": "Sichuan Dynasty", "image_url": "https://s3-media2.fl.yelpcdn.com/bphoto/iN1ws_hTjTExD2FarWU_ew/o.jpg", "is_closed": false, "url": "https://www.yelp.com/biz/sichuan-dynasty-overland-park-2?adjust_creative=vyhy616UjsMTA_hrWyg_5w&utm_campaign=yelp_api_v3&utm_medium=api_v3_business_search&utm_source=vyhy616UjsMTA_hrWyg_5w", "review_count": 212, "categories": [{"alias": "chinese", "title": "Chinese"}], "rating": 4.0, "coordinates": {"latitude": 38.9131249, "longitude": -94.6707739}, "transactions": ["delivery", "pickup"], "price": "$$", "location": {"address1": "7206 W 119th St", "address2": "", "address3": "", "city": "Overland Park", "zip_code": "66213", "country": "US", "state": "KS", "display_address": ["7206 W 119th St", "Overland Park, KS 66213"]}, "phone": "+19133399378", "display_phone": "(913) 339-9378", "distance": 20162.130744069764}, {"id": "H2YrANGiXbYcZyKHW2mzIA", "alias": "hyundai-korean-restaurant-leavenworth", "name": "Hyundai Korean Restaurant", "image_url": "https://s3-media3.fl.yelpcdn.com/bphoto/LPCIOZDBYAZRRwKjAEN2ug/o.jpg", "is_closed": false, "url": "https://www.yelp.com/biz/hyundai-korean-restaurant-leavenworth?adjust_creative=vyhy616UjsMTA_hrWyg_5w&utm_campaign=yelp_api_v3&utm_medium=api_v3_business_search&utm_source=vyhy616UjsMTA_hrWyg_5w", "review_count": 77, "categories": [{"alias": "korean", "title": "Korean"}, {"alias": "sushi", "title": "Sushi Bars"}, {"alias": "asianfusion", "title": "Asian Fusion"}], "rating": 4.5, "coordinates": {"latitude": 39.31809, "longitude": -94.92082}, "transactions": ["delivery"], "price": "$", "location": {"address1": "749 Shawnee St", "address2": "", "address3": "", "city": "Leavenworth", "zip_code": "66048", "country": "US", "state": "KS", "display_address": ["749 Shawnee St", "Leavenworth, KS 66048"]}, "phone": "+19136825352", "display_phone": "(913) 682-5352", "distance": 39223.81005074791}, {"id": "nU_zBPiTCdSIfZ8IR_TbJw", "alias": "pho-cafe-kansas-city", "name": "Pho Cafe", "image_url": "https://s3-media4.fl.yelpcdn.com/bphoto/Fyy-eedWJgQzS31prSyDiQ/o.jpg", "is_closed": false, "url": "https://www.yelp.com/biz/pho-cafe-kansas-city?adjust_creative=vyhy616UjsMTA_hrWyg_5w&utm_campaign=yelp_api_v3&utm_medium=api_v3_business_search&utm_source=vyhy616UjsMTA_hrWyg_5w", "review_count": 64, "categories": [{"alias": "vietnamese", "title": "Vietnamese"}, {"alias": "noodles", "title": "Noodles"}, {"alias": "soup", "title": "Soup"}], "rating": 4.0, "coordinates": {"latitude": 39.249237, "longitude": -94.650342}, "transactions": ["delivery"], "price": "$", "location": {"address1": "6040 NW Barry Rd", "address2": "", "address3": null, "city": "Kansas City", "zip_code": "64154", "country": "US", "state": "MO", "display_address": ["6040 NW Barry Rd", "Kansas City, MO 64154"]}, "phone": "+18162986307", "display_phone": "(816) 298-6307", "distance": 19420.36892853124}, {"id": "nykCJ4IvCPCKPj4akGLKJg", "alias": "blue-yuu-raytown", "name": "Blue Yuu", "image_url": "https://s3-media4.fl.yelpcdn.com/bphoto/B4DjnuiFysjC0z5QCS4vVQ/o.jpg", "is_closed": false, "url": "https://www.yelp.com/biz/blue-yuu-raytown?adjust_creative=vyhy616UjsMTA_hrWyg_5w&utm_campaign=yelp_api_v3&utm_medium=api_v3_business_search&utm_source=vyhy616UjsMTA_hrWyg_5w", "review_count": 70, "categories": [{"alias": "asianfusion", "title": "Asian Fusion"}, {"alias": "dimsum", "title": "Dim Sum"}, {"alias": "japanese", "title": "Japanese"}], "rating": 3.5, "coordinates": {"latitude": 39.00882, "longitude": -94.4672}, "transactions": ["delivery"], "price": "$$", "location": {"address1": "9700 E 63rd St", "address2": "", "address3": "", "city": "Raytown", "zip_code": "64133", "country": "US", "state": "MO", "display_address": ["9700 E 63rd St", "Raytown, MO 64133"]}, "phone": "+18163561888", "display_phone": "(816) 356-1888", "distance": 12855.689436241099}, {"id": "K0Bdvh2HO7jRBQpqoTwhEA", "alias": "juns-authentic-japanese-prairie-village", "name": "Jun's Authentic Japanese", "image_url": "https://s3-media1.fl.yelpcdn.com/bphoto/_iBTDkV7L0px7AkfY4mhSg/o.jpg", "is_closed": false, "url": "https://www.yelp.com/biz/juns-authentic-japanese-prairie-village?adjust_creative=vyhy616UjsMTA_hrWyg_5w&utm_campaign=yelp_api_v3&utm_medium=api_v3_business_search&utm_source=vyhy616UjsMTA_hrWyg_5w", "review_count": 156, "categories": [{"alias": "japanese", "title": "Japanese"}, {"alias": "sushi", "title": "Sushi Bars"}], "rating": 4.0, "coordinates": {"latitude": 38.98904, "longitude": -94.60952}, "transactions": ["delivery"], "price": "$$", "location": {"address1": "7660 State Line Rd", "address2": "", "address3": "", "city": "Prairie Village", "zip_code": "66208", "country": "US", "state": "KS", "display_address": ["7660 State Line Rd", "Prairie Village, KS 66208"]}, "phone": "+19133414924", "display_phone": "(913) 341-4924", "distance": 10730.942804323362}, {"id": "14-N7UfAOLdHHZCKQoFiYA", "alias": "broken-rice-restaurant-com-tam-viet-gladstone-2", "name": "Broken Rice Restaurant Com Tam Viet", "image_url": "https://s3-media2.fl.yelpcdn.com/bphoto/sjREyTs_gl8E9iF5H6e16w/o.jpg", "is_closed": false, "url": "https://www.yelp.com/biz/broken-rice-restaurant-com-tam-viet-gladstone-2?adjust_creative=vyhy616UjsMTA_hrWyg_5w&utm_campaign=yelp_api_v3&utm_medium=api_v3_business_search&utm_source=vyhy616UjsMTA_hrWyg_5w", "review_count": 96, "categories": [{"alias": "vietnamese", "title": "Vietnamese"}], "rating": 4.0, "coordinates": {"latitude": 39.2130071741209, "longitude": -94.5746288448572}, "transactions": ["delivery"], "price": "$$", "location": {"address1": "6597 N Oak Trafficway", "address2": "", "address3": null, "city": "Gladstone", "zip_code": "64118", "country": "US", "state": "MO", "display_address": ["6597 N Oak Trafficway", "Gladstone, MO 64118"]}, "phone": "+18168005367", "display_phone": "(816) 800-5367", "distance": 14468.562459171}, {"id": "jN9xtdb4VlWnN6EVUyYz4Q", "alias": "my-xuyen-vietnamese-cafe-gladstone-3", "name": "My Xuyen Vietnamese Cafe", "image_url": "https://s3-media4.fl.yelpcdn.com/bphoto/1GOaz5wSHSoeL-rv4RsnsA/o.jpg", "is_closed": false, "url": "https://www.yelp.com/biz/my-xuyen-vietnamese-cafe-gladstone-3?adjust_creative=vyhy616UjsMTA_hrWyg_5w&utm_campaign=yelp_api_v3&utm_medium=api_v3_business_search&utm_source=vyhy616UjsMTA_hrWyg_5w", "review_count": 56, "categories": [{"alias": "vietnamese", "title": "Vietnamese"}], "rating": 4.0, "coordinates": {"latitude": 39.22093, "longitude": -94.57708}, "transactions": ["delivery", "pickup"], "location": {"address1": "6920 N Oak Trafficway", "address2": null, "address3": "", "city": "Gladstone", "zip_code": "64118", "country": "US", "state": "MO", "display_address": ["6920 N Oak Trafficway", "Gladstone, MO 64118"]}, "phone": "+18165992723", "display_phone": "(816) 599-2723", "distance": 15358.23278650978}, {"id": "FjPuQzjVeyBM--1kc5xjtw", "alias": "choga-korean-restaurant-overland-park", "name": "Choga Korean Restaurant", "image_url": "https://s3-media2.fl.yelpcdn.com/bphoto/TPLtkpJdCvm5FEnbFjFwQA/o.jpg", "is_closed": false, "url": "https://www.yelp.com/biz/choga-korean-restaurant-overland-park?adjust_creative=vyhy616UjsMTA_hrWyg_5w&utm_campaign=yelp_api_v3&utm_medium=api_v3_business_search&utm_source=vyhy616UjsMTA_hrWyg_5w", "review_count": 233, "categories": [{"alias": "korean", "title": "Korean"}, {"alias": "bbq", "title": "Barbeque"}], "rating": 3.5, "coordinates": {"latitude": 38.9395609089762, "longitude": -94.6652371051168}, "transactions": ["delivery"], "price": "$$", "location": {"address1": "6920 W 105th St", "address2": "", "address3": "", "city": "Overland Park", "zip_code": "66212", "country": "US", "state": "KS", "display_address": ["6920 W 105th St", "Overland Park, KS 66212"]}, "phone": "+19133852151", "display_phone": "(913) 385-2151", "distance": 17520.17784806476}, {"id": "86N4mF79w7gS_V42jYEFuA", "alias": "sushi-karma-asian-bistro-and-bar-mission", "name": "Sushi Karma - Asian Bistro & Bar", "image_url": "https://s3-media4.fl.yelpcdn.com/bphoto/m1sZSL7_-zWB_8nce1oeKg/o.jpg", "is_closed": false, "url": "https://www.yelp.com/biz/sushi-karma-asian-bistro-and-bar-mission?adjust_creative=vyhy616UjsMTA_hrWyg_5w&utm_campaign=yelp_api_v3&utm_medium=api_v3_business_search&utm_source=vyhy616UjsMTA_hrWyg_5w", "review_count": 78, "categories": [{"alias": "asianfusion", "title": "Asian Fusion"}, {"alias": "sushi", "title": "Sushi Bars"}], "rating": 4.0, "coordinates": {"latitude": 39.022424, "longitude": -94.653505}, "transactions": ["delivery", "pickup"], "location": {"address1": "5820 Johnson Dr", "address2": "", "address3": null, "city": "Mission", "zip_code": "66202", "country": "US", "state": "KS", "display_address": ["5820 Johnson Dr", "Mission, KS 66202"]}, "phone": "+19137457536", "display_phone": "(913) 745-7536", "distance": 9171.528487358286}, {"id": "iXYTtzUIdwP074ahC_v7RQ", "alias": "big-bowl-pho-kansas-city", "name": "Big Bowl Pho", "image_url": "https://s3-media1.fl.yelpcdn.com/bphoto/ud4pn9fXK5n6D59PAx5peA/o.jpg", "is_closed": false, "url": "https://www.yelp.com/biz/big-bowl-pho-kansas-city?adjust_creative=vyhy616UjsMTA_hrWyg_5w&utm_campaign=yelp_api_v3&utm_medium=api_v3_business_search&utm_source=vyhy616UjsMTA_hrWyg_5w", "review_count": 115, "categories": [{"alias": "chinese", "title": "Chinese"}, {"alias": "vietnamese", "title": "Vietnamese"}], "rating": 4.0, "coordinates": {"latitude": 39.2238291795994, "longitude": -94.6521654015705}, "transactions": ["delivery"], "price": "$", "location": {"address1": "7106 NW Prairie View Rd", "address2": "", "address3": "", "city": "Kansas City", "zip_code": "64151", "country": "US", "state": "MO", "display_address": ["7106 NW Prairie View Rd", "Kansas City, MO 64151"]}, "phone": "+18163823488", "display_phone": "(816) 382-3488", "distance": 16810.412294875892}, {"id": "yRN79LgXXZjg6HCtqNuV8w", "alias": "pad-thai-restaurant-overland-park", "name": "Pad-Thai Restaurant", "image_url": "https://s3-media3.fl.yelpcdn.com/bphoto/sdaocjHdbTfjcXBM31qB0w/o.jpg", "is_closed": false, "url": "https://www.yelp.com/biz/pad-thai-restaurant-overland-park?adjust_creative=vyhy616UjsMTA_hrWyg_5w&utm_campaign=yelp_api_v3&utm_medium=api_v3_business_search&utm_source=vyhy616UjsMTA_hrWyg_5w", "review_count": 428, "categories": [{"alias": "thai", "title": "Thai"}], "rating": 4.5, "coordinates": {"latitude": 38.868504946931, "longitude": -94.66677284841}, "transactions": ["delivery"], "price": "$$", "location": {"address1": "14319 Metcalf Ave", "address2": "", "address3": "", "city": "Overland Park", "zip_code": "66223", "country": "US", "state": "KS", "display_address": ["14319 Metcalf Ave", "Overland Park, KS 66223"]}, "phone": "+19136854500", "display_phone": "(913) 685-4500", "distance": 24968.037826203352}, {"id": "MyQN2fiaIzIS0nF49ss6ew", "alias": "jen-jens-chinese-restaurant-overland-park", "name": "Jen Jen's Chinese Restaurant", "image_url": "https://s3-media2.fl.yelpcdn.com/bphoto/xAYpszCs9iIEsfSZfTAkjQ/o.jpg", "is_closed": false, "url": "https://www.yelp.com/biz/jen-jens-chinese-restaurant-overland-park?adjust_creative=vyhy616UjsMTA_hrWyg_5w&utm_campaign=yelp_api_v3&utm_medium=api_v3_business_search&utm_source=vyhy616UjsMTA_hrWyg_5w", "review_count": 106, "categories": [{"alias": "chinese", "title": "Chinese"}], "rating": 4.0, "coordinates": {"latitude": 38.9644753, "longitude": -94.6679249}, "transactions": ["delivery"], "price": "$$", "location": {"address1": "9066 Metcalf Ave", "address2": "", "address3": "", "city": "Overland Park", "zip_code": "66212", "country": "US", "state": "KS", "display_address": ["9066 Metcalf Ave", "Overland Park, KS 66212"]}, "phone": "+19136421838", "display_phone": "(913) 642-1838", "distance": 15227.423162048186}, {"id": "o-YaWo4sRVVpcvHgthBGnw", "alias": "cafe-vie-overland-park", "name": "Cafe Vie", "image_url": "https://s3-media4.fl.yelpcdn.com/bphoto/5L2yGfpW71_PEivVa3Ak6A/o.jpg", "is_closed": false, "url": "https://www.yelp.com/biz/cafe-vie-overland-park?adjust_creative=vyhy616UjsMTA_hrWyg_5w&utm_campaign=yelp_api_v3&utm_medium=api_v3_business_search&utm_source=vyhy616UjsMTA_hrWyg_5w", "review_count": 280, "categories": [{"alias": "vietnamese", "title": "Vietnamese"}, {"alias": "asianfusion", "title": "Asian Fusion"}, {"alias": "korean", "title": "Korean"}], "rating": 3.5, "coordinates": {"latitude": 38.9399139965314, "longitude": -94.6704640629499}, "transactions": ["delivery", "pickup"], "price": "$$", "location": {"address1": "10330 Metcalf Ave", "address2": null, "address3": "", "city": "Overland Park", "zip_code": "66212", "country": "US", "state": "KS", "display_address": ["10330 Metcalf Ave", "Overland Park, KS 66212"]}, "phone": "+19139010565", "display_phone": "(913) 901-0565", "distance": 17676.537760927684}, {"id": "p2P7d9YIiWRUKDt9SvSHvA", "alias": "chosun-korean-bbq-overland-park", "name": "Chosun Korean BBQ", "image_url": "https://s3-media4.fl.yelpcdn.com/bphoto/KHC4N4_5UQJYJlPd_tWrnQ/o.jpg", "is_closed": false, "url": "https://www.yelp.com/biz/chosun-korean-bbq-overland-park?adjust_creative=vyhy616UjsMTA_hrWyg_5w&utm_campaign=yelp_api_v3&utm_medium=api_v3_business_search&utm_source=vyhy616UjsMTA_hrWyg_5w", "review_count": 240, "categories": [{"alias": "korean", "title": "Korean"}, {"alias": "bbq", "title": "Barbeque"}], "rating": 4.0, "coordinates": {"latitude": 38.9002693646677, "longitude": -94.6668993968948}, "transactions": ["delivery", "pickup"], "price": "$$", "location": {"address1": "12611 Metcalf Ave", "address2": "", "address3": "", "city": "Overland Park", "zip_code": "66213", "country": "US", "state": "KS", "display_address": ["12611 Metcalf Ave", "Overland Park, KS 66213"]}, "phone": "+19133399644", "display_phone": "(913) 339-9644", "distance": 21622.653476241463}, {"id": "8m7cD5epyxhBh8ZbWnPxqw", "alias": "hong-kong-star-restaurant-olathe-2", "name": "Hong Kong Star Restaurant", "image_url": "https://s3-media3.fl.yelpcdn.com/bphoto/9jgITSMFhdfchS7iz8Vj9A/o.jpg", "is_closed": false, "url": "https://www.yelp.com/biz/hong-kong-star-restaurant-olathe-2?adjust_creative=vyhy616UjsMTA_hrWyg_5w&utm_campaign=yelp_api_v3&utm_medium=api_v3_business_search&utm_source=vyhy616UjsMTA_hrWyg_5w", "review_count": 134, "categories": [{"alias": "chinese", "title": "Chinese"}], "rating": 4.5, "coordinates": {"latitude": 38.8687139767665, "longitude": -94.8033465223154}, "transactions": ["delivery"], "price": "$$", "location": {"address1": "918 E Old Hwy 56", "address2": null, "address3": "", "city": "Olathe", "zip_code": "66061", "country": "US", "state": "KS", "display_address": ["918 E Old Hwy 56", "Olathe, KS 66061"]}, "phone": "+19138299898", "display_phone": "(913) 829-9898", "distance": 30596.354976541174}], "total": 301, "region": {"center": {"longitude": -94.581298828125, "latitude": 39.08299097840407}}}