{"businesses": [{"id": "1Lb_XgyzVzK_g0NyD6l4-g", "alias": "b\u00e9-em-asian-kitchen-charlotte-3", "name": "B\u00e9-Em Asian Kitchen", "image_url": "https://s3-media4.fl.yelpcdn.com/bphoto/_YtqP6UgzYfM3gVo8cJmOg/o.jpg", "is_closed": false, "url": "https://www.yelp.com/biz/b%C3%A9-em-asian-kitchen-charlotte-3?adjust_creative=vyhy616UjsMTA_hrWyg_5w&utm_campaign=yelp_api_v3&utm_medium=api_v3_business_search&utm_source=vyhy616UjsMTA_hrWyg_5w", "review_count": 280, "categories": [{"alias": "japanese", "title": "Japanese"}, {"alias": "korean", "title": "Korean"}, {"alias": "asianfusion", "title": "Asian Fusion"}], "rating": 4.0, "coordinates": {"latitude": 35.138119345084, "longitude": -80.7345575023773}, "transactions": ["delivery"], "price": "$$", "location": {"address1": "1848 Galleria Blvd", "address2": "Ste K", "address3": null, "city": "Charlotte", "zip_code": "28270", "country": "US", "state": "NC", "display_address": ["1848 Galleria Blvd", "Ste K", "Charlotte, NC 28270"]}, "phone": "+17047084793", "display_phone": "(704) 708-4793", "distance": 10846.819503470337}, {"id": "0SIK2QE_FfFSUZOZBPIfFQ", "alias": "taste-of-shu-authentic-szechuan-cuisine-charlotte", "name": "Taste of SHU: Authentic Szechuan Cuisine", "image_url": "https://s3-media2.fl.yelpcdn.com/bphoto/aJZ1bxCes3QqHqNNMIc5Pw/o.jpg", "is_closed": false, "url": "https://www.yelp.com/biz/taste-of-shu-authentic-szechuan-cuisine-charlotte?adjust_creative=vyhy616UjsMTA_hrWyg_5w&utm_campaign=yelp_api_v3&utm_medium=api_v3_business_search&utm_source=vyhy616UjsMTA_hrWyg_5w", "review_count": 117, "categories": [{"alias": "szechuan", "title": "Szechuan"}, {"alias": "asianfusion", "title": "Asian Fusion"}], "rating": 4.0, "coordinates": {"latitude": 35.117247, "longitude": -80.856835}, "transactions": ["delivery", "pickup"], "price": "$$", "location": {"address1": "8418 Park Rd", "address2": null, "address3": "", "city": "Charlotte", "zip_code": "28210", "country": "US", "state": "NC", "display_address": ["8418 Park Rd", "Charlotte, NC 28210"]}, "phone": "+17043156989", "display_phone": "(704) 315-6989", "distance": 9082.486993904953}, {"id": "WnLhd38sH80ViWwzyF7yoA", "alias": "hibiscus-charlotte", "name": "Hibiscus", "image_url": "https://s3-media3.fl.yelpcdn.com/bphoto/uMKz14cfdPdV5KXqMz5_Fw/o.jpg", "is_closed": false, "url": "https://www.yelp.com/biz/hibiscus-charlotte?adjust_creative=vyhy616UjsMTA_hrWyg_5w&utm_campaign=yelp_api_v3&utm_medium=api_v3_business_search&utm_source=vyhy616UjsMTA_hrWyg_5w", "review_count": 248, "categories": [{"alias": "korean", "title": "Korean"}, {"alias": "thai", "title": "Thai"}, {"alias": "laotian", "title": "Laotian"}], "rating": 4.0, "coordinates": {"latitude": 35.17191853163814, "longitude": -80.84901694951604}, "transactions": ["delivery", "pickup"], "price": "$$", "location": {"address1": "1600 E Woodlawn Rd", "address2": "Ste 150", "address3": null, "city": "Charlotte", "zip_code": "28209", "country": "US", "state": "NC", "display_address": ["1600 E Woodlawn Rd", "Ste 150", "Charlotte, NC 28209"]}, "phone": "+19802564380", "display_phone": "(980) 256-4380", "distance": 3168.573723563862}, {"id": "XT3hLiVwtAzc7xyszKmvwQ", "alias": "open-rice-asian-kitchen-charlotte-2", "name": "Open Rice Asian Kitchen", "image_url": "https://s3-media3.fl.yelpcdn.com/bphoto/uZBuQ0kar9vf-YE6Jagjxg/o.jpg", "is_closed": false, "url": "https://www.yelp.com/biz/open-rice-asian-kitchen-charlotte-2?adjust_creative=vyhy616UjsMTA_hrWyg_5w&utm_campaign=yelp_api_v3&utm_medium=api_v3_business_search&utm_source=vyhy616UjsMTA_hrWyg_5w", "review_count": 273, "categories": [{"alias": "ramen", "title": "Ramen"}, {"alias": "cantonese", "title": "Cantonese"}, {"alias": "hkcafe", "title": "Hong Kong Style Cafe"}], "rating": 4.0, "coordinates": {"latitude": 35.03494317, "longitude": -80.80924667}, "transactions": ["delivery"], "price": "$$", "location": {"address1": "9882 Rea Rd", "address2": "Ste F", "address3": "", "city": "Charlotte", "zip_code": "28277", "country": "US", "state": "NC", "display_address": ["9882 Rea Rd", "Ste F", "Charlotte, NC 28277"]}, "phone": "+19804063894", "display_phone": "(980) 406-3894", "distance": 18013.85417684963}, {"id": "8NtaQ65hBfi4aql6OsLTrQ", "alias": "cilantro-noodle-charlotte", "name": "Cilantro Noodle", "image_url": "https://s3-media2.fl.yelpcdn.com/bphoto/qQN44d1ouPE5khMmSwkXBg/o.jpg", "is_closed": false, "url": "https://www.yelp.com/biz/cilantro-noodle-charlotte?adjust_creative=vyhy616UjsMTA_hrWyg_5w&utm_campaign=yelp_api_v3&utm_medium=api_v3_business_search&utm_source=vyhy616UjsMTA_hrWyg_5w", "review_count": 210, "categories": [{"alias": "vietnamese", "title": "Vietnamese"}], "rating": 4.5, "coordinates": {"latitude": 35.219107, "longitude": -80.811767}, "transactions": ["delivery", "pickup"], "price": "$$", "location": {"address1": "2001 Commonwealth Ave", "address2": "", "address3": null, "city": "Charlotte", "zip_code": "28205", "country": "US", "state": "NC", "display_address": ["2001 Commonwealth Ave", "Charlotte, NC 28205"]}, "phone": "+17043459490", "display_phone": "(704) 345-9490", "distance": 3073.865612029596}, {"id": "MU66syW7PEAKbsWCSw8h4A", "alias": "hawkers-asian-street-food-charlotte-charlotte", "name": "Hawkers Asian Street Food - Charlotte", "image_url": "https://s3-media1.fl.yelpcdn.com/bphoto/qA940D-mrdr7zex9KAC7Xw/o.jpg", "is_closed": false, "url": "https://www.yelp.com/biz/hawkers-asian-street-food-charlotte-charlotte?adjust_creative=vyhy616UjsMTA_hrWyg_5w&utm_campaign=yelp_api_v3&utm_medium=api_v3_business_search&utm_source=vyhy616UjsMTA_hrWyg_5w", "review_count": 890, "categories": [{"alias": "asianfusion", "title": "Asian Fusion"}, {"alias": "tapasmallplates", "title": "Tapas/Small Plates"}, {"alias": "cocktailbars", "title": "Cocktail Bars"}], "rating": 4.0, "coordinates": {"latitude": 35.210943, "longitude": -80.860525}, "transactions": ["delivery"], "price": "$$", "location": {"address1": "1930 Camden Rd", "address2": "Ste 260", "address3": null, "city": "Charlotte", "zip_code": "28203", "country": "US", "state": "NC", "display_address": ["1930 Camden Rd", "Ste 260", "Charlotte, NC 28203"]}, "phone": "+17044640770", "display_phone": "(704) 464-0770", "distance": 3186.7089790006876}, {"id": "the19uDwR-41n8x861F7Hg", "alias": "zen-asian-fusion-charlotte", "name": "Zen Asian Fusion", "image_url": "https://s3-media4.fl.yelpcdn.com/bphoto/CITZdf1eaxDj9TxHU05uvQ/o.jpg", "is_closed": false, "url": "https://www.yelp.com/biz/zen-asian-fusion-charlotte?adjust_creative=vyhy616UjsMTA_hrWyg_5w&utm_campaign=yelp_api_v3&utm_medium=api_v3_business_search&utm_source=vyhy616UjsMTA_hrWyg_5w", "review_count": 236, "categories": [{"alias": "asianfusion", "title": "Asian Fusion"}, {"alias": "tapas", "title": "Tapas Bars"}, {"alias": "noodles", "title": "Noodles"}], "rating": 4.0, "coordinates": {"latitude": 35.2026625130368, "longitude": -80.8441535215315}, "transactions": ["delivery"], "price": "$$", "location": {"address1": "1716 Kenilworth Ave", "address2": null, "address3": "", "city": "Charlotte", "zip_code": "28203", "country": "US", "state": "NC", "display_address": ["1716 Kenilworth Ave", "Charlotte, NC 28203"]}, "phone": "+17043589688", "display_phone": "(704) 358-9688", "distance": 1460.1207512350616}, {"id": "kNa3FvRAhM2oKYFoilVDzQ", "alias": "yamazaru-charlotte-2", "name": "Yamazaru", "image_url": "https://s3-media3.fl.yelpcdn.com/bphoto/8raQ-BFLtQcdqja1L6TNaw/o.jpg", "is_closed": false, "url": "https://www.yelp.com/biz/yamazaru-charlotte-2?adjust_creative=vyhy616UjsMTA_hrWyg_5w&utm_campaign=yelp_api_v3&utm_medium=api_v3_business_search&utm_source=vyhy616UjsMTA_hrWyg_5w", "review_count": 424, "categories": [{"alias": "sushi", "title": "Sushi Bars"}, {"alias": "ramen", "title": "Ramen"}, {"alias": "izakaya", "title": "Izakaya"}], "rating": 4.0, "coordinates": {"latitude": 35.2081108093262, "longitude": -80.8630752563477}, "transactions": ["delivery", "pickup"], "price": "$$", "location": {"address1": "2173 Hawkins St", "address2": "Ste A", "address3": null, "city": "Charlotte", "zip_code": "28203", "country": "US", "state": "NC", "display_address": ["2173 Hawkins St", "Ste A", "Charlotte, NC 28203"]}, "phone": "+19802019134", "display_phone": "(980) 201-9134", "distance": 3245.0228309996896}, {"id": "sS2IKdaUne_8QwiAl6iyfg", "alias": "malaya-kitchen-charlotte", "name": "Malaya Kitchen", "image_url": "https://s3-media1.fl.yelpcdn.com/bphoto/0P8tV-n8BRf7jTbCtY3jVQ/o.jpg", "is_closed": false, "url": "https://www.yelp.com/biz/malaya-kitchen-charlotte?adjust_creative=vyhy616UjsMTA_hrWyg_5w&utm_campaign=yelp_api_v3&utm_medium=api_v3_business_search&utm_source=vyhy616UjsMTA_hrWyg_5w", "review_count": 177, "categories": [{"alias": "noodles", "title": "Noodles"}, {"alias": "soup", "title": "Soup"}, {"alias": "malaysian", "title": "Malaysian"}], "rating": 4.0, "coordinates": {"latitude": 35.09631, "longitude": -80.77948}, "transactions": ["delivery", "pickup"], "price": "$$", "location": {"address1": "8200-400 Providence Rd", "address2": "", "address3": "", "city": "Charlotte", "zip_code": "28277", "country": "US", "state": "NC", "display_address": ["8200-400 Providence Rd", "Charlotte, NC 28277"]}, "phone": "+17045416668", "display_phone": "(704) 541-6668", "distance": 12144.294808963685}, {"id": "7HbKKqXtZUjf6uVSHZ8wyw", "alias": "lets-meat-kbbq-charlotte", "name": "Let's Meat Kbbq", "image_url": "https://s3-media2.fl.yelpcdn.com/bphoto/7c1kLbJ-aU5KSDw-vtCkHQ/o.jpg", "is_closed": false, "url": "https://www.yelp.com/biz/lets-meat-kbbq-charlotte?adjust_creative=vyhy616UjsMTA_hrWyg_5w&utm_campaign=yelp_api_v3&utm_medium=api_v3_business_search&utm_source=vyhy616UjsMTA_hrWyg_5w", "review_count": 433, "categories": [{"alias": "korean", "title": "Korean"}, {"alias": "bbq", "title": "Barbeque"}], "rating": 4.5, "coordinates": {"latitude": 35.2190478214665, "longitude": -80.8576791733503}, "transactions": ["delivery"], "price": "$$", "location": {"address1": "1400 S Church St", "address2": "Ste B", "address3": null, "city": "Charlotte", "zip_code": "28203", "country": "US", "state": "NC", "display_address": ["1400 S Church St", "Ste B", "Charlotte, NC 28203"]}, "phone": "+19802994389", "display_phone": "(980) 299-4389", "distance": 3550.07270641863}, {"id": "KEGLWeFAWXvo0W2LnujhtQ", "alias": "lang-van-charlotte-2", "name": "Lang Van", "image_url": "https://s3-media2.fl.yelpcdn.com/bphoto/rk8Io4qjpF1rnhfDWzBvlg/o.jpg", "is_closed": false, "url": "https://www.yelp.com/biz/lang-van-charlotte-2?adjust_creative=vyhy616UjsMTA_hrWyg_5w&utm_campaign=yelp_api_v3&utm_medium=api_v3_business_search&utm_source=vyhy616UjsMTA_hrWyg_5w", "review_count": 469, "categories": [{"alias": "vietnamese", "title": "Vietnamese"}], "rating": 4.5, "coordinates": {"latitude": 35.236721, "longitude": -80.7745024}, "transactions": ["delivery"], "price": "$$", "location": {"address1": "3019 Shamrock Dr", "address2": "", "address3": "", "city": "Charlotte", "zip_code": "28215", "country": "US", "state": "NC", "display_address": ["3019 Shamrock Dr", "Charlotte, NC 28215"]}, "phone": "+17045319525", "display_phone": "(704) 531-9525", "distance": 6806.7274900309885}, {"id": "J3_FTjy9LAtTtoW_cLwPxg", "alias": "co-charlotte", "name": "CO", "image_url": "https://s3-media2.fl.yelpcdn.com/bphoto/JqZR4V83Fy5VZVVTIo62_Q/o.jpg", "is_closed": false, "url": "https://www.yelp.com/biz/co-charlotte?adjust_creative=vyhy616UjsMTA_hrWyg_5w&utm_campaign=yelp_api_v3&utm_medium=api_v3_business_search&utm_source=vyhy616UjsMTA_hrWyg_5w", "review_count": 515, "categories": [{"alias": "vietnamese", "title": "Vietnamese"}, {"alias": "asianfusion", "title": "Asian Fusion"}, {"alias": "sushi", "title": "Sushi Bars"}], "rating": 4.0, "coordinates": {"latitude": 35.1741355, "longitude": -80.8509265}, "transactions": ["delivery", "pickup"], "price": "$$", "location": {"address1": "4201-D Park Rd", "address2": "", "address3": "", "city": "Charlotte", "zip_code": "28209", "country": "US", "state": "NC", "display_address": ["4201-D Park Rd", "Charlotte, NC 28209"]}, "phone": "+19802374655", "display_phone": "(980) 237-4655", "distance": 2872.9639434583155}, {"id": "1czIVv2iyOHc3WMgtUWXCQ", "alias": "persuasian-restaurant-charlotte", "name": "Persuasian Restaurant", "image_url": "https://s3-media3.fl.yelpcdn.com/bphoto/TwlPdq8MJIbqzTUxzluHtg/o.jpg", "is_closed": false, "url": "https://www.yelp.com/biz/persuasian-restaurant-charlotte?adjust_creative=vyhy616UjsMTA_hrWyg_5w&utm_campaign=yelp_api_v3&utm_medium=api_v3_business_search&utm_source=vyhy616UjsMTA_hrWyg_5w", "review_count": 133, "categories": [{"alias": "chinese", "title": "Chinese"}], "rating": 4.0, "coordinates": {"latitude": 35.2, "longitude": -80.852472}, "transactions": ["delivery", "pickup"], "price": "$$", "location": {"address1": "2214 Park Rd", "address2": "", "address3": "", "city": "Charlotte", "zip_code": "28203", "country": "US", "state": "NC", "display_address": ["2214 Park Rd", "Charlotte, NC 28203"]}, "phone": "+17043331837", "display_phone": "(704) 333-1837", "distance": 2040.2787928130717}, {"id": "zYDAMT8UjETKRSYGXsbL3A", "alias": "lams-kitchen-matthews", "name": "Lam's Kitchen", "image_url": "https://s3-media4.fl.yelpcdn.com/bphoto/IlHU7MAQbBM9pUZoLVHwQw/o.jpg", "is_closed": false, "url": "https://www.yelp.com/biz/lams-kitchen-matthews?adjust_creative=vyhy616UjsMTA_hrWyg_5w&utm_campaign=yelp_api_v3&utm_medium=api_v3_business_search&utm_source=vyhy616UjsMTA_hrWyg_5w", "review_count": 165, "categories": [{"alias": "chinese", "title": "Chinese"}], "rating": 4.5, "coordinates": {"latitude": 35.08440409833844, "longitude": -80.73178237767596}, "transactions": ["delivery"], "price": "$$", "location": {"address1": "3016 Weddington Rd", "address2": "Ste 100", "address3": "", "city": "Matthews", "zip_code": "28105", "country": "US", "state": "NC", "display_address": ["3016 Weddington Rd", "Ste 100", "Matthews, NC 28105"]}, "phone": "+17048210676", "display_phone": "(704) 821-0676", "distance": 15324.43050570343}, {"id": "yeZr0NBthDQuQ-JjPDkxyw", "alias": "roppongi-ramen-bar-charlotte-2", "name": "Roppongi Ramen Bar", "image_url": "https://s3-media4.fl.yelpcdn.com/bphoto/wfAO8C2iWJ8zyZ2tywyEIw/o.jpg", "is_closed": false, "url": "https://www.yelp.com/biz/roppongi-ramen-bar-charlotte-2?adjust_creative=vyhy616UjsMTA_hrWyg_5w&utm_campaign=yelp_api_v3&utm_medium=api_v3_business_search&utm_source=vyhy616UjsMTA_hrWyg_5w", "review_count": 80, "categories": [{"alias": "ramen", "title": "Ramen"}], "rating": 4.5, "coordinates": {"latitude": 35.14087, "longitude": -80.740707}, "transactions": ["delivery", "pickup"], "price": "$$", "location": {"address1": "9626 Monroe Rd", "address2": null, "address3": "", "city": "Charlotte", "zip_code": "28270", "country": "US", "state": "NC", "display_address": ["9626 Monroe Rd", "Charlotte, NC 28270"]}, "phone": "+19803395353", "display_phone": "(980) 339-5353", "distance": 10215.73035734703}, {"id": "ZlrHrg7jrbO6blqwfa0MkQ", "alias": "baoding-charlotte", "name": "Baoding", "image_url": "https://s3-media4.fl.yelpcdn.com/bphoto/RmHROENYXqPALURVfQ8zdQ/o.jpg", "is_closed": false, "url": "https://www.yelp.com/biz/baoding-charlotte?adjust_creative=vyhy616UjsMTA_hrWyg_5w&utm_campaign=yelp_api_v3&utm_medium=api_v3_business_search&utm_source=vyhy616UjsMTA_hrWyg_5w", "review_count": 228, "categories": [{"alias": "chinese", "title": "Chinese"}], "rating": 4.0, "coordinates": {"latitude": 35.1475296, "longitude": -80.8314896}, "transactions": ["delivery"], "price": "$$", "location": {"address1": "4722 Sharon Rd", "address2": "Ste F", "address3": "", "city": "Charlotte", "zip_code": "28210", "country": "US", "state": "NC", "display_address": ["4722 Sharon Rd", "Ste F", "Charlotte, NC 28210"]}, "phone": "+17045528899", "display_phone": "(704) 552-8899", "distance": 5417.573521245608}, {"id": "Xo6cmiTe_FmwGcEcL_CYhw", "alias": "gyu-kaku-japanese-bbq-charlotte", "name": "Gyu-Kaku Japanese BBQ", "image_url": "https://s3-media3.fl.yelpcdn.com/bphoto/JohrwnekGSRzLsuEBrlaWg/o.jpg", "is_closed": false, "url": "https://www.yelp.com/biz/gyu-kaku-japanese-bbq-charlotte?adjust_creative=vyhy616UjsMTA_hrWyg_5w&utm_campaign=yelp_api_v3&utm_medium=api_v3_business_search&utm_source=vyhy616UjsMTA_hrWyg_5w", "review_count": 108, "categories": [{"alias": "japanese", "title": "Japanese"}, {"alias": "bbq", "title": "Barbeque"}, {"alias": "asianfusion", "title": "Asian Fusion"}], "rating": 4.0, "coordinates": {"latitude": 35.218238, "longitude": -80.843123}, "transactions": [], "location": {"address1": "650 E Stonewall St", "address2": "Unit A", "address3": "", "city": "Charlotte", "zip_code": "28202", "country": "US", "state": "NC", "display_address": ["650 E Stonewall St", "Unit A", "Charlotte, NC 28202"]}, "phone": "+19805853012", "display_phone": "(980) 585-3012", "distance": 2716.157103835113}, {"id": "HhcBx0LSDkxRBKMkvkwSoA", "alias": "deejai-noodle-bar-charlotte-5", "name": "Deejai  Noodle Bar", "image_url": "https://s3-media2.fl.yelpcdn.com/bphoto/iwb_Nc9EVrmUdFTrsWJ9mQ/o.jpg", "is_closed": false, "url": "https://www.yelp.com/biz/deejai-noodle-bar-charlotte-5?adjust_creative=vyhy616UjsMTA_hrWyg_5w&utm_campaign=yelp_api_v3&utm_medium=api_v3_business_search&utm_source=vyhy616UjsMTA_hrWyg_5w", "review_count": 274, "categories": [{"alias": "thai", "title": "Thai"}, {"alias": "noodles", "title": "Noodles"}, {"alias": "cocktailbars", "title": "Cocktail Bars"}], "rating": 4.0, "coordinates": {"latitude": 35.250328, "longitude": -80.7968117}, "transactions": ["delivery", "restaurant_reservation", "pickup"], "price": "$$", "location": {"address1": "3629 N Davidson St", "address2": "Ste 103", "address3": null, "city": "Charlotte", "zip_code": "28205", "country": "US", "state": "NC", "display_address": ["3629 N Davidson St", "Ste 103", "Charlotte, NC 28205"]}, "phone": "+17049100815", "display_phone": "(704) 910-0815", "distance": 6765.230104453962}, {"id": "UpNnjV6p5GVPX6r_itOGUg", "alias": "rai-lay-thai-charlotte", "name": "Rai Lay Thai", "image_url": "https://s3-media2.fl.yelpcdn.com/bphoto/Ha5j8mgCilZzRdjhKU--yQ/o.jpg", "is_closed": false, "url": "https://www.yelp.com/biz/rai-lay-thai-charlotte?adjust_creative=vyhy616UjsMTA_hrWyg_5w&utm_campaign=yelp_api_v3&utm_medium=api_v3_business_search&utm_source=vyhy616UjsMTA_hrWyg_5w", "review_count": 339, "categories": [{"alias": "sushi", "title": "Sushi Bars"}, {"alias": "thai", "title": "Thai"}, {"alias": "soup", "title": "Soup"}], "rating": 4.5, "coordinates": {"latitude": 35.21444, "longitude": -80.85567}, "transactions": ["delivery", "pickup"], "price": "$$", "location": {"address1": "1520 South Blvd", "address2": "Ste 130", "address3": "", "city": "Charlotte", "zip_code": "28203", "country": "US", "state": "NC", "display_address": ["1520 South Blvd", "Ste 130", "Charlotte, NC 28203"]}, "phone": "+19802070991", "display_phone": "(980) 207-0991", "distance": 3037.2132942100675}, {"id": "mC39IrCp36QIVFRZIw9PTQ", "alias": "seoul-food-meat-company-charlotte", "name": "Seoul Food Meat Company", "image_url": "https://s3-media2.fl.yelpcdn.com/bphoto/-Jcob5yBVpadDmnQWLz5Ug/o.jpg", "is_closed": false, "url": "https://www.yelp.com/biz/seoul-food-meat-company-charlotte?adjust_creative=vyhy616UjsMTA_hrWyg_5w&utm_campaign=yelp_api_v3&utm_medium=api_v3_business_search&utm_source=vyhy616UjsMTA_hrWyg_5w", "review_count": 1286, "categories": [{"alias": "korean", "title": "Korean"}, {"alias": "bbq", "title": "Barbeque"}, {"alias": "beerbar", "title": "Beer Bar"}], "rating": 4.0, "coordinates": {"latitude": 35.2192611694336, "longitude": -80.8578567504883}, "transactions": ["delivery"], "price": "$$", "location": {"address1": "1400 S Church St", "address2": "Ste A", "address3": "", "city": "Charlotte", "zip_code": "28203", "country": "US", "state": "NC", "display_address": ["1400 S Church St", "Ste A", "Charlotte, NC 28203"]}, "phone": "+19802995143", "display_phone": "(980) 299-5143", "distance": 3565.791583766766}, {"id": "kNwfUukvLd3q38PX0QEDDQ", "alias": "bulgogi-box-charlotte", "name": "Bulgogi Box", "image_url": "https://s3-media2.fl.yelpcdn.com/bphoto/hc-gQvJ6QcVapasdMgHjEg/o.jpg", "is_closed": false, "url": "https://www.yelp.com/biz/bulgogi-box-charlotte?adjust_creative=vyhy616UjsMTA_hrWyg_5w&utm_campaign=yelp_api_v3&utm_medium=api_v3_business_search&utm_source=vyhy616UjsMTA_hrWyg_5w", "review_count": 202, "categories": [{"alias": "korean", "title": "Korean"}, {"alias": "bbq", "title": "Barbeque"}], "rating": 4.0, "coordinates": {"latitude": 35.2131945, "longitude": -80.8590242}, "transactions": ["delivery", "pickup"], "price": "$$", "location": {"address1": "1750 Camden Rd", "address2": "Ste 104", "address3": null, "city": "Charlotte", "zip_code": "28203", "country": "US", "state": "NC", "display_address": ["1750 Camden Rd", "Ste 104", "Charlotte, NC 28203"]}, "phone": "+19802189056", "display_phone": "(980) 218-9056", "distance": 3212.5584038865213}, {"id": "K3iw26MkmSBPAM7BzHkIYQ", "alias": "yama-asian-fusion-charlotte", "name": "Yama Asian Fusion", "image_url": "https://s3-media3.fl.yelpcdn.com/bphoto/-Qd5TKm5N7VNB2oEQj9DpQ/o.jpg", "is_closed": false, "url": "https://www.yelp.com/biz/yama-asian-fusion-charlotte?adjust_creative=vyhy616UjsMTA_hrWyg_5w&utm_campaign=yelp_api_v3&utm_medium=api_v3_business_search&utm_source=vyhy616UjsMTA_hrWyg_5w", "review_count": 212, "categories": [{"alias": "japanese", "title": "Japanese"}, {"alias": "asianfusion", "title": "Asian Fusion"}, {"alias": "sushi", "title": "Sushi Bars"}], "rating": 4.0, "coordinates": {"latitude": 35.157295, "longitude": -80.824004}, "transactions": ["delivery"], "price": "$$", "location": {"address1": "720 Governor Morrison St", "address2": "Ste 130", "address3": "", "city": "Charlotte", "zip_code": "28211", "country": "US", "state": "NC", "display_address": ["720 Governor Morrison St", "Ste 130", "Charlotte, NC 28211"]}, "phone": "+17042950905", "display_phone": "(704) 295-0905", "distance": 4353.535895911567}, {"id": "ALwAlxItASeEs2vYAeLXHA", "alias": "futo-buta-charlotte-3", "name": "Futo Buta", "image_url": "https://s3-media1.fl.yelpcdn.com/bphoto/m2jJY8PwgLSebh8NGRxQww/o.jpg", "is_closed": false, "url": "https://www.yelp.com/biz/futo-buta-charlotte-3?adjust_creative=vyhy616UjsMTA_hrWyg_5w&utm_campaign=yelp_api_v3&utm_medium=api_v3_business_search&utm_source=vyhy616UjsMTA_hrWyg_5w", "review_count": 1338, "categories": [{"alias": "ramen", "title": "Ramen"}], "rating": 4.0, "coordinates": {"latitude": 35.2153789011605, "longitude": -80.8554426119171}, "transactions": ["delivery"], "price": "$$", "location": {"address1": "222 Bland St", "address2": "", "address3": "Bland Street Light Rail Station", "city": "Charlotte", "zip_code": "28203", "country": "US", "state": "NC", "display_address": ["222 Bland St", "Bland Street Light Rail Station", "Charlotte, NC 28203"]}, "phone": "+17043768400", "display_phone": "(704) 376-8400", "distance": 3118.509475536818}, {"id": "Y91oVsTzK9IElhm7yZhyCQ", "alias": "red-sake-charlotte", "name": "Red Sake", "image_url": "https://s3-media2.fl.yelpcdn.com/bphoto/YIjkqtLGc4r2QLIrr4dSlQ/o.jpg", "is_closed": false, "url": "https://www.yelp.com/biz/red-sake-charlotte?adjust_creative=vyhy616UjsMTA_hrWyg_5w&utm_campaign=yelp_api_v3&utm_medium=api_v3_business_search&utm_source=vyhy616UjsMTA_hrWyg_5w", "review_count": 75, "categories": [{"alias": "sushi", "title": "Sushi Bars"}, {"alias": "asianfusion", "title": "Asian Fusion"}, {"alias": "japanese", "title": "Japanese"}], "rating": 4.5, "coordinates": {"latitude": 35.053648, "longitude": -80.811846}, "transactions": [], "location": {"address1": "8410 Rea Rd", "address2": "Ste 100", "address3": "", "city": "Charlotte", "zip_code": "28277", "country": "US", "state": "NC", "display_address": ["8410 Rea Rd", "Ste 100", "Charlotte, NC 28277"]}, "phone": "+19804981578", "display_phone": "(980) 498-1578", "distance": 15939.055661414644}, {"id": "kPfhSK0kcUmOTmC5DEjaDw", "alias": "doans-charlotte", "name": "Doan's", "image_url": "https://s3-media2.fl.yelpcdn.com/bphoto/WJLtE31ZziOW-4GxBFE1dQ/o.jpg", "is_closed": false, "url": "https://www.yelp.com/biz/doans-charlotte?adjust_creative=vyhy616UjsMTA_hrWyg_5w&utm_campaign=yelp_api_v3&utm_medium=api_v3_business_search&utm_source=vyhy616UjsMTA_hrWyg_5w", "review_count": 302, "categories": [{"alias": "vietnamese", "title": "Vietnamese"}, {"alias": "vegetarian", "title": "Vegetarian"}, {"alias": "asianfusion", "title": "Asian Fusion"}], "rating": 4.5, "coordinates": {"latitude": 35.154775, "longitude": -80.875412}, "transactions": ["delivery"], "price": "$$", "location": {"address1": "5937 South Blvd", "address2": "", "address3": "", "city": "Charlotte", "zip_code": "28217", "country": "US", "state": "NC", "display_address": ["5937 South Blvd", "Charlotte, NC 28217"]}, "phone": "+17047339077", "display_phone": "(704) 733-9077", "distance": 6130.774994868834}, {"id": "EgAuMs5nY-NpvljxF2n-Uw", "alias": "aroy-thai-charlotte-2", "name": "Aroy Thai", "image_url": "https://s3-media4.fl.yelpcdn.com/bphoto/aVxRZw4-l8IRMlK3MqGroQ/o.jpg", "is_closed": false, "url": "https://www.yelp.com/biz/aroy-thai-charlotte-2?adjust_creative=vyhy616UjsMTA_hrWyg_5w&utm_campaign=yelp_api_v3&utm_medium=api_v3_business_search&utm_source=vyhy616UjsMTA_hrWyg_5w", "review_count": 162, "categories": [{"alias": "thai", "title": "Thai"}], "rating": 4.5, "coordinates": {"latitude": 35.18736, "longitude": -80.75768}, "transactions": ["delivery", "pickup"], "location": {"address1": "5301 E Independence Blvd", "address2": "Ste F", "address3": "", "city": "Charlotte", "zip_code": "28212", "country": "US", "state": "NC", "display_address": ["5301 E Independence Blvd", "Ste F", "Charlotte, NC 28212"]}, "phone": "+19808195245", "display_phone": "(980) 819-5245", "distance": 6610.506655168365}, {"id": "s6lTNO57vXsfzyYrPfXOvA", "alias": "vietnam-grille-charlotte", "name": "Vietnam Grille", "image_url": "https://s3-media2.fl.yelpcdn.com/bphoto/bpgRq0c-IjkfGT_5ctJHOw/o.jpg", "is_closed": false, "url": "https://www.yelp.com/biz/vietnam-grille-charlotte?adjust_creative=vyhy616UjsMTA_hrWyg_5w&utm_campaign=yelp_api_v3&utm_medium=api_v3_business_search&utm_source=vyhy616UjsMTA_hrWyg_5w", "review_count": 391, "categories": [{"alias": "vietnamese", "title": "Vietnamese"}], "rating": 4.0, "coordinates": {"latitude": 35.1598255647287, "longitude": -80.875802542826}, "transactions": ["delivery", "pickup"], "price": "$$", "location": {"address1": "5615 South Blvd", "address2": "", "address3": "", "city": "Charlotte", "zip_code": "28217", "country": "US", "state": "NC", "display_address": ["5615 South Blvd", "Charlotte, NC 28217"]}, "phone": "+17045252408", "display_phone": "(704) 525-2408", "distance": 5760.125911170565}, {"id": "7Nz4kTghhicjsR23GYMlLg", "alias": "jade-dragon-charlotte", "name": "Jade Dragon", "image_url": "https://s3-media2.fl.yelpcdn.com/bphoto/BdlVBW7YZbZfvyzQGVmB2A/o.jpg", "is_closed": false, "url": "https://www.yelp.com/biz/jade-dragon-charlotte?adjust_creative=vyhy616UjsMTA_hrWyg_5w&utm_campaign=yelp_api_v3&utm_medium=api_v3_business_search&utm_source=vyhy616UjsMTA_hrWyg_5w", "review_count": 77, "categories": [{"alias": "chinese", "title": "Chinese"}], "rating": 4.0, "coordinates": {"latitude": 35.107287371410536, "longitude": -80.80692784648237}, "transactions": ["delivery"], "price": "$$", "location": {"address1": "7741 Colony Rd", "address2": "Ste A4", "address3": "", "city": "Charlotte", "zip_code": "28226", "country": "US", "state": "NC", "display_address": ["7741 Colony Rd", "Ste A4", "Charlotte, NC 28226"]}, "phone": "+17045447797", "display_phone": "(704) 544-7797", "distance": 10104.057370059689}, {"id": "c6-5RCj8FtV-m1aHz4wnmQ", "alias": "saigon-palace-charlotte", "name": "Saigon Palace", "image_url": "https://s3-media4.fl.yelpcdn.com/bphoto/cqahw23SvaAeLzhtNp9zEA/o.jpg", "is_closed": false, "url": "https://www.yelp.com/biz/saigon-palace-charlotte?adjust_creative=vyhy616UjsMTA_hrWyg_5w&utm_campaign=yelp_api_v3&utm_medium=api_v3_business_search&utm_source=vyhy616UjsMTA_hrWyg_5w", "review_count": 256, "categories": [{"alias": "vietnamese", "title": "Vietnamese"}], "rating": 4.0, "coordinates": {"latitude": 35.1658383354459, "longitude": -80.8754028752446}, "transactions": ["delivery"], "price": "$$", "location": {"address1": "5215 South Blvd", "address2": "", "address3": "", "city": "Charlotte", "zip_code": "28217", "country": "US", "state": "NC", "display_address": ["5215 South Blvd", "Charlotte, NC 28217"]}, "phone": "+17045290098", "display_phone": "(704) 529-0098", "distance": 5285.4947170613705}, {"id": "qWSwDbtJRBvKTiMpH3rNLQ", "alias": "deejai-thai-charlotte", "name": "Deejai Thai", "image_url": "https://s3-media3.fl.yelpcdn.com/bphoto/2APCqk7yFffIH4l90L9Ogg/o.jpg", "is_closed": false, "url": "https://www.yelp.com/biz/deejai-thai-charlotte?adjust_creative=vyhy616UjsMTA_hrWyg_5w&utm_campaign=yelp_api_v3&utm_medium=api_v3_business_search&utm_source=vyhy616UjsMTA_hrWyg_5w", "review_count": 314, "categories": [{"alias": "thai", "title": "Thai"}, {"alias": "sushi", "title": "Sushi Bars"}, {"alias": "asianfusion", "title": "Asian Fusion"}], "rating": 4.0, "coordinates": {"latitude": 35.2013619, "longitude": -80.824666}, "transactions": ["delivery", "pickup"], "price": "$$", "location": {"address1": "613 Providence Rd", "address2": null, "address3": "", "city": "Charlotte", "zip_code": "28207", "country": "US", "state": "NC", "display_address": ["613 Providence Rd", "Charlotte, NC 28207"]}, "phone": "+17043337884", "display_phone": "(704) 333-7884", "distance": 793.2269936588534}, {"id": "Cbr_THdFrhePgJoqQ9X6gQ", "alias": "pho-hoa-noodle-soup-charlotte-3", "name": "Pho Hoa Noodle Soup", "image_url": "https://s3-media3.fl.yelpcdn.com/bphoto/kZS1CfrH3tby0MXXCEraFA/o.jpg", "is_closed": false, "url": "https://www.yelp.com/biz/pho-hoa-noodle-soup-charlotte-3?adjust_creative=vyhy616UjsMTA_hrWyg_5w&utm_campaign=yelp_api_v3&utm_medium=api_v3_business_search&utm_source=vyhy616UjsMTA_hrWyg_5w", "review_count": 333, "categories": [{"alias": "vietnamese", "title": "Vietnamese"}], "rating": 4.5, "coordinates": {"latitude": 35.217429, "longitude": -80.794365}, "transactions": ["delivery"], "price": "$$", "location": {"address1": "3000 Central Ave", "address2": "Ste 1", "address3": "", "city": "Charlotte", "zip_code": "28205", "country": "US", "state": "NC", "display_address": ["3000 Central Ave", "Ste 1", "Charlotte, NC 28205"]}, "phone": "+17045367110", "display_phone": "(704) 536-7110", "distance": 4053.9224830020366}, {"id": "LKuzbx5Yt3yqiokUFdjVhg", "alias": "chois-korea-and-wing-charlotte", "name": "Choi's Korea & Wing", "image_url": "https://s3-media3.fl.yelpcdn.com/bphoto/p-LjeAoEJWPDV_iwNYteqg/o.jpg", "is_closed": false, "url": "https://www.yelp.com/biz/chois-korea-and-wing-charlotte?adjust_creative=vyhy616UjsMTA_hrWyg_5w&utm_campaign=yelp_api_v3&utm_medium=api_v3_business_search&utm_source=vyhy616UjsMTA_hrWyg_5w", "review_count": 187, "categories": [{"alias": "chinese", "title": "Chinese"}, {"alias": "korean", "title": "Korean"}], "rating": 4.0, "coordinates": {"latitude": 35.13717, "longitude": -80.87834}, "transactions": ["delivery", "pickup"], "price": "$$", "location": {"address1": "808 E Arrowood Rd", "address2": "", "address3": "", "city": "Charlotte", "zip_code": "28217", "country": "US", "state": "NC", "display_address": ["808 E Arrowood Rd", "Charlotte, NC 28217"]}, "phone": "+17046431212", "display_phone": "(704) 643-1212", "distance": 7854.110120426528}, {"id": "Ecoir2j2X8kMh031HlyEnA", "alias": "warmack-charlotte", "name": "Warmack", "image_url": "https://s3-media2.fl.yelpcdn.com/bphoto/AqI2VmhPIASjGCktHgr94w/o.jpg", "is_closed": false, "url": "https://www.yelp.com/biz/warmack-charlotte?adjust_creative=vyhy616UjsMTA_hrWyg_5w&utm_campaign=yelp_api_v3&utm_medium=api_v3_business_search&utm_source=vyhy616UjsMTA_hrWyg_5w", "review_count": 16, "categories": [{"alias": "cocktailbars", "title": "Cocktail Bars"}, {"alias": "japanese", "title": "Japanese"}, {"alias": "vietnamese", "title": "Vietnamese"}], "rating": 4.5, "coordinates": {"latitude": 35.220619, "longitude": -80.81732}, "transactions": [], "location": {"address1": "1226 Central Ave", "address2": null, "address3": "", "city": "Charlotte", "zip_code": "28204", "country": "US", "state": "NC", "display_address": ["1226 Central Ave", "Charlotte, NC 28204"]}, "phone": "+17045039539", "display_phone": "(704) 503-9539", "distance": 2975.593057823976}, {"id": "HTESZ5_0rPxx485n6v3XaA", "alias": "blue-orchid-charlotte", "name": "Blue Orchid", "image_url": "https://s3-media4.fl.yelpcdn.com/bphoto/c0Idi2UIQSxy3taldAKB_g/o.jpg", "is_closed": false, "url": "https://www.yelp.com/biz/blue-orchid-charlotte?adjust_creative=vyhy616UjsMTA_hrWyg_5w&utm_campaign=yelp_api_v3&utm_medium=api_v3_business_search&utm_source=vyhy616UjsMTA_hrWyg_5w", "review_count": 63, "categories": [{"alias": "sushi", "title": "Sushi Bars"}, {"alias": "asianfusion", "title": "Asian Fusion"}], "rating": 5.0, "coordinates": {"latitude": 35.145787, "longitude": -80.9365416}, "transactions": [], "location": {"address1": "8170 S Tryon St", "address2": "Ste G", "address3": "", "city": "Charlotte", "zip_code": "28273", "country": "US", "state": "NC", "display_address": ["8170 S Tryon St", "Ste G", "Charlotte, NC 28273"]}, "phone": "+19804303971", "display_phone": "(980) 430-3971", "distance": 11140.747671778947}, {"id": "iYT30UPGmLdmTRaAKz0Vvw", "alias": "bes-noodles-and-banh-mi-charlotte", "name": "Be's Noodles & Banh Mi", "image_url": "https://s3-media4.fl.yelpcdn.com/bphoto/HEtYgvsTy2gQkhe1-Umv8w/o.jpg", "is_closed": false, "url": "https://www.yelp.com/biz/bes-noodles-and-banh-mi-charlotte?adjust_creative=vyhy616UjsMTA_hrWyg_5w&utm_campaign=yelp_api_v3&utm_medium=api_v3_business_search&utm_source=vyhy616UjsMTA_hrWyg_5w", "review_count": 308, "categories": [{"alias": "vietnamese", "title": "Vietnamese"}, {"alias": "noodles", "title": "Noodles"}, {"alias": "sandwiches", "title": "Sandwiches"}], "rating": 4.5, "coordinates": {"latitude": 35.056411, "longitude": -80.8354073}, "transactions": ["delivery"], "price": "$$", "location": {"address1": "11318 N Community House Rd", "address2": "", "address3": null, "city": "Charlotte", "zip_code": "28277", "country": "US", "state": "NC", "display_address": ["11318 N Community House Rd", "Charlotte, NC 28277"]}, "phone": "+17047526410", "display_phone": "(704) 752-6410", "distance": 15536.96189447288}, {"id": "o3XMuqAlb-aEgJ9B3tJ5YQ", "alias": "sheng-ramen-charlotte", "name": "Sheng Ramen", "image_url": "https://s3-media4.fl.yelpcdn.com/bphoto/McXf9T0M16LwAEDxkLQwSg/o.jpg", "is_closed": false, "url": "https://www.yelp.com/biz/sheng-ramen-charlotte?adjust_creative=vyhy616UjsMTA_hrWyg_5w&utm_campaign=yelp_api_v3&utm_medium=api_v3_business_search&utm_source=vyhy616UjsMTA_hrWyg_5w", "review_count": 210, "categories": [{"alias": "ramen", "title": "Ramen"}], "rating": 4.5, "coordinates": {"latitude": 35.0527250543742, "longitude": -80.8466157085106}, "transactions": ["delivery"], "price": "$$", "location": {"address1": "15201 John J Delaney Dr", "address2": "", "address3": null, "city": "Charlotte", "zip_code": "28277", "country": "US", "state": "NC", "display_address": ["15201 John J Delaney Dr", "Charlotte, NC 28277"]}, "phone": "+19803352738", "display_phone": "(980) 335-2738", "distance": 15905.464933133208}, {"id": "WWUKyGck3vJde6bPJmQ3wA", "alias": "yume-ramen-sushi-and-bar-charlotte-2", "name": "Yume Ramen Sushi & Bar", "image_url": "https://s3-media3.fl.yelpcdn.com/bphoto/Hzad0tQFqsvhSB397ya47Q/o.jpg", "is_closed": false, "url": "https://www.yelp.com/biz/yume-ramen-sushi-and-bar-charlotte-2?adjust_creative=vyhy616UjsMTA_hrWyg_5w&utm_campaign=yelp_api_v3&utm_medium=api_v3_business_search&utm_source=vyhy616UjsMTA_hrWyg_5w", "review_count": 249, "categories": [{"alias": "sushi", "title": "Sushi Bars"}, {"alias": "ramen", "title": "Ramen"}, {"alias": "izakaya", "title": "Izakaya"}], "rating": 4.0, "coordinates": {"latitude": 35.21933, "longitude": -80.86107}, "transactions": ["delivery"], "price": "$$", "location": {"address1": "1508 S Mint St", "address2": "Ste A", "address3": "", "city": "Charlotte", "zip_code": "28203", "country": "US", "state": "NC", "display_address": ["1508 S Mint St", "Ste A", "Charlotte, NC 28203"]}, "phone": "+19808585678", "display_phone": "(980) 858-5678", "distance": 3775.2386308374676}, {"id": "O7_rXHN_-cFp0TgiMaNulw", "alias": "kung-foo-noodle-huntersville", "name": "Kung Foo Noodle", "image_url": "https://s3-media1.fl.yelpcdn.com/bphoto/hGyGg0JiA38qi6sVcvsL7g/o.jpg", "is_closed": false, "url": "https://www.yelp.com/biz/kung-foo-noodle-huntersville?adjust_creative=vyhy616UjsMTA_hrWyg_5w&utm_campaign=yelp_api_v3&utm_medium=api_v3_business_search&utm_source=vyhy616UjsMTA_hrWyg_5w", "review_count": 409, "categories": [{"alias": "chinese", "title": "Chinese"}, {"alias": "noodles", "title": "Noodles"}], "rating": 4.5, "coordinates": {"latitude": 35.446553, "longitude": -80.879669}, "transactions": ["delivery"], "price": "$$", "location": {"address1": "8625C Lindholm Dr", "address2": "", "address3": "", "city": "Huntersville", "zip_code": "28078", "country": "US", "state": "NC", "display_address": ["8625C Lindholm Dr", "Huntersville, NC 28078"]}, "phone": "+17049978132", "display_phone": "(704) 997-8132", "distance": 28205.594040284508}, {"id": "RApd_uvsR3dDNekgc1Emrw", "alias": "boiling-pot-charlotte", "name": "Boiling Pot", "image_url": "https://s3-media2.fl.yelpcdn.com/bphoto/8TorRRK4iw2KHfrz0fmMBQ/o.jpg", "is_closed": false, "url": "https://www.yelp.com/biz/boiling-pot-charlotte?adjust_creative=vyhy616UjsMTA_hrWyg_5w&utm_campaign=yelp_api_v3&utm_medium=api_v3_business_search&utm_source=vyhy616UjsMTA_hrWyg_5w", "review_count": 152, "categories": [{"alias": "fondue", "title": "Fondue"}, {"alias": "tapas", "title": "Tapas Bars"}, {"alias": "hotpot", "title": "Hot Pot"}], "rating": 3.5, "coordinates": {"latitude": 35.350323, "longitude": -80.842886}, "transactions": ["delivery"], "price": "$$", "location": {"address1": "7010 Smith Corners Blvd", "address2": "Ste F", "address3": "", "city": "Charlotte", "zip_code": "28269", "country": "US", "state": "NC", "display_address": ["7010 Smith Corners Blvd", "Ste F", "Charlotte, NC 28269"]}, "phone": "+17044969026", "display_phone": "(704) 496-9026", "distance": 17165.05412973574}, {"id": "PlP0c_u3g-3LiWHpb2XnOQ", "alias": "lee-cafe-fort-mill-2", "name": "Lee Cafe", "image_url": "https://s3-media3.fl.yelpcdn.com/bphoto/R_mSyVwFCAd41r3WWjr2oA/o.jpg", "is_closed": false, "url": "https://www.yelp.com/biz/lee-cafe-fort-mill-2?adjust_creative=vyhy616UjsMTA_hrWyg_5w&utm_campaign=yelp_api_v3&utm_medium=api_v3_business_search&utm_source=vyhy616UjsMTA_hrWyg_5w", "review_count": 309, "categories": [{"alias": "sushi", "title": "Sushi Bars"}, {"alias": "chinese", "title": "Chinese"}], "rating": 4.0, "coordinates": {"latitude": 35.0754755315612, "longitude": -80.93390444639}, "transactions": ["delivery"], "price": "$$", "location": {"address1": "1046 Regent Pkwy", "address2": "Ste 107", "address3": "", "city": "Fort Mill", "zip_code": "29715", "country": "US", "state": "SC", "display_address": ["1046 Regent Pkwy", "Ste 107", "Fort Mill, SC 29715"]}, "phone": "+18035488191", "display_phone": "(803) 548-8191", "distance": 16376.915623740755}, {"id": "gnKjwL_1w79qoiV3IC_xQQ", "alias": "musashi-japanese-restaurant-charlotte", "name": "Musashi Japanese Restaurant", "image_url": "https://s3-media3.fl.yelpcdn.com/bphoto/ojli8ND5HkWGKEOSFCW9rQ/o.jpg", "is_closed": false, "url": "https://www.yelp.com/biz/musashi-japanese-restaurant-charlotte?adjust_creative=vyhy616UjsMTA_hrWyg_5w&utm_campaign=yelp_api_v3&utm_medium=api_v3_business_search&utm_source=vyhy616UjsMTA_hrWyg_5w", "review_count": 220, "categories": [{"alias": "japanese", "title": "Japanese"}, {"alias": "sushi", "title": "Sushi Bars"}], "rating": 4.0, "coordinates": {"latitude": 35.092564, "longitude": -80.859132}, "transactions": ["delivery"], "price": "$$", "location": {"address1": "10110 Johnston Rd", "address2": "Ste 15", "address3": "", "city": "Charlotte", "zip_code": "28210", "country": "US", "state": "NC", "display_address": ["10110 Johnston Rd", "Ste 15", "Charlotte, NC 28210"]}, "phone": "+17045435181", "display_phone": "(704) 543-5181", "distance": 11800.62660685542}, {"id": "osSwv6CJy5hDKQdOKeyTow", "alias": "ru-sans-charlotte", "name": "Ru San's", "image_url": "https://s3-media3.fl.yelpcdn.com/bphoto/5bIJTmkRaalS2fujwMt2Iw/o.jpg", "is_closed": false, "url": "https://www.yelp.com/biz/ru-sans-charlotte?adjust_creative=vyhy616UjsMTA_hrWyg_5w&utm_campaign=yelp_api_v3&utm_medium=api_v3_business_search&utm_source=vyhy616UjsMTA_hrWyg_5w", "review_count": 715, "categories": [{"alias": "sushi", "title": "Sushi Bars"}, {"alias": "japanese", "title": "Japanese"}], "rating": 4.0, "coordinates": {"latitude": 35.1977376810067, "longitude": -80.8527190502625}, "transactions": ["delivery", "pickup"], "price": "$$", "location": {"address1": "2440 Park Rd", "address2": "", "address3": "", "city": "Charlotte", "zip_code": "28203", "country": "US", "state": "NC", "display_address": ["2440 Park Rd", "Charlotte, NC 28203"]}, "phone": "+17043740008", "display_phone": "(704) 374-0008", "distance": 2024.0831999335267}, {"id": "3iYmhmchZUgwRvixOPm40w", "alias": "saru-charlotte", "name": "SARU", "image_url": "https://s3-media2.fl.yelpcdn.com/bphoto/RSQkg1D2u_q9VncROwScsg/o.jpg", "is_closed": false, "url": "https://www.yelp.com/biz/saru-charlotte?adjust_creative=vyhy616UjsMTA_hrWyg_5w&utm_campaign=yelp_api_v3&utm_medium=api_v3_business_search&utm_source=vyhy616UjsMTA_hrWyg_5w", "review_count": 35, "categories": [{"alias": "ramen", "title": "Ramen"}], "rating": 4.5, "coordinates": {"latitude": 35.245299, "longitude": -80.832034}, "transactions": ["delivery", "pickup"], "location": {"address1": "1801 N Graham St", "address2": "Ste 102", "address3": "", "city": "Charlotte", "zip_code": "28206", "country": "US", "state": "NC", "display_address": ["1801 N Graham St", "Ste 102", "Charlotte, NC 28206"]}, "phone": "+19808195889", "display_phone": "(980) 819-5889", "distance": 5474.41151164708}, {"id": "G_LtZnL66Iwama_7_FCLUQ", "alias": "baku-charlotte", "name": "Baku", "image_url": "https://s3-media1.fl.yelpcdn.com/bphoto/6TNcrw_43X-pvq3I9VNACQ/o.jpg", "is_closed": false, "url": "https://www.yelp.com/biz/baku-charlotte?adjust_creative=vyhy616UjsMTA_hrWyg_5w&utm_campaign=yelp_api_v3&utm_medium=api_v3_business_search&utm_source=vyhy616UjsMTA_hrWyg_5w", "review_count": 389, "categories": [{"alias": "sushi", "title": "Sushi Bars"}, {"alias": "japanese", "title": "Japanese"}, {"alias": "wine_bars", "title": "Wine Bars"}], "rating": 4.0, "coordinates": {"latitude": 35.1512208119518, "longitude": -80.8278901435165}, "transactions": ["delivery"], "price": "$$$", "location": {"address1": "4515 Sharon Rd", "address2": null, "address3": "", "city": "Charlotte", "zip_code": "28211", "country": "US", "state": "NC", "display_address": ["4515 Sharon Rd", "Charlotte, NC 28211"]}, "phone": "+17048177173", "display_phone": "(704) 817-7173", "distance": 4994.078948277748}, {"id": "a0Jm-rlHOKk_1fm4hzxskg", "alias": "wan-fu-charlotte-2", "name": "Wan Fu", "image_url": "https://s3-media1.fl.yelpcdn.com/bphoto/nB-5BdK9LMHeOYJYI3zjtw/o.jpg", "is_closed": false, "url": "https://www.yelp.com/biz/wan-fu-charlotte-2?adjust_creative=vyhy616UjsMTA_hrWyg_5w&utm_campaign=yelp_api_v3&utm_medium=api_v3_business_search&utm_source=vyhy616UjsMTA_hrWyg_5w", "review_count": 211, "categories": [{"alias": "chinese", "title": "Chinese"}], "rating": 4.0, "coordinates": {"latitude": 35.0886192321777, "longitude": -80.8615798950195}, "transactions": [], "price": "$$", "location": {"address1": "10719 Kettering Dr", "address2": "", "address3": "", "city": "Charlotte", "zip_code": "28226", "country": "US", "state": "NC", "display_address": ["10719 Kettering Dr", "Charlotte, NC 28226"]}, "phone": "+17045411688", "display_phone": "(704) 541-1688", "distance": 12274.270818702744}, {"id": "gsx589OoME1nxwkC1HuWYQ", "alias": "spice-asian-kitchen-fort-mill", "name": "Spice Asian Kitchen", "image_url": "https://s3-media4.fl.yelpcdn.com/bphoto/kfDL27iVKQyqZX0rKVTteg/o.jpg", "is_closed": false, "url": "https://www.yelp.com/biz/spice-asian-kitchen-fort-mill?adjust_creative=vyhy616UjsMTA_hrWyg_5w&utm_campaign=yelp_api_v3&utm_medium=api_v3_business_search&utm_source=vyhy616UjsMTA_hrWyg_5w", "review_count": 223, "categories": [{"alias": "asianfusion", "title": "Asian Fusion"}, {"alias": "korean", "title": "Korean"}, {"alias": "thai", "title": "Thai"}], "rating": 4.5, "coordinates": {"latitude": 35.026897, "longitude": -80.961877}, "transactions": ["delivery", "restaurant_reservation", "pickup"], "price": "$$", "location": {"address1": "251 Textile Way", "address2": "", "address3": null, "city": "Fort Mill", "zip_code": "29708", "country": "US", "state": "SC", "display_address": ["251 Textile Way", "Fort Mill, SC 29708"]}, "phone": "+18035486868", "display_phone": "(803) 548-6868", "distance": 22285.36120796227}, {"id": "rb4d1_OtpVD91J5NDp4Y3w", "alias": "o-ku-sushi-charlotte", "name": "O-Ku Sushi", "image_url": "https://s3-media1.fl.yelpcdn.com/bphoto/kB9xvYd-LwWW5v8TroLIWw/o.jpg", "is_closed": false, "url": "https://www.yelp.com/biz/o-ku-sushi-charlotte?adjust_creative=vyhy616UjsMTA_hrWyg_5w&utm_campaign=yelp_api_v3&utm_medium=api_v3_business_search&utm_source=vyhy616UjsMTA_hrWyg_5w", "review_count": 433, "categories": [{"alias": "sushi", "title": "Sushi Bars"}, {"alias": "japanese", "title": "Japanese"}, {"alias": "seafood", "title": "Seafood"}], "rating": 4.0, "coordinates": {"latitude": 35.2092456, "longitude": -80.8607013}, "transactions": ["delivery"], "price": "$$", "location": {"address1": "2000 South Blvd", "address2": "Ste 510", "address3": "", "city": "Charlotte", "zip_code": "28203", "country": "US", "state": "NC", "display_address": ["2000 South Blvd", "Ste 510", "Charlotte, NC 28203"]}, "phone": "+17045941922", "display_phone": "(704) 594-1922", "distance": 3107.1927524304483}, {"id": "6hZgMg9rnDCC0RBVRlkZwQ", "alias": "mr-tokyo-japanese-restaurant-charlotte-2", "name": "Mr Tokyo Japanese Restaurant", "image_url": "https://s3-media2.fl.yelpcdn.com/bphoto/q9t4YqOZmbUcCYXtgStrqQ/o.jpg", "is_closed": false, "url": "https://www.yelp.com/biz/mr-tokyo-japanese-restaurant-charlotte-2?adjust_creative=vyhy616UjsMTA_hrWyg_5w&utm_campaign=yelp_api_v3&utm_medium=api_v3_business_search&utm_source=vyhy616UjsMTA_hrWyg_5w", "review_count": 542, "categories": [{"alias": "japanese", "title": "Japanese"}, {"alias": "sushi", "title": "Sushi Bars"}, {"alias": "salad", "title": "Salad"}], "rating": 4.0, "coordinates": {"latitude": 35.0884323423575, "longitude": -80.8599348944992}, "transactions": ["delivery"], "price": "$$", "location": {"address1": "8334 Pineville Matthew Rd", "address2": "", "address3": "", "city": "Charlotte", "zip_code": "28226", "country": "US", "state": "NC", "display_address": ["8334 Pineville Matthew Rd", "Charlotte, NC 28226"]}, "phone": "+17045415566", "display_phone": "(704) 541-5566", "distance": 12264.891486511226}, {"id": "YjPWt-V5oMkakdRWrALb8g", "alias": "honey-buns-cafeteria-charlotte", "name": "Honey Bun's Cafeteria", "image_url": "https://s3-media2.fl.yelpcdn.com/bphoto/6kAOvLJosrfvCZ6PyNiWRQ/o.jpg", "is_closed": false, "url": "https://www.yelp.com/biz/honey-buns-cafeteria-charlotte?adjust_creative=vyhy616UjsMTA_hrWyg_5w&utm_campaign=yelp_api_v3&utm_medium=api_v3_business_search&utm_source=vyhy616UjsMTA_hrWyg_5w", "review_count": 83, "categories": [{"alias": "dimsum", "title": "Dim Sum"}], "rating": 4.0, "coordinates": {"latitude": 35.162837, "longitude": -80.73765}, "transactions": ["delivery"], "price": "$", "location": {"address1": "7323 E Independence Blvd", "address2": "", "address3": "", "city": "Charlotte", "zip_code": "28227", "country": "US", "state": "NC", "display_address": ["7323 E Independence Blvd", "Charlotte, NC 28227"]}, "phone": "+17049044021", "display_phone": "(704) 904-4021", "distance": 9215.837394393042}, {"id": "zpGCFAt_MydbQN4EsXee6w", "alias": "banh-mi-brothers-charlotte", "name": "Banh Mi Brothers", "image_url": "https://s3-media1.fl.yelpcdn.com/bphoto/npz9VQBIPkPwC782jGIPLA/o.jpg", "is_closed": false, "url": "https://www.yelp.com/biz/banh-mi-brothers-charlotte?adjust_creative=vyhy616UjsMTA_hrWyg_5w&utm_campaign=yelp_api_v3&utm_medium=api_v3_business_search&utm_source=vyhy616UjsMTA_hrWyg_5w", "review_count": 369, "categories": [{"alias": "vietnamese", "title": "Vietnamese"}, {"alias": "bubbletea", "title": "Bubble Tea"}, {"alias": "juicebars", "title": "Juice Bars & Smoothies"}], "rating": 4.5, "coordinates": {"latitude": 35.303505, "longitude": -80.748868}, "transactions": ["delivery", "pickup"], "price": "$", "location": {"address1": "230 E Wt Harris Blvd", "address2": "Ste A-7", "address3": "", "city": "Charlotte", "zip_code": "28262", "country": "US", "state": "NC", "display_address": ["230 E Wt Harris Blvd", "Ste A-7", "Charlotte, NC 28262"]}, "phone": "+17049007842", "display_phone": "(704) 900-7842", "distance": 14059.797283693035}], "total": 437, "region": {"center": {"longitude": -80.83053588867188, "latitude": 35.19608159407329}}}