{"businesses": [{"id": "C6jsT_dX8330WrQ0Sv9WsA", "alias": "jade-dragon-fargo", "name": "Jade Dragon", "image_url": "https://s3-media4.fl.yelpcdn.com/bphoto/GyqPlUXZ-Zqr8DkWNPD4zA/o.jpg", "is_closed": false, "url": "https://www.yelp.com/biz/jade-dragon-fargo?adjust_creative=vyhy616UjsMTA_hrWyg_5w&utm_campaign=yelp_api_v3&utm_medium=api_v3_business_search&utm_source=vyhy616UjsMTA_hrWyg_5w", "review_count": 86, "categories": [{"alias": "vietnamese", "title": "Vietnamese"}, {"alias": "chinese", "title": "Chinese"}], "rating": 4.0, "coordinates": {"latitude": 46.875019, "longitude": -96.795036}, "transactions": ["pickup", "delivery"], "price": "$", "location": {"address1": "1015 Main Ave", "address2": "", "address3": "", "city": "Fargo", "zip_code": "58124", "country": "US", "state": "ND", "display_address": ["1015 Main Ave", "Fargo, ND 58124"]}, "phone": "+17012930152", "display_phone": "(701) 293-0152", "distance": 3404.5297980003074}, {"id": "sM8-BF49TPvq4U5UjBUKjw", "alias": "leela-thai-cuisine-fargo", "name": "LeeLa Thai Cuisine", "image_url": "https://s3-media3.fl.yelpcdn.com/bphoto/i1oaZfGw5KYETv1fdRrbOg/o.jpg", "is_closed": false, "url": "https://www.yelp.com/biz/leela-thai-cuisine-fargo?adjust_creative=vyhy616UjsMTA_hrWyg_5w&utm_campaign=yelp_api_v3&utm_medium=api_v3_business_search&utm_source=vyhy616UjsMTA_hrWyg_5w", "review_count": 50, "categories": [{"alias": "thai", "title": "Thai"}], "rating": 4.0, "coordinates": {"latitude": 46.8598762467467, "longitude": -96.8184725285067}, "transactions": ["pickup", "delivery"], "price": "$$", "location": {"address1": "1450 25th St S", "address2": "Ste 151", "address3": "", "city": "Fargo", "zip_code": "58103", "country": "US", "state": "ND", "display_address": ["1450 25th St S", "Ste 151", "Fargo, ND 58103"]}, "phone": "+17012355795", "display_phone": "(701) 235-5795", "distance": 948.5608144784733}, {"id": "vsEbgeWGQRpmiNNttNP0uQ", "alias": "pho-d-licious-fargo-2", "name": "Pho D'licious", "image_url": "https://s3-media3.fl.yelpcdn.com/bphoto/qZj6grEfxwixlaBStlFtiQ/o.jpg", "is_closed": false, "url": "https://www.yelp.com/biz/pho-d-licious-fargo-2?adjust_creative=vyhy616UjsMTA_hrWyg_5w&utm_campaign=yelp_api_v3&utm_medium=api_v3_business_search&utm_source=vyhy616UjsMTA_hrWyg_5w", "review_count": 45, "categories": [{"alias": "vietnamese", "title": "Vietnamese"}], "rating": 4.5, "coordinates": {"latitude": 46.8821182250977, "longitude": -96.7920608520508}, "transactions": ["pickup", "delivery"], "location": {"address1": "623 Northern Pacific Ave", "address2": "", "address3": null, "city": "Fargo", "zip_code": "58102", "country": "US", "state": "ND", "display_address": ["623 Northern Pacific Ave", "Fargo, ND 58102"]}, "phone": "+17015322225", "display_phone": "(701) 532-2225", "distance": 3833.41037902781}, {"id": "EVMLRPTiDJ7-GjJbj2ELHQ", "alias": "wasabi-fargo", "name": "Wasabi", "image_url": "https://s3-media3.fl.yelpcdn.com/bphoto/uCQD7HC1eabzWYpbrn_s9w/o.jpg", "is_closed": false, "url": "https://www.yelp.com/biz/wasabi-fargo?adjust_creative=vyhy616UjsMTA_hrWyg_5w&utm_campaign=yelp_api_v3&utm_medium=api_v3_business_search&utm_source=vyhy616UjsMTA_hrWyg_5w", "review_count": 81, "categories": [{"alias": "sushi", "title": "Sushi Bars"}, {"alias": "asianfusion", "title": "Asian Fusion"}], "rating": 4.0, "coordinates": {"latitude": 46.8778950342747, "longitude": -96.7870178160475}, "transactions": ["delivery"], "price": "$$", "location": {"address1": "560 2nd Ave N", "address2": "", "address3": "", "city": "Fargo", "zip_code": "58102", "country": "US", "state": "ND", "display_address": ["560 2nd Ave N", "Fargo, ND 58102"]}, "phone": "+17014782442", "display_phone": "(701) 478-2442", "distance": 4055.3654169190822}, {"id": "Qb6kDXwYT0xN_aH0pmfLXg", "alias": "le-s-banh-mi-west-fargo-2", "name": "Le\u2019s Banh Mi", "image_url": "https://s3-media1.fl.yelpcdn.com/bphoto/_TcAYnIYTReLuMjz5WNUyA/o.jpg", "is_closed": false, "url": "https://www.yelp.com/biz/le-s-banh-mi-west-fargo-2?adjust_creative=vyhy616UjsMTA_hrWyg_5w&utm_campaign=yelp_api_v3&utm_medium=api_v3_business_search&utm_source=vyhy616UjsMTA_hrWyg_5w", "review_count": 33, "categories": [{"alias": "vietnamese", "title": "Vietnamese"}], "rating": 4.5, "coordinates": {"latitude": 46.8412205806305, "longitude": -96.884327381455}, "transactions": ["pickup", "delivery"], "location": {"address1": "833 24th Ave", "address2": "", "address3": null, "city": "West Fargo", "zip_code": "58078", "country": "US", "state": "ND", "display_address": ["833 24th Ave", "West Fargo, ND 58078"]}, "phone": "+17015321924", "display_phone": "(701) 532-1924", "distance": 4526.236338821216}, {"id": "cYn5brcpOivLj9w_I1h7KA", "alias": "great-wall-chinese-restaurant-fargo", "name": "Great Wall Chinese Restaurant", "image_url": "https://s3-media1.fl.yelpcdn.com/bphoto/4DLJ6fqMZFfW_XJL3ZRUvA/o.jpg", "is_closed": false, "url": "https://www.yelp.com/biz/great-wall-chinese-restaurant-fargo?adjust_creative=vyhy616UjsMTA_hrWyg_5w&utm_campaign=yelp_api_v3&utm_medium=api_v3_business_search&utm_source=vyhy616UjsMTA_hrWyg_5w", "review_count": 44, "categories": [{"alias": "chinese", "title": "Chinese"}], "rating": 4.0, "coordinates": {"latitude": 46.85486, "longitude": -96.799}, "transactions": ["delivery"], "price": "$$", "location": {"address1": "1617 S University Dr", "address2": "", "address3": "", "city": "Fargo", "zip_code": "58103", "country": "US", "state": "ND", "display_address": ["1617 S University Dr", "Fargo, ND 58103"]}, "phone": "+17012328288", "display_phone": "(701) 232-8288", "distance": 2204.6446045639477}, {"id": "NsZVyJPKBLcdmMNciCvtKg", "alias": "mandarin-kitchen-express-fargo", "name": "Mandarin Kitchen Express", "image_url": "https://s3-media1.fl.yelpcdn.com/bphoto/BCx__poUtuRIyanK89ypGg/o.jpg", "is_closed": false, "url": "https://www.yelp.com/biz/mandarin-kitchen-express-fargo?adjust_creative=vyhy616UjsMTA_hrWyg_5w&utm_campaign=yelp_api_v3&utm_medium=api_v3_business_search&utm_source=vyhy616UjsMTA_hrWyg_5w", "review_count": 28, "categories": [{"alias": "chinese", "title": "Chinese"}], "rating": 4.5, "coordinates": {"latitude": 46.83305, "longitude": -96.82814}, "transactions": ["delivery"], "location": {"address1": "3003 32nd Ave", "address2": "Ste 1", "address3": "", "city": "Fargo", "zip_code": "58103", "country": "US", "state": "ND", "display_address": ["3003 32nd Ave", "Ste 1", "Fargo, ND 58103"]}, "phone": "+17015322088", "display_phone": "(701) 532-2088", "distance": 2371.5712723881074}, {"id": "FuvGK6oQlTxTXvKxR9-9kw", "alias": "osaka-sushi-and-hibachi-fargo", "name": "Osaka Sushi & Hibachi", "image_url": "https://s3-media4.fl.yelpcdn.com/bphoto/LWVwUJTRXfefAM7R-yHb6g/o.jpg", "is_closed": false, "url": "https://www.yelp.com/biz/osaka-sushi-and-hibachi-fargo?adjust_creative=vyhy616UjsMTA_hrWyg_5w&utm_campaign=yelp_api_v3&utm_medium=api_v3_business_search&utm_source=vyhy616UjsMTA_hrWyg_5w", "review_count": 53, "categories": [{"alias": "japanese", "title": "Japanese"}, {"alias": "sushi", "title": "Sushi Bars"}], "rating": 3.5, "coordinates": {"latitude": 46.8635802208178, "longitude": -96.8454587459564}, "transactions": ["pickup", "delivery"], "price": "$$", "location": {"address1": "1111 38th St S", "address2": "", "address3": "", "city": "Fargo", "zip_code": "58103", "country": "US", "state": "ND", "display_address": ["1111 38th St S", "Fargo, ND 58103"]}, "phone": "+17012823888", "display_phone": "(701) 282-3888", "distance": 1676.3106012007918}, {"id": "R6Xu0j32DURS9nAUcSccOw", "alias": "izumi-sushi-and-hibachi-fargo-2", "name": "Izumi Sushi & Hibachi", "image_url": "https://s3-media3.fl.yelpcdn.com/bphoto/ZUEy3WirCaADgA9O3EELyw/o.jpg", "is_closed": false, "url": "https://www.yelp.com/biz/izumi-sushi-and-hibachi-fargo-2?adjust_creative=vyhy616UjsMTA_hrWyg_5w&utm_campaign=yelp_api_v3&utm_medium=api_v3_business_search&utm_source=vyhy616UjsMTA_hrWyg_5w", "review_count": 116, "categories": [{"alias": "sushi", "title": "Sushi Bars"}, {"alias": "japanese", "title": "Japanese"}, {"alias": "steak", "title": "Steakhouses"}], "rating": 4.0, "coordinates": {"latitude": 46.8412099, "longitude": -96.88224}, "transactions": ["pickup", "delivery"], "price": "$$", "location": {"address1": "5675 26th Ave S", "address2": "Ste 108", "address3": "", "city": "Fargo", "zip_code": "58104", "country": "US", "state": "ND", "display_address": ["5675 26th Ave S", "Ste 108", "Fargo, ND 58104"]}, "phone": "+17013568556", "display_phone": "(701) 356-8556", "distance": 4375.717464531219}, {"id": "orWFvdeEQecbTGouHrhwBw", "alias": "himalayan-yak-fargo-2", "name": "Himalayan Yak", "image_url": "https://s3-media2.fl.yelpcdn.com/bphoto/hSEkKs0JiIa1_ghrLZdNVQ/o.jpg", "is_closed": false, "url": "https://www.yelp.com/biz/himalayan-yak-fargo-2?adjust_creative=vyhy616UjsMTA_hrWyg_5w&utm_campaign=yelp_api_v3&utm_medium=api_v3_business_search&utm_source=vyhy616UjsMTA_hrWyg_5w", "review_count": 66, "categories": [{"alias": "indpak", "title": "Indian"}, {"alias": "himalayan", "title": "Himalayan/Nepalese"}, {"alias": "buffets", "title": "Buffets"}], "rating": 4.5, "coordinates": {"latitude": 46.85963, "longitude": -96.81873}, "transactions": ["pickup", "delivery"], "price": "$$", "location": {"address1": "1450 25th St S", "address2": "", "address3": "", "city": "Fargo", "zip_code": "58103", "country": "US", "state": "ND", "display_address": ["1450 25th St S", "Fargo, ND 58103"]}, "phone": "+17014780011", "display_phone": "(701) 478-0011", "distance": 950.4946051492249}, {"id": "nGq8hsfo6PyYL7DqsrFB1w", "alias": "samurai-restaurant-fargo-3", "name": "Samurai Restaurant", "image_url": "https://s3-media1.fl.yelpcdn.com/bphoto/NHEq9vbbkcasfFQTL5Q-MQ/o.jpg", "is_closed": false, "url": "https://www.yelp.com/biz/samurai-restaurant-fargo-3?adjust_creative=vyhy616UjsMTA_hrWyg_5w&utm_campaign=yelp_api_v3&utm_medium=api_v3_business_search&utm_source=vyhy616UjsMTA_hrWyg_5w", "review_count": 80, "categories": [{"alias": "japanese", "title": "Japanese"}, {"alias": "sushi", "title": "Sushi Bars"}], "rating": 4.0, "coordinates": {"latitude": 46.85355, "longitude": -96.86237}, "transactions": ["delivery"], "price": "$$", "location": {"address1": "1775 45th St S", "address2": "Ste B", "address3": "", "city": "Fargo", "zip_code": "58103", "country": "US", "state": "ND", "display_address": ["1775 45th St S", "Ste B", "Fargo, ND 58103"]}, "phone": "+17013568882", "display_phone": "(701) 356-8882", "distance": 2617.0817817611496}, {"id": "11mqB7IlszkgDx7BLfm2_Q", "alias": "drunken-noodle-fargo-2", "name": "Drunken Noodle", "image_url": "https://s3-media4.fl.yelpcdn.com/bphoto/NJH7uEect6o-gg8SC-rmOg/o.jpg", "is_closed": false, "url": "https://www.yelp.com/biz/drunken-noodle-fargo-2?adjust_creative=vyhy616UjsMTA_hrWyg_5w&utm_campaign=yelp_api_v3&utm_medium=api_v3_business_search&utm_source=vyhy616UjsMTA_hrWyg_5w", "review_count": 57, "categories": [{"alias": "noodles", "title": "Noodles"}], "rating": 3.5, "coordinates": {"latitude": 46.8806440381939, "longitude": -96.7878817766905}, "transactions": [], "price": "$", "location": {"address1": "414 Broadway", "address2": "", "address3": "", "city": "Fargo", "zip_code": "58102", "country": "US", "state": "ND", "display_address": ["414 Broadway", "Fargo, ND 58102"]}, "phone": "+17012323380", "display_phone": "(701) 232-3380", "distance": 4223.434540932346}, {"id": "6HzzP3Ud6aaikQsPL6ul0Q", "alias": "thai-orchid-restaurant-moorhead", "name": "Thai Orchid Restaurant", "image_url": "https://s3-media3.fl.yelpcdn.com/bphoto/q9_iNl47gsPZM3C8o4S86g/o.jpg", "is_closed": false, "url": "https://www.yelp.com/biz/thai-orchid-restaurant-moorhead?adjust_creative=vyhy616UjsMTA_hrWyg_5w&utm_campaign=yelp_api_v3&utm_medium=api_v3_business_search&utm_source=vyhy616UjsMTA_hrWyg_5w", "review_count": 55, "categories": [{"alias": "thai", "title": "Thai"}], "rating": 4.0, "coordinates": {"latitude": 46.87612, "longitude": -96.77292}, "transactions": ["delivery"], "price": "$$", "location": {"address1": "420 Center Ave", "address2": "", "address3": "", "city": "Moorhead", "zip_code": "56560", "country": "US", "state": "MN", "display_address": ["420 Center Ave", "Moorhead, MN 56560"]}, "phone": "+12182270099", "display_phone": "(218) 227-0099", "distance": 4820.943611076124}, {"id": "V84HZTL4AINxSAW3p1vUWg", "alias": "lucys-north-china-cuisine-fargo-2", "name": "Lucy's North China Cuisine", "image_url": "https://s3-media2.fl.yelpcdn.com/bphoto/zoNFg_ybyMRf3EUmRy4tKg/o.jpg", "is_closed": false, "url": "https://www.yelp.com/biz/lucys-north-china-cuisine-fargo-2?adjust_creative=vyhy616UjsMTA_hrWyg_5w&utm_campaign=yelp_api_v3&utm_medium=api_v3_business_search&utm_source=vyhy616UjsMTA_hrWyg_5w", "review_count": 43, "categories": [{"alias": "chinese", "title": "Chinese"}], "rating": 3.0, "coordinates": {"latitude": 46.815316, "longitude": -96.863414}, "transactions": ["pickup", "delivery"], "price": "$$", "location": {"address1": "4323 45th St S", "address2": "Ste 105", "address3": "", "city": "Fargo", "zip_code": "58104", "country": "US", "state": "ND", "display_address": ["4323 45th St S", "Ste 105", "Fargo, ND 58104"]}, "phone": "+17013565166", "display_phone": "(701) 356-5166", "distance": 5110.361924514317}, {"id": "1rssSgps84KNPbOPFQC33w", "alias": "snap-dragon-asian-buffet-moorhead", "name": "Snap Dragon Asian Buffet", "image_url": "https://s3-media1.fl.yelpcdn.com/bphoto/ZzybMY0Mdn8NtN3HYnisQA/o.jpg", "is_closed": false, "url": "https://www.yelp.com/biz/snap-dragon-asian-buffet-moorhead?adjust_creative=vyhy616UjsMTA_hrWyg_5w&utm_campaign=yelp_api_v3&utm_medium=api_v3_business_search&utm_source=vyhy616UjsMTA_hrWyg_5w", "review_count": 30, "categories": [{"alias": "buffets", "title": "Buffets"}, {"alias": "chinese", "title": "Chinese"}, {"alias": "asianfusion", "title": "Asian Fusion"}], "rating": 3.5, "coordinates": {"latitude": 46.843687, "longitude": -96.7698039}, "transactions": ["delivery"], "price": "$$", "location": {"address1": "625 30th Ave S", "address2": "", "address3": "", "city": "Moorhead", "zip_code": "56560", "country": "US", "state": "MN", "display_address": ["625 30th Ave S", "Moorhead, MN 56560"]}, "phone": "+12182878412", "display_phone": "(218) 287-8412", "distance": 4582.650129050575}, {"id": "9fgVs-QI4gzKk1yXOevFMw", "alias": "super-buffet-sushi-and-grill-fargo", "name": "Super Buffet Sushi & Grill", "image_url": "https://s3-media2.fl.yelpcdn.com/bphoto/UPsgsMHIyQeU7ry1GjALHA/o.jpg", "is_closed": false, "url": "https://www.yelp.com/biz/super-buffet-sushi-and-grill-fargo?adjust_creative=vyhy616UjsMTA_hrWyg_5w&utm_campaign=yelp_api_v3&utm_medium=api_v3_business_search&utm_source=vyhy616UjsMTA_hrWyg_5w", "review_count": 44, "categories": [{"alias": "buffets", "title": "Buffets"}, {"alias": "mongolian", "title": "Mongolian"}, {"alias": "sushi", "title": "Sushi Bars"}], "rating": 2.5, "coordinates": {"latitude": 46.8646812438965, "longitude": -96.8610305786133}, "transactions": ["pickup", "delivery"], "price": "$$", "location": {"address1": "1000 45th St S", "address2": null, "address3": null, "city": "Fargo", "zip_code": "58103", "country": "US", "state": "ND", "display_address": ["1000 45th St S", "Fargo, ND 58103"]}, "phone": "+17013658899", "display_phone": "(701) 365-8899", "distance": 2748.5123940701424}, {"id": "bkJQfMQNxpQti2UV9UoZpQ", "alias": "stone-town-grill-west-fargo", "name": "Stone Town Grill", "image_url": "https://s3-media1.fl.yelpcdn.com/bphoto/Hrb13z4L1RU-iK3RCeA4YQ/o.jpg", "is_closed": false, "url": "https://www.yelp.com/biz/stone-town-grill-west-fargo?adjust_creative=vyhy616UjsMTA_hrWyg_5w&utm_campaign=yelp_api_v3&utm_medium=api_v3_business_search&utm_source=vyhy616UjsMTA_hrWyg_5w", "review_count": 5, "categories": [{"alias": "desserts", "title": "Desserts"}, {"alias": "salad", "title": "Salad"}, {"alias": "soup", "title": "Soup"}], "rating": 4.0, "coordinates": {"latitude": 46.832706, "longitude": -96.885297}, "transactions": ["delivery"], "location": {"address1": "705 32nd Ave E", "address2": null, "address3": "", "city": "West Fargo", "zip_code": "58078", "country": "US", "state": "ND", "display_address": ["705 32nd Ave E", "West Fargo, ND 58078"]}, "phone": "+17015321797", "display_phone": "(701) 532-1797", "distance": 4978.932575996136}, {"id": "wFQH6biVsR8gutEkFO1qVg", "alias": "kobes-japanese-cuisine-fargo-2", "name": "Kobe's Japanese Cuisine", "image_url": "https://s3-media2.fl.yelpcdn.com/bphoto/M88WfKLVubSV9oZ0mH_2ZA/o.jpg", "is_closed": false, "url": "https://www.yelp.com/biz/kobes-japanese-cuisine-fargo-2?adjust_creative=vyhy616UjsMTA_hrWyg_5w&utm_campaign=yelp_api_v3&utm_medium=api_v3_business_search&utm_source=vyhy616UjsMTA_hrWyg_5w", "review_count": 74, "categories": [{"alias": "japanese", "title": "Japanese"}, {"alias": "sushi", "title": "Sushi Bars"}], "rating": 3.5, "coordinates": {"latitude": 46.857871, "longitude": -96.853236}, "transactions": ["delivery"], "price": "$$", "location": {"address1": "4228 15th Ave S", "address2": null, "address3": null, "city": "Fargo", "zip_code": "58103", "country": "US", "state": "ND", "display_address": ["4228 15th Ave S", "Fargo, ND 58103"]}, "phone": "+17012325623", "display_phone": "(701) 232-5623", "distance": 1957.7438616650613}, {"id": "bJOB-8bP90q2tOw0qGMnLQ", "alias": "panda-express-fargo", "name": "Panda Express", "image_url": "https://s3-media1.fl.yelpcdn.com/bphoto/IMnvSLoGZJn0Jc4c14gWwg/o.jpg", "is_closed": false, "url": "https://www.yelp.com/biz/panda-express-fargo?adjust_creative=vyhy616UjsMTA_hrWyg_5w&utm_campaign=yelp_api_v3&utm_medium=api_v3_business_search&utm_source=vyhy616UjsMTA_hrWyg_5w", "review_count": 19, "categories": [{"alias": "hotdogs", "title": "Fast Food"}, {"alias": "chinese", "title": "Chinese"}], "rating": 3.0, "coordinates": {"latitude": 46.8550545, "longitude": -96.861315}, "transactions": ["pickup", "delivery"], "price": "$", "location": {"address1": "1690 45th St S", "address2": "", "address3": "", "city": "Fargo", "zip_code": "58103", "country": "US", "state": "ND", "display_address": ["1690 45th St S", "Fargo, ND 58103"]}, "phone": "+17012777110", "display_phone": "(701) 277-7110", "distance": 2534.2085270651633}, {"id": "LZwfPG5oxGjJafv9E7GWNQ", "alias": "tasty-asia-moorhead-2", "name": "Tasty Asia", "image_url": "https://s3-media4.fl.yelpcdn.com/bphoto/8iIgy3yfe4ESoqnHrVR5Rg/o.jpg", "is_closed": false, "url": "https://www.yelp.com/biz/tasty-asia-moorhead-2?adjust_creative=vyhy616UjsMTA_hrWyg_5w&utm_campaign=yelp_api_v3&utm_medium=api_v3_business_search&utm_source=vyhy616UjsMTA_hrWyg_5w", "review_count": 4, "categories": [{"alias": "chinese", "title": "Chinese"}, {"alias": "asianfusion", "title": "Asian Fusion"}, {"alias": "vietnamese", "title": "Vietnamese"}], "rating": 3.0, "coordinates": {"latitude": 46.8750495910645, "longitude": -96.7716598510742}, "transactions": [], "price": "$", "location": {"address1": "1126 2nd Ave S", "address2": "", "address3": null, "city": "Moorhead", "zip_code": "56560", "country": "US", "state": "MN", "display_address": ["1126 2nd Ave S", "Moorhead, MN 56560"]}, "phone": "+12182330608", "display_phone": "(218) 233-0608", "distance": 4861.641671021665}, {"id": "Rou7Bd518PFsIepyhacN5A", "alias": "huhot-mongolian-grill-fargo", "name": "HuHot Mongolian Grill", "image_url": "https://s3-media3.fl.yelpcdn.com/bphoto/p-rwUwQczutvJ9W3hpW9hA/o.jpg", "is_closed": false, "url": "https://www.yelp.com/biz/huhot-mongolian-grill-fargo?adjust_creative=vyhy616UjsMTA_hrWyg_5w&utm_campaign=yelp_api_v3&utm_medium=api_v3_business_search&utm_source=vyhy616UjsMTA_hrWyg_5w", "review_count": 83, "categories": [{"alias": "chinese", "title": "Chinese"}, {"alias": "mongolian", "title": "Mongolian"}, {"alias": "asianfusion", "title": "Asian Fusion"}], "rating": 3.5, "coordinates": {"latitude": 46.8529477955073, "longitude": -96.8629743038922}, "transactions": ["delivery"], "price": "$$", "location": {"address1": "1801 45th St SW", "address2": null, "address3": "", "city": "Fargo", "zip_code": "58103", "country": "US", "state": "ND", "display_address": ["1801 45th St SW", "Fargo, ND 58103"]}, "phone": "+17014784688", "display_phone": "(701) 478-4688", "distance": 2664.007624542959}, {"id": "Jxz_9yOi6thFdq8FYVj6gQ", "alias": "mezzaluna-fargo", "name": "Mezzaluna", "image_url": "https://s3-media3.fl.yelpcdn.com/bphoto/mIXTb37EnnhLYeZQXO7snQ/o.jpg", "is_closed": false, "url": "https://www.yelp.com/biz/mezzaluna-fargo?adjust_creative=vyhy616UjsMTA_hrWyg_5w&utm_campaign=yelp_api_v3&utm_medium=api_v3_business_search&utm_source=vyhy616UjsMTA_hrWyg_5w", "review_count": 288, "categories": [{"alias": "newamerican", "title": "American (New)"}], "rating": 4.5, "coordinates": {"latitude": 46.87941, "longitude": -96.78871}, "transactions": ["delivery"], "price": "$$$", "location": {"address1": "309 Roberts St", "address2": null, "address3": "", "city": "Fargo", "zip_code": "58102", "country": "US", "state": "ND", "display_address": ["309 Roberts St", "Fargo, ND 58102"]}, "phone": "+17013649479", "display_phone": "(701) 364-9479", "distance": 4087.36870199179}, {"id": "iTHd6uporkwNwkEeS6VRYw", "alias": "nine-dragons-restaurant-fargo-3", "name": "Nine Dragons Restaurant", "image_url": "https://s3-media3.fl.yelpcdn.com/bphoto/kt-cUBeWal6gt4pdwIHfFA/o.jpg", "is_closed": false, "url": "https://www.yelp.com/biz/nine-dragons-restaurant-fargo-3?adjust_creative=vyhy616UjsMTA_hrWyg_5w&utm_campaign=yelp_api_v3&utm_medium=api_v3_business_search&utm_source=vyhy616UjsMTA_hrWyg_5w", "review_count": 25, "categories": [{"alias": "pizza", "title": "Pizza"}, {"alias": "chinese", "title": "Chinese"}, {"alias": "tradamerican", "title": "American (Traditional)"}], "rating": 2.0, "coordinates": {"latitude": 46.8439902, "longitude": -96.8648199}, "transactions": ["delivery"], "price": "$$", "location": {"address1": "4615 23rd Ave S", "address2": "", "address3": "", "city": "Fargo", "zip_code": "58104", "country": "US", "state": "ND", "display_address": ["4615 23rd Ave S", "Fargo, ND 58104"]}, "phone": "+17012322411", "display_phone": "(701) 232-2411", "distance": 3028.5118189969376}, {"id": "4poxqcTieCASGAfY49i6pQ", "alias": "noodles-and-company-moorhead", "name": "Noodles & Company", "image_url": "https://s3-media3.fl.yelpcdn.com/bphoto/fnnUz4lODiQ1QZ8IX8sn_A/o.jpg", "is_closed": false, "url": "https://www.yelp.com/biz/noodles-and-company-moorhead?adjust_creative=vyhy616UjsMTA_hrWyg_5w&utm_campaign=yelp_api_v3&utm_medium=api_v3_business_search&utm_source=vyhy616UjsMTA_hrWyg_5w", "review_count": 12, "categories": [{"alias": "noodles", "title": "Noodles"}, {"alias": "salad", "title": "Salad"}, {"alias": "pastashops", "title": "Pasta Shops"}], "rating": 3.0, "coordinates": {"latitude": 46.8494855545347, "longitude": -96.7664033}, "transactions": [], "price": "$", "location": {"address1": "922 Holiday Dr", "address2": "", "address3": "", "city": "Moorhead", "zip_code": "56560", "country": "US", "state": "MN", "display_address": ["922 Holiday Dr", "Moorhead, MN 56560"]}, "phone": "+12185122040", "display_phone": "(218) 512-2040", "distance": 4715.722197953741}, {"id": "_Uj_ZA43JHEL3FIJXdOmdQ", "alias": "joes-cajun-cafe-fargo", "name": "Joe's Cajun Cafe", "image_url": "https://s3-media1.fl.yelpcdn.com/bphoto/wU2poJetOrJ7lpXZ9_ud9w/o.jpg", "is_closed": false, "url": "https://www.yelp.com/biz/joes-cajun-cafe-fargo?adjust_creative=vyhy616UjsMTA_hrWyg_5w&utm_campaign=yelp_api_v3&utm_medium=api_v3_business_search&utm_source=vyhy616UjsMTA_hrWyg_5w", "review_count": 8, "categories": [{"alias": "hotdogs", "title": "Fast Food"}, {"alias": "asianfusion", "title": "Asian Fusion"}], "rating": 3.0, "coordinates": {"latitude": 46.8600753, "longitude": -96.8465222}, "transactions": [], "price": "$", "location": {"address1": "3902 13th Ave S", "address2": "", "address3": "West Acres Mall", "city": "Fargo", "zip_code": "58103", "country": "US", "state": "ND", "display_address": ["3902 13th Ave S", "West Acres Mall", "Fargo, ND 58103"]}, "phone": "+17013560366", "display_phone": "(701) 356-0366", "distance": 1544.3777670990078}, {"id": "Uk3Rcq3WIgwXiThKyszPpg", "alias": "passage-to-india-fargo", "name": "Passage To India", "image_url": "https://s3-media2.fl.yelpcdn.com/bphoto/fqJfAfZtY2RZmfhQqENm0g/o.jpg", "is_closed": false, "url": "https://www.yelp.com/biz/passage-to-india-fargo?adjust_creative=vyhy616UjsMTA_hrWyg_5w&utm_campaign=yelp_api_v3&utm_medium=api_v3_business_search&utm_source=vyhy616UjsMTA_hrWyg_5w", "review_count": 95, "categories": [{"alias": "indpak", "title": "Indian"}, {"alias": "buffets", "title": "Buffets"}], "rating": 4.0, "coordinates": {"latitude": 46.86755, "longitude": -96.86272}, "transactions": ["pickup", "delivery"], "price": "$$", "location": {"address1": "855 45th St S", "address2": "", "address3": "", "city": "Fargo", "zip_code": "58103", "country": "US", "state": "ND", "display_address": ["855 45th St S", "Fargo, ND 58103"]}, "phone": "+17012810277", "display_phone": "(701) 281-0277", "distance": 3034.6424549864914}, {"id": "0_AftELFx1DKUweXzPNL-A", "alias": "doolittles-woodfire-grill-fargo", "name": "Doolittles Woodfire Grill", "image_url": "https://s3-media3.fl.yelpcdn.com/bphoto/349vvArs1ZmXiWLrvX2aNA/o.jpg", "is_closed": false, "url": "https://www.yelp.com/biz/doolittles-woodfire-grill-fargo?adjust_creative=vyhy616UjsMTA_hrWyg_5w&utm_campaign=yelp_api_v3&utm_medium=api_v3_business_search&utm_source=vyhy616UjsMTA_hrWyg_5w", "review_count": 167, "categories": [{"alias": "newamerican", "title": "American (New)"}], "rating": 4.0, "coordinates": {"latitude": 46.8464012145996, "longitude": -96.8188858032227}, "transactions": ["pickup", "delivery"], "price": "$$", "location": {"address1": "2112 25th St S", "address2": "", "address3": "", "city": "Fargo", "zip_code": "58103", "country": "US", "state": "ND", "display_address": ["2112 25th St S", "Fargo, ND 58103"]}, "phone": "+17014782200", "display_phone": "(701) 478-2200", "distance": 1111.2723178974006}], "total": 27, "region": {"center": {"longitude": -96.8280029296875, "latitude": 46.85437177647295}}}