{"businesses": [{"id": "vl7aA5m-7Fl-w2bNtX2WBQ", "alias": "asian-pear-albuquerque", "name": "Asian Pear", "image_url": "https://s3-media1.fl.yelpcdn.com/bphoto/ELDCRZ7CqXvX0QJJd_CbHg/o.jpg", "is_closed": false, "url": "https://www.yelp.com/biz/asian-pear-albuquerque?adjust_creative=vyhy616UjsMTA_hrWyg_5w&utm_campaign=yelp_api_v3&utm_medium=api_v3_business_search&utm_source=vyhy616UjsMTA_hrWyg_5w", "review_count": 313, "categories": [{"alias": "japanese", "title": "Japanese"}, {"alias": "korean", "title": "Korean"}, {"alias": "bbq", "title": "Barbeque"}], "rating": 4.5, "coordinates": {"latitude": 35.174641, "longitude": -106.5778345}, "transactions": ["delivery"], "price": "$", "location": {"address1": "8101 San Pedro Dr NE", "address2": "", "address3": "", "city": "Albuquerque", "zip_code": "87113", "country": "US", "state": "NM", "display_address": ["8101 San Pedro Dr NE", "Albuquerque, NM 87113"]}, "phone": "+15057669405", "display_phone": "(505) 766-9405", "distance": 7078.64280716891}, {"id": "dyZ6Z0zbiPCZGme4DCm7gg", "alias": "magokoro-albuquerque-2", "name": "Magokoro", "image_url": "https://s3-media2.fl.yelpcdn.com/bphoto/eWPCUCZk2-EbSAHcnDvrBw/o.jpg", "is_closed": false, "url": "https://www.yelp.com/biz/magokoro-albuquerque-2?adjust_creative=vyhy616UjsMTA_hrWyg_5w&utm_campaign=yelp_api_v3&utm_medium=api_v3_business_search&utm_source=vyhy616UjsMTA_hrWyg_5w", "review_count": 343, "categories": [{"alias": "japanese", "title": "Japanese"}], "rating": 4.5, "coordinates": {"latitude": 35.1089251, "longitude": -106.5814256}, "transactions": ["delivery"], "price": "$$", "location": {"address1": "5614 Menaul Blvd Ne", "address2": "", "address3": "", "city": "Albuquerque", "zip_code": "87110", "country": "US", "state": "NM", "display_address": ["5614 Menaul Blvd Ne", "Albuquerque, NM 87110"]}, "phone": "+15058302061", "display_phone": "(505) 830-2061", "distance": 2345.4755063730754}, {"id": "QanGXrAh_TMuSSlfq_qX_A", "alias": "basil-leaf-vietnamese-restaurant-albuquerque", "name": "Basil Leaf Vietnamese Restaurant", "image_url": "https://s3-media2.fl.yelpcdn.com/bphoto/jRPnHR79As4U_fJ2DTZtgw/o.jpg", "is_closed": false, "url": "https://www.yelp.com/biz/basil-leaf-vietnamese-restaurant-albuquerque?adjust_creative=vyhy616UjsMTA_hrWyg_5w&utm_campaign=yelp_api_v3&utm_medium=api_v3_business_search&utm_source=vyhy616UjsMTA_hrWyg_5w", "review_count": 431, "categories": [{"alias": "vietnamese", "title": "Vietnamese"}], "rating": 4.5, "coordinates": {"latitude": 35.09273, "longitude": -106.53314}, "transactions": ["delivery"], "price": "$$", "location": {"address1": "1225 Eubank NE", "address2": "", "address3": "", "city": "Albuquerque", "zip_code": "87112", "country": "US", "state": "NM", "display_address": ["1225 Eubank NE", "Albuquerque, NM 87112"]}, "phone": "+15053232594", "display_phone": "(505) 323-2594", "distance": 7061.636947855755}, {"id": "cZsrev0Sno9zPh17IowaGg", "alias": "fan-tang-albuquerque", "name": "Fan Tang", "image_url": "https://s3-media4.fl.yelpcdn.com/bphoto/r-pUsEn4sYmQu6LH2sWwJQ/o.jpg", "is_closed": false, "url": "https://www.yelp.com/biz/fan-tang-albuquerque?adjust_creative=vyhy616UjsMTA_hrWyg_5w&utm_campaign=yelp_api_v3&utm_medium=api_v3_business_search&utm_source=vyhy616UjsMTA_hrWyg_5w", "review_count": 355, "categories": [{"alias": "chinese", "title": "Chinese"}], "rating": 4.0, "coordinates": {"latitude": 35.08003, "longitude": -106.60485}, "transactions": ["delivery", "pickup"], "price": "$$", "location": {"address1": "3523 Central Ave NE", "address2": "", "address3": "", "city": "Albuquerque", "zip_code": "87106", "country": "US", "state": "NM", "display_address": ["3523 Central Ave NE", "Albuquerque, NM 87106"]}, "phone": "+15052663566", "display_phone": "(505) 266-3566", "distance": 3911.9764032307485}, {"id": "yqDIkGY2e1zh-GI4Avsr2g", "alias": "saigon-city-restaurant-albuquerque", "name": "Saigon City Restaurant", "image_url": "https://s3-media3.fl.yelpcdn.com/bphoto/JL2DFjWG4DAi4nDmGY1r_w/o.jpg", "is_closed": false, "url": "https://www.yelp.com/biz/saigon-city-restaurant-albuquerque?adjust_creative=vyhy616UjsMTA_hrWyg_5w&utm_campaign=yelp_api_v3&utm_medium=api_v3_business_search&utm_source=vyhy616UjsMTA_hrWyg_5w", "review_count": 188, "categories": [{"alias": "vietnamese", "title": "Vietnamese"}], "rating": 4.5, "coordinates": {"latitude": 35.143593, "longitude": -106.593554}, "transactions": ["delivery"], "price": "$", "location": {"address1": "4320 The 25 Way NE", "address2": "", "address3": "", "city": "Albuquerque", "zip_code": "87108", "country": "US", "state": "NM", "display_address": ["4320 The 25 Way NE", "Albuquerque, NM 87108"]}, "phone": "+15052557408", "display_phone": "(505) 255-7408", "distance": 3342.42500618705}, {"id": "Y1nc23Tnypb_5I21E5HJsw", "alias": "bamboo-grill-vietnamese-cuisine-albuquerque", "name": "Bamboo Grill Vietnamese Cuisine", "image_url": "https://s3-media1.fl.yelpcdn.com/bphoto/NJ-6WJvEVVeRSFH560TDPw/o.jpg", "is_closed": false, "url": "https://www.yelp.com/biz/bamboo-grill-vietnamese-cuisine-albuquerque?adjust_creative=vyhy616UjsMTA_hrWyg_5w&utm_campaign=yelp_api_v3&utm_medium=api_v3_business_search&utm_source=vyhy616UjsMTA_hrWyg_5w", "review_count": 52, "categories": [{"alias": "vietnamese", "title": "Vietnamese"}, {"alias": "asianfusion", "title": "Asian Fusion"}], "rating": 5.0, "coordinates": {"latitude": 35.108753, "longitude": -106.564252}, "transactions": ["delivery", "pickup"], "location": {"address1": "7202 Menaul Blvd NE", "address2": "", "address3": null, "city": "Albuquerque", "zip_code": "87110", "country": "US", "state": "NM", "display_address": ["7202 Menaul Blvd NE", "Albuquerque, NM 87110"]}, "phone": "+15053691909", "display_phone": "(505) 369-1909", "distance": 3850.5988879529896}, {"id": "WUJoLHUNQYVPEum9CIRYdw", "alias": "chinshan-albuquerque", "name": "Chinshan", "image_url": "https://s3-media3.fl.yelpcdn.com/bphoto/8j0TJMplRMP3NyANsvztJw/o.jpg", "is_closed": false, "url": "https://www.yelp.com/biz/chinshan-albuquerque?adjust_creative=vyhy616UjsMTA_hrWyg_5w&utm_campaign=yelp_api_v3&utm_medium=api_v3_business_search&utm_source=vyhy616UjsMTA_hrWyg_5w", "review_count": 148, "categories": [{"alias": "chinese", "title": "Chinese"}], "rating": 4.5, "coordinates": {"latitude": 35.104266, "longitude": -106.549289}, "transactions": ["delivery"], "price": "$$", "location": {"address1": "2010 Wyoming Blvd NE", "address2": "Ste C", "address3": "", "city": "Albuquerque", "zip_code": "87112", "country": "US", "state": "NM", "display_address": ["2010 Wyoming Blvd NE", "Ste C", "Albuquerque, NM 87112"]}, "phone": "+15058008630", "display_phone": "(505) 800-8630", "distance": 5288.707144845166}, {"id": "yQEyRdpY7cgvvwl_JDt4pg", "alias": "tsais-chinese-bistro-albuquerque", "name": "Tsai's Chinese Bistro", "image_url": "https://s3-media3.fl.yelpcdn.com/bphoto/qaeXzKfyqd54J6so4UHJ2A/o.jpg", "is_closed": false, "url": "https://www.yelp.com/biz/tsais-chinese-bistro-albuquerque?adjust_creative=vyhy616UjsMTA_hrWyg_5w&utm_campaign=yelp_api_v3&utm_medium=api_v3_business_search&utm_source=vyhy616UjsMTA_hrWyg_5w", "review_count": 156, "categories": [{"alias": "taiwanese", "title": "Taiwanese"}, {"alias": "chinese", "title": "Chinese"}], "rating": 4.5, "coordinates": {"latitude": 35.10489, "longitude": -106.57799}, "transactions": ["delivery", "pickup"], "price": "$$", "location": {"address1": "2325 San Pedro Dr NE", "address2": "Ste 1E", "address3": "", "city": "Albuquerque", "zip_code": "87110", "country": "US", "state": "NM", "display_address": ["2325 San Pedro Dr NE", "Ste 1E", "Albuquerque, NM 87110"]}, "phone": "+15055082925", "display_phone": "(505) 508-2925", "distance": 2776.4700131372333}, {"id": "EtSay2-qWMd6xVpelkYg3g", "alias": "sticky-rice-albuquerque", "name": "Sticky Rice", "image_url": "https://s3-media1.fl.yelpcdn.com/bphoto/vMMPOSdEB-wvmDKCxX6Akw/o.jpg", "is_closed": false, "url": "https://www.yelp.com/biz/sticky-rice-albuquerque?adjust_creative=vyhy616UjsMTA_hrWyg_5w&utm_campaign=yelp_api_v3&utm_medium=api_v3_business_search&utm_source=vyhy616UjsMTA_hrWyg_5w", "review_count": 60, "categories": [{"alias": "laotian", "title": "Laotian"}], "rating": 4.5, "coordinates": {"latitude": 35.1657715, "longitude": -106.591011}, "transactions": ["delivery"], "price": "$", "location": {"address1": "7600 Jefferson St NE", "address2": "Ste 5", "address3": "", "city": "Albuquerque", "zip_code": "87109", "country": "US", "state": "NM", "display_address": ["7600 Jefferson St NE", "Ste 5", "Albuquerque, NM 87109"]}, "phone": "+15057971288", "display_phone": "(505) 797-1288", "distance": 5762.9228768053}, {"id": "8-cIoLQM5tohx620y_gF-g", "alias": "pho-79-albuquerque", "name": "Pho 79", "image_url": "https://s3-media3.fl.yelpcdn.com/bphoto/mOymFcKdRB37QMw9WhY2xg/o.jpg", "is_closed": false, "url": "https://www.yelp.com/biz/pho-79-albuquerque?adjust_creative=vyhy616UjsMTA_hrWyg_5w&utm_campaign=yelp_api_v3&utm_medium=api_v3_business_search&utm_source=vyhy616UjsMTA_hrWyg_5w", "review_count": 231, "categories": [{"alias": "vietnamese", "title": "Vietnamese"}], "rating": 4.0, "coordinates": {"latitude": 35.1146, "longitude": -106.622035}, "transactions": ["delivery", "pickup"], "price": "$", "location": {"address1": "2007 Candalaria Rd NE", "address2": "Ste A", "address3": "", "city": "Albuquerque", "zip_code": "87107", "country": "US", "state": "NM", "display_address": ["2007 Candalaria Rd NE", "Ste A", "Albuquerque, NM 87107"]}, "phone": "+15058833747", "display_phone": "(505) 883-3747", "distance": 1475.2357796432266}, {"id": "IpIzhiNDNS0Ed0U7QJv-zw", "alias": "budai-gourmet-chinese-albuquerque", "name": "Budai Gourmet Chinese", "image_url": "https://s3-media4.fl.yelpcdn.com/bphoto/SXc19NChfG81sBabphuWHg/o.jpg", "is_closed": false, "url": "https://www.yelp.com/biz/budai-gourmet-chinese-albuquerque?adjust_creative=vyhy616UjsMTA_hrWyg_5w&utm_campaign=yelp_api_v3&utm_medium=api_v3_business_search&utm_source=vyhy616UjsMTA_hrWyg_5w", "review_count": 236, "categories": [{"alias": "chinese", "title": "Chinese"}, {"alias": "taiwanese", "title": "Taiwanese"}], "rating": 4.0, "coordinates": {"latitude": 35.149605, "longitude": -106.584776}, "transactions": ["delivery"], "price": "$$", "location": {"address1": "6300 San Mateo Blvd NE", "address2": "Ste H-1", "address3": "", "city": "Albuquerque", "zip_code": "87109", "country": "US", "state": "NM", "display_address": ["6300 San Mateo Blvd NE", "Ste H-1", "Albuquerque, NM 87109"]}, "phone": "+15057977898", "display_phone": "(505) 797-7898", "distance": 4274.127310108189}, {"id": "s1Ilz05ns52a5NQATowO-g", "alias": "sushi-xuan-asian-grill-albuquerque-2", "name": "Sushi Xuan Asian Grill", "image_url": "https://s3-media1.fl.yelpcdn.com/bphoto/uF5nEyFdMibRO9O68gellw/o.jpg", "is_closed": false, "url": "https://www.yelp.com/biz/sushi-xuan-asian-grill-albuquerque-2?adjust_creative=vyhy616UjsMTA_hrWyg_5w&utm_campaign=yelp_api_v3&utm_medium=api_v3_business_search&utm_source=vyhy616UjsMTA_hrWyg_5w", "review_count": 233, "categories": [{"alias": "sushi", "title": "Sushi Bars"}, {"alias": "seafood", "title": "Seafood"}, {"alias": "asianfusion", "title": "Asian Fusion"}], "rating": 4.0, "coordinates": {"latitude": 35.07323, "longitude": -106.49694}, "transactions": ["delivery", "pickup"], "price": "$$", "location": {"address1": "417 Tramway Blvd NE", "address2": "Unit 3", "address3": "", "city": "Albuquerque", "zip_code": "87123", "country": "US", "state": "NM", "display_address": ["417 Tramway Blvd NE", "Unit 3", "Albuquerque, NM 87123"]}, "phone": "+15052002477", "display_phone": "(505) 200-2477", "distance": 10929.6680930853}, {"id": "MQ33h5o34uXiKcdvkXmczQ", "alias": "thai-spice-albuquerque-2", "name": "Thai Spice", "image_url": "https://s3-media2.fl.yelpcdn.com/bphoto/knHtKR-UredNJR5C-K6gvg/o.jpg", "is_closed": false, "url": "https://www.yelp.com/biz/thai-spice-albuquerque-2?adjust_creative=vyhy616UjsMTA_hrWyg_5w&utm_campaign=yelp_api_v3&utm_medium=api_v3_business_search&utm_source=vyhy616UjsMTA_hrWyg_5w", "review_count": 247, "categories": [{"alias": "thai", "title": "Thai"}], "rating": 4.5, "coordinates": {"latitude": 35.174894, "longitude": -106.562633}, "transactions": ["delivery"], "price": "$$", "location": {"address1": "7441 Paseo Del Norte Blvd NE", "address2": "", "address3": "", "city": "Albuquerque", "zip_code": "87113", "country": "US", "state": "NM", "display_address": ["7441 Paseo Del Norte Blvd NE", "Albuquerque, NM 87113"]}, "phone": "+15055031521", "display_phone": "(505) 503-1521", "distance": 7708.940802795745}, {"id": "Hx3pmmV9BRImazUyZ53Ucw", "alias": "viets-pho-albuquerque-2", "name": "Viet's Pho", "image_url": "https://s3-media2.fl.yelpcdn.com/bphoto/ZFfxCKiRbLUfoDZMrZfaXg/o.jpg", "is_closed": false, "url": "https://www.yelp.com/biz/viets-pho-albuquerque-2?adjust_creative=vyhy616UjsMTA_hrWyg_5w&utm_campaign=yelp_api_v3&utm_medium=api_v3_business_search&utm_source=vyhy616UjsMTA_hrWyg_5w", "review_count": 131, "categories": [{"alias": "vietnamese", "title": "Vietnamese"}], "rating": 4.5, "coordinates": {"latitude": 35.10883, "longitude": -106.59649}, "transactions": ["delivery"], "price": "$", "location": {"address1": "4208 Menaul Blvd NE", "address2": null, "address3": "", "city": "Albuquerque", "zip_code": "87110", "country": "US", "state": "NM", "display_address": ["4208 Menaul Blvd NE", "Albuquerque, NM 87110"]}, "phone": "+15057172359", "display_phone": "(505) 717-2359", "distance": 1123.3102740760696}, {"id": "uWM91k9H0NfhvgWsmv9r4w", "alias": "o-ramen-and-curry-house-albuquerque", "name": "O Ramen and Curry House", "image_url": "https://s3-media2.fl.yelpcdn.com/bphoto/UXwIGlLxORIRKuMi5g7Kfw/o.jpg", "is_closed": false, "url": "https://www.yelp.com/biz/o-ramen-and-curry-house-albuquerque?adjust_creative=vyhy616UjsMTA_hrWyg_5w&utm_campaign=yelp_api_v3&utm_medium=api_v3_business_search&utm_source=vyhy616UjsMTA_hrWyg_5w", "review_count": 375, "categories": [{"alias": "ramen", "title": "Ramen"}], "rating": 4.0, "coordinates": {"latitude": 35.0808832963857, "longitude": -106.623237310325}, "transactions": ["delivery"], "price": "$", "location": {"address1": "2114 Central Ave", "address2": "", "address3": "", "city": "Albuquerque", "zip_code": "87106", "country": "US", "state": "NM", "display_address": ["2114 Central Ave", "Albuquerque, NM 87106"]}, "phone": "+15055081897", "display_phone": "(505) 508-1897", "distance": 4135.459489794429}, {"id": "yemAprhRqGGK1cfd8o7-BA", "alias": "sakura-sushi-and-grill-albuquerque", "name": "Sakura Sushi and Grill", "image_url": "https://s3-media2.fl.yelpcdn.com/bphoto/aTPO8QYaeoRTwc4XPVD83Q/o.jpg", "is_closed": false, "url": "https://www.yelp.com/biz/sakura-sushi-and-grill-albuquerque?adjust_creative=vyhy616UjsMTA_hrWyg_5w&utm_campaign=yelp_api_v3&utm_medium=api_v3_business_search&utm_source=vyhy616UjsMTA_hrWyg_5w", "review_count": 311, "categories": [{"alias": "japanese", "title": "Japanese"}, {"alias": "korean", "title": "Korean"}, {"alias": "sushi", "title": "Sushi Bars"}], "rating": 4.5, "coordinates": {"latitude": 35.15571, "longitude": -106.68097}, "transactions": ["delivery", "pickup"], "price": "$$", "location": {"address1": "6241 Riverside Plaza Ln", "address2": "", "address3": "", "city": "Albuquerque", "zip_code": "87120", "country": "US", "state": "NM", "display_address": ["6241 Riverside Plaza Ln", "Albuquerque, NM 87120"]}, "phone": "+15058902838", "display_phone": "(505) 890-2838", "distance": 8160.899525181083}, {"id": "8IsE7T_qRaR1kWtBwQUYNg", "alias": "asian-noodle-bar-albuquerque", "name": "Asian Noodle Bar", "image_url": "https://s3-media3.fl.yelpcdn.com/bphoto/jpNw76K9HE9AIQKHO3WSpg/o.jpg", "is_closed": false, "url": "https://www.yelp.com/biz/asian-noodle-bar-albuquerque?adjust_creative=vyhy616UjsMTA_hrWyg_5w&utm_campaign=yelp_api_v3&utm_medium=api_v3_business_search&utm_source=vyhy616UjsMTA_hrWyg_5w", "review_count": 120, "categories": [{"alias": "thai", "title": "Thai"}, {"alias": "noodles", "title": "Noodles"}], "rating": 4.0, "coordinates": {"latitude": 35.0842713, "longitude": -106.6512462}, "transactions": ["delivery"], "price": "$$", "location": {"address1": "318 Central Ave SW", "address2": "", "address3": "", "city": "Albuquerque", "zip_code": "87102", "country": "US", "state": "NM", "display_address": ["318 Central Ave SW", "Albuquerque, NM 87102"]}, "phone": "+15052249119", "display_phone": "(505) 224-9119", "distance": 5378.30643978067}, {"id": "W6MR5yrZNnNeNPNc4xeSGQ", "alias": "tokyo-bangkok-albuquerque-2", "name": "Tokyo Bangkok", "image_url": "https://s3-media1.fl.yelpcdn.com/bphoto/HIpM9mOL4EYhzhhvDQI8-A/o.jpg", "is_closed": false, "url": "https://www.yelp.com/biz/tokyo-bangkok-albuquerque-2?adjust_creative=vyhy616UjsMTA_hrWyg_5w&utm_campaign=yelp_api_v3&utm_medium=api_v3_business_search&utm_source=vyhy616UjsMTA_hrWyg_5w", "review_count": 88, "categories": [{"alias": "sushi", "title": "Sushi Bars"}, {"alias": "japanese", "title": "Japanese"}, {"alias": "thai", "title": "Thai"}], "rating": 4.0, "coordinates": {"latitude": 35.1404516376947, "longitude": -106.60008778102}, "transactions": ["delivery", "pickup"], "price": "$$", "location": {"address1": "4959 Pan American West Fwy NE", "address2": "Ste B", "address3": null, "city": "Albuquerque", "zip_code": "87109", "country": "US", "state": "NM", "display_address": ["4959 Pan American West Fwy NE", "Ste B", "Albuquerque, NM 87109"]}, "phone": "+15054333448", "display_phone": "(505) 433-3448", "distance": 2851.5919717551046}, {"id": "qfh1mW4Xv6196gOhtPP-gg", "alias": "chopstix-chinese-cuisine-albuquerque", "name": "ChopstiX Chinese Cuisine", "image_url": "https://s3-media1.fl.yelpcdn.com/bphoto/2aqgGT_xog-ALrgHmVeMdA/o.jpg", "is_closed": false, "url": "https://www.yelp.com/biz/chopstix-chinese-cuisine-albuquerque?adjust_creative=vyhy616UjsMTA_hrWyg_5w&utm_campaign=yelp_api_v3&utm_medium=api_v3_business_search&utm_source=vyhy616UjsMTA_hrWyg_5w", "review_count": 140, "categories": [{"alias": "chinese", "title": "Chinese"}, {"alias": "noodles", "title": "Noodles"}, {"alias": "soup", "title": "Soup"}], "rating": 4.0, "coordinates": {"latitude": 35.0881886, "longitude": -106.5792165}, "transactions": ["delivery"], "price": "$$", "location": {"address1": "6001 Lomas Blvd NE", "address2": "Ste L", "address3": "", "city": "Albuquerque", "zip_code": "87108", "country": "US", "state": "NM", "display_address": ["6001 Lomas Blvd NE", "Ste L", "Albuquerque, NM 87108"]}, "phone": "+15052688777", "display_phone": "(505) 268-8777", "distance": 3861.667350017379}, {"id": "DnHJviY_wWFL1S0CshR7-w", "alias": "kamikaze-kitchen-albuquerque", "name": "Kamikaze Kitchen", "image_url": "https://s3-media1.fl.yelpcdn.com/bphoto/2IAeYzZ4pfuP1EzytcAjAw/o.jpg", "is_closed": false, "url": "https://www.yelp.com/biz/kamikaze-kitchen-albuquerque?adjust_creative=vyhy616UjsMTA_hrWyg_5w&utm_campaign=yelp_api_v3&utm_medium=api_v3_business_search&utm_source=vyhy616UjsMTA_hrWyg_5w", "review_count": 96, "categories": [{"alias": "foodtrucks", "title": "Food Trucks"}, {"alias": "asianfusion", "title": "Asian Fusion"}], "rating": 4.5, "coordinates": {"latitude": 35.1232941, "longitude": -106.5513077}, "transactions": ["delivery", "pickup"], "price": "$", "location": {"address1": "3517 Wyoming Blvd NE", "address2": "Ste D", "address3": null, "city": "Albuquerque", "zip_code": "87110", "country": "US", "state": "NM", "display_address": ["3517 Wyoming Blvd NE", "Ste D", "Albuquerque, NM 87110"]}, "phone": "+15059008296", "display_phone": "(505) 900-8296", "distance": 5039.582211885188}, {"id": "mA1S3ZyNKq2LQQiQU5Bs_g", "alias": "it-dimsum-albuquerque", "name": "IT DIMSUM", "image_url": "https://s3-media4.fl.yelpcdn.com/bphoto/UOt4zciN5kR7eCfg1u1cdg/o.jpg", "is_closed": false, "url": "https://www.yelp.com/biz/it-dimsum-albuquerque?adjust_creative=vyhy616UjsMTA_hrWyg_5w&utm_campaign=yelp_api_v3&utm_medium=api_v3_business_search&utm_source=vyhy616UjsMTA_hrWyg_5w", "review_count": 169, "categories": [{"alias": "dimsum", "title": "Dim Sum"}], "rating": 4.0, "coordinates": {"latitude": 35.1765603, "longitude": -106.557936}, "transactions": ["delivery", "pickup"], "price": "$$", "location": {"address1": "7900 Carmel Ave NE", "address2": null, "address3": null, "city": "Albuquerque", "zip_code": "87122", "country": "US", "state": "NM", "display_address": ["7900 Carmel Ave NE", "Albuquerque, NM 87122"]}, "phone": "+15058563328", "display_phone": "(505) 856-3328", "distance": 8090.564098748689}, {"id": "3aQ6Z1R2LTalX11OmzUAQQ", "alias": "viet-taste-albuquerque", "name": "Viet Taste", "image_url": "https://s3-media4.fl.yelpcdn.com/bphoto/mI4Bxu2oEOem4_BlY2iubQ/o.jpg", "is_closed": false, "url": "https://www.yelp.com/biz/viet-taste-albuquerque?adjust_creative=vyhy616UjsMTA_hrWyg_5w&utm_campaign=yelp_api_v3&utm_medium=api_v3_business_search&utm_source=vyhy616UjsMTA_hrWyg_5w", "review_count": 270, "categories": [{"alias": "vietnamese", "title": "Vietnamese"}], "rating": 4.0, "coordinates": {"latitude": 35.1095630423366, "longitude": -106.580276246861}, "transactions": ["delivery", "pickup"], "price": "$", "location": {"address1": "5721 Menaul Blvd NE", "address2": "", "address3": "", "city": "Albuquerque", "zip_code": "87110", "country": "US", "state": "NM", "display_address": ["5721 Menaul Blvd NE", "Albuquerque, NM 87110"]}, "phone": "+15058880101", "display_phone": "(505) 888-0101", "distance": 2409.0319159819305}, {"id": "1PmJC92sDhvRnoYTbyLobw", "alias": "soo-bak-seoul-bowl-albuquerque-3", "name": "Soo Bak Seoul Bowl", "image_url": "https://s3-media3.fl.yelpcdn.com/bphoto/vtWweV723h7qpNhP9LUl-g/o.jpg", "is_closed": false, "url": "https://www.yelp.com/biz/soo-bak-seoul-bowl-albuquerque-3?adjust_creative=vyhy616UjsMTA_hrWyg_5w&utm_campaign=yelp_api_v3&utm_medium=api_v3_business_search&utm_source=vyhy616UjsMTA_hrWyg_5w", "review_count": 56, "categories": [{"alias": "korean", "title": "Korean"}, {"alias": "tacos", "title": "Tacos"}], "rating": 4.5, "coordinates": {"latitude": 35.07907, "longitude": -106.60353}, "transactions": ["delivery", "pickup"], "price": "$$", "location": {"address1": "111 Hermosa Dr SE", "address2": null, "address3": "", "city": "Albuquerque", "zip_code": "87108", "country": "US", "state": "NM", "display_address": ["111 Hermosa Dr SE", "Albuquerque, NM 87108"]}, "phone": "+15052680017", "display_phone": "(505) 268-0017", "distance": 4026.7676568252737}, {"id": "_05pzPZ1GwMvkIOrRUxvAg", "alias": "siam-cafe-albuquerque", "name": "Siam Cafe", "image_url": "https://s3-media4.fl.yelpcdn.com/bphoto/_h3JbttdnrYsFxlq03ab1w/o.jpg", "is_closed": false, "url": "https://www.yelp.com/biz/siam-cafe-albuquerque?adjust_creative=vyhy616UjsMTA_hrWyg_5w&utm_campaign=yelp_api_v3&utm_medium=api_v3_business_search&utm_source=vyhy616UjsMTA_hrWyg_5w", "review_count": 146, "categories": [{"alias": "thai", "title": "Thai"}], "rating": 4.0, "coordinates": {"latitude": 35.142933, "longitude": -106.585582}, "transactions": ["delivery", "pickup"], "price": "$", "location": {"address1": "5500 San Mateo Blvd NE", "address2": "Ste 101", "address3": "", "city": "Albuquerque", "zip_code": "87109", "country": "US", "state": "NM", "display_address": ["5500 San Mateo Blvd NE", "Ste 101", "Albuquerque, NM 87109"]}, "phone": "+15058837334", "display_phone": "(505) 883-7334", "distance": 3588.0101601602973}, {"id": "CKejbrsMqDcZ-4kOikqvEA", "alias": "iron-cafe-albuquerque", "name": "Iron Cafe", "image_url": "https://s3-media1.fl.yelpcdn.com/bphoto/wY7vgz5CFnRPwh_N5zelWg/o.jpg", "is_closed": false, "url": "https://www.yelp.com/biz/iron-cafe-albuquerque?adjust_creative=vyhy616UjsMTA_hrWyg_5w&utm_campaign=yelp_api_v3&utm_medium=api_v3_business_search&utm_source=vyhy616UjsMTA_hrWyg_5w", "review_count": 49, "categories": [{"alias": "ramen", "title": "Ramen"}, {"alias": "desserts", "title": "Desserts"}, {"alias": "bubbletea", "title": "Bubble Tea"}], "rating": 4.0, "coordinates": {"latitude": 35.08068, "longitude": -106.6235}, "transactions": ["delivery", "pickup"], "location": {"address1": "2108 Central Ave SE", "address2": "Unit B", "address3": null, "city": "Albuquerque", "zip_code": "87105", "country": "US", "state": "NM", "display_address": ["2108 Central Ave SE", "Unit B", "Albuquerque, NM 87105"]}, "phone": "+15052438657", "display_phone": "(505) 243-8657", "distance": 4158.006666029249}, {"id": "Et2x_Zg81EEiwWNYt0WxLg", "alias": "pop-up-dumpling-house-albuquerque", "name": "Pop-Up Dumpling House", "image_url": "https://s3-media4.fl.yelpcdn.com/bphoto/CvYbGz7_SFpMYtz4LK3Jaw/o.jpg", "is_closed": false, "url": "https://www.yelp.com/biz/pop-up-dumpling-house-albuquerque?adjust_creative=vyhy616UjsMTA_hrWyg_5w&utm_campaign=yelp_api_v3&utm_medium=api_v3_business_search&utm_source=vyhy616UjsMTA_hrWyg_5w", "review_count": 76, "categories": [{"alias": "szechuan", "title": "Szechuan"}, {"alias": "taiwanese", "title": "Taiwanese"}], "rating": 4.5, "coordinates": {"latitude": 35.0754449, "longitude": -106.5684251}, "transactions": [], "price": "$", "location": {"address1": "88 Louisiana Blvd SE", "address2": "", "address3": "Talin Market World Food", "city": "Albuquerque", "zip_code": "87108", "country": "US", "state": "NM", "display_address": ["88 Louisiana Blvd SE", "Talin Market World Food", "Albuquerque, NM 87108"]}, "phone": "+15052680206", "display_phone": "(505) 268-0206", "distance": 5609.852436366126}, {"id": "KI2YWUpCskhn0-f2bMXXEA", "alias": "fareast-fuzion-albuquerque", "name": "Fareast Fuzion", "image_url": "https://s3-media2.fl.yelpcdn.com/bphoto/NnRuE0RRzvJ2ZkEavRbFkw/o.jpg", "is_closed": false, "url": "https://www.yelp.com/biz/fareast-fuzion-albuquerque?adjust_creative=vyhy616UjsMTA_hrWyg_5w&utm_campaign=yelp_api_v3&utm_medium=api_v3_business_search&utm_source=vyhy616UjsMTA_hrWyg_5w", "review_count": 188, "categories": [{"alias": "sushi", "title": "Sushi Bars"}, {"alias": "chinese", "title": "Chinese"}, {"alias": "asianfusion", "title": "Asian Fusion"}], "rating": 4.5, "coordinates": {"latitude": 35.07749, "longitude": -106.58063}, "transactions": ["delivery", "pickup"], "price": "$$", "location": {"address1": "5901 Central Ave NE", "address2": "", "address3": "", "city": "Albuquerque", "zip_code": "87108", "country": "US", "state": "NM", "display_address": ["5901 Central Ave NE", "Albuquerque, NM 87108"]}, "phone": "+15052552910", "display_phone": "(505) 255-2910", "distance": 4785.958049764567}, {"id": "tTqHaWAODidw7cnmXRok4A", "alias": "bubblicitea-cafe-us-albuquerque", "name": "Bubblicitea Cafe US", "image_url": "https://s3-media1.fl.yelpcdn.com/bphoto/saiNa-L5SO1QZRAls6-Saw/o.jpg", "is_closed": false, "url": "https://www.yelp.com/biz/bubblicitea-cafe-us-albuquerque?adjust_creative=vyhy616UjsMTA_hrWyg_5w&utm_campaign=yelp_api_v3&utm_medium=api_v3_business_search&utm_source=vyhy616UjsMTA_hrWyg_5w", "review_count": 118, "categories": [{"alias": "bubbletea", "title": "Bubble Tea"}, {"alias": "cafes", "title": "Cafes"}, {"alias": "filipino", "title": "Filipino"}], "rating": 4.5, "coordinates": {"latitude": 35.104869, "longitude": -106.577996}, "transactions": ["delivery"], "price": "$", "location": {"address1": "2325 San Pedro Dr NE", "address2": "Ste 1D", "address3": "", "city": "Albuquerque", "zip_code": "87110", "country": "US", "state": "NM", "display_address": ["2325 San Pedro Dr NE", "Ste 1D", "Albuquerque, NM 87110"]}, "phone": "+15052899719", "display_phone": "(505) 289-9719", "distance": 2782.5777291206564}, {"id": "OHKN-eOdxvMWyFuRHcBVTw", "alias": "tamashi-japanese-restaurant-albuquerque", "name": "Tamashi Japanese Restaurant", "image_url": "https://s3-media4.fl.yelpcdn.com/bphoto/teLi0bJ_StEveKAoCrsAWw/o.jpg", "is_closed": false, "url": "https://www.yelp.com/biz/tamashi-japanese-restaurant-albuquerque?adjust_creative=vyhy616UjsMTA_hrWyg_5w&utm_campaign=yelp_api_v3&utm_medium=api_v3_business_search&utm_source=vyhy616UjsMTA_hrWyg_5w", "review_count": 185, "categories": [{"alias": "sushi", "title": "Sushi Bars"}, {"alias": "japanese", "title": "Japanese"}, {"alias": "wine_bars", "title": "Wine Bars"}], "rating": 4.5, "coordinates": {"latitude": 35.1756922787435, "longitude": -106.574822128375}, "transactions": ["delivery"], "price": "$$", "location": {"address1": "6400 Holly Ave NE", "address2": "Ste G", "address3": null, "city": "Albuquerque", "zip_code": "87113", "country": "US", "state": "NM", "display_address": ["6400 Holly Ave NE", "Ste G", "Albuquerque, NM 87113"]}, "phone": "+15057172457", "display_phone": "(505) 717-2457", "distance": 7289.347860761111}, {"id": "up_ONM-MLFRbfnZ0Tp_K0Q", "alias": "poki-poki-cevicheria-albuquerque-2", "name": "Poki Poki Cevicheria", "image_url": "https://s3-media2.fl.yelpcdn.com/bphoto/EAggW_ZCkol8AaIj0WZ1xg/o.jpg", "is_closed": false, "url": "https://www.yelp.com/biz/poki-poki-cevicheria-albuquerque-2?adjust_creative=vyhy616UjsMTA_hrWyg_5w&utm_campaign=yelp_api_v3&utm_medium=api_v3_business_search&utm_source=vyhy616UjsMTA_hrWyg_5w", "review_count": 326, "categories": [{"alias": "latin", "title": "Latin American"}, {"alias": "asianfusion", "title": "Asian Fusion"}, {"alias": "poke", "title": "Poke"}], "rating": 4.5, "coordinates": {"latitude": 35.079782, "longitude": -106.6060083}, "transactions": ["delivery", "pickup"], "price": "$$", "location": {"address1": "3422 Central Ave SE", "address2": null, "address3": "", "city": "Albuquerque", "zip_code": "87106", "country": "US", "state": "NM", "display_address": ["3422 Central Ave SE", "Albuquerque, NM 87106"]}, "phone": "+15055031077", "display_phone": "(505) 503-1077", "distance": 3942.896572024742}, {"id": "Rfqdj3RNbxy0aclk-RSfAw", "alias": "pho-kobe-vietnamese-cuisine-albuquerque", "name": "Pho Kobe Vietnamese Cuisine", "image_url": "https://s3-media3.fl.yelpcdn.com/bphoto/EX3uQIYDDPwNUzP-CqN-cQ/o.jpg", "is_closed": false, "url": "https://www.yelp.com/biz/pho-kobe-vietnamese-cuisine-albuquerque?adjust_creative=vyhy616UjsMTA_hrWyg_5w&utm_campaign=yelp_api_v3&utm_medium=api_v3_business_search&utm_source=vyhy616UjsMTA_hrWyg_5w", "review_count": 84, "categories": [{"alias": "vietnamese", "title": "Vietnamese"}], "rating": 4.5, "coordinates": {"latitude": 35.20306, "longitude": -106.64579}, "transactions": ["delivery", "pickup"], "location": {"address1": "10200 Corrales Rd", "address2": "", "address3": null, "city": "Albuquerque", "zip_code": "87114", "country": "US", "state": "NM", "display_address": ["10200 Corrales Rd", "Albuquerque, NM 87114"]}, "phone": "+15057171497", "display_phone": "(505) 717-1497", "distance": 10470.68229169875}, {"id": "z9NLfX8cjO8odtpJKMyRGA", "alias": "lulus-kitchen-albuquerque-2", "name": "Lulu's Kitchen", "image_url": "https://s3-media3.fl.yelpcdn.com/bphoto/ehxY2_L4BwVRKahM2w0DiA/o.jpg", "is_closed": false, "url": "https://www.yelp.com/biz/lulus-kitchen-albuquerque-2?adjust_creative=vyhy616UjsMTA_hrWyg_5w&utm_campaign=yelp_api_v3&utm_medium=api_v3_business_search&utm_source=vyhy616UjsMTA_hrWyg_5w", "review_count": 155, "categories": [{"alias": "chinese", "title": "Chinese"}], "rating": 4.0, "coordinates": {"latitude": 35.08375, "longitude": -106.65128}, "transactions": ["delivery", "pickup"], "price": "$", "location": {"address1": "315 Gold Ave SW", "address2": "", "address3": null, "city": "Albuquerque", "zip_code": "87102", "country": "US", "state": "NM", "display_address": ["315 Gold Ave SW", "Albuquerque, NM 87102"]}, "phone": "+15055038899", "display_phone": "(505) 503-8899", "distance": 5414.108740162041}, {"id": "iS90RLiioqeEoXjwGUOftQ", "alias": "banh-mi-coda-albuquerque", "name": "Banh Mi Coda", "image_url": "https://s3-media1.fl.yelpcdn.com/bphoto/68-_qibE4vFaGey-wGWDXg/o.jpg", "is_closed": false, "url": "https://www.yelp.com/biz/banh-mi-coda-albuquerque?adjust_creative=vyhy616UjsMTA_hrWyg_5w&utm_campaign=yelp_api_v3&utm_medium=api_v3_business_search&utm_source=vyhy616UjsMTA_hrWyg_5w", "review_count": 434, "categories": [{"alias": "sandwiches", "title": "Sandwiches"}, {"alias": "vietnamese", "title": "Vietnamese"}], "rating": 4.5, "coordinates": {"latitude": 35.0739902339678, "longitude": -106.568084813195}, "transactions": ["delivery"], "price": "$", "location": {"address1": "230-C Louisiana Blvd SE", "address2": "", "address3": "", "city": "Albuquerque", "zip_code": "87108", "country": "US", "state": "NM", "display_address": ["230-C Louisiana Blvd SE", "Albuquerque, NM 87108"]}, "phone": "+15052320085", "display_phone": "(505) 232-0085", "distance": 5730.210295711807}, {"id": "GJgme2vJYHdqX-kZKDgQPQ", "alias": "amerasia-sumosushi-albuquerque", "name": "AmerAsia-Sumosushi", "image_url": "https://s3-media4.fl.yelpcdn.com/bphoto/y56B0qzWNuQE9dLQpI8kUA/o.jpg", "is_closed": false, "url": "https://www.yelp.com/biz/amerasia-sumosushi-albuquerque?adjust_creative=vyhy616UjsMTA_hrWyg_5w&utm_campaign=yelp_api_v3&utm_medium=api_v3_business_search&utm_source=vyhy616UjsMTA_hrWyg_5w", "review_count": 148, "categories": [{"alias": "dimsum", "title": "Dim Sum"}, {"alias": "sushi", "title": "Sushi Bars"}], "rating": 4.0, "coordinates": {"latitude": 35.092074, "longitude": -106.648794}, "transactions": ["delivery"], "price": "$$", "location": {"address1": "800 3rd St NW", "address2": "", "address3": "", "city": "Albuquerque", "zip_code": "87102", "country": "US", "state": "NM", "display_address": ["800 3rd St NW", "Albuquerque, NM 87102"]}, "phone": "+15052461615", "display_phone": "(505) 246-1615", "distance": 4680.639431893088}, {"id": "O18vWEvgw58Dl7Uw9CxfUw", "alias": "hanmi-albuquerque", "name": "Hanmi", "image_url": "https://s3-media4.fl.yelpcdn.com/bphoto/w_7lJ0fqCum4P9ZR7wjbsA/o.jpg", "is_closed": false, "url": "https://www.yelp.com/biz/hanmi-albuquerque?adjust_creative=vyhy616UjsMTA_hrWyg_5w&utm_campaign=yelp_api_v3&utm_medium=api_v3_business_search&utm_source=vyhy616UjsMTA_hrWyg_5w", "review_count": 16, "categories": [{"alias": "korean", "title": "Korean"}, {"alias": "chinese", "title": "Chinese"}, {"alias": "asianfusion", "title": "Asian Fusion"}], "rating": 5.0, "coordinates": {"latitude": 35.106419, "longitude": -106.515011}, "transactions": ["delivery", "pickup"], "location": {"address1": "2120 Juan Tabo Blvd NE", "address2": "", "address3": null, "city": "Albuquerque", "zip_code": "87112", "country": "US", "state": "NM", "display_address": ["2120 Juan Tabo Blvd NE", "Albuquerque, NM 87112"]}, "phone": "+15057171287", "display_phone": "(505) 717-1287", "distance": 8315.295386645515}, {"id": "QYs-eROiXgFo8Wui9pnTIQ", "alias": "naruto-albuquerque", "name": "Naruto", "image_url": "https://s3-media1.fl.yelpcdn.com/bphoto/wLATaDBGFlzdlYe0QyHBiA/o.jpg", "is_closed": false, "url": "https://www.yelp.com/biz/naruto-albuquerque?adjust_creative=vyhy616UjsMTA_hrWyg_5w&utm_campaign=yelp_api_v3&utm_medium=api_v3_business_search&utm_source=vyhy616UjsMTA_hrWyg_5w", "review_count": 293, "categories": [{"alias": "ramen", "title": "Ramen"}, {"alias": "bars", "title": "Bars"}], "rating": 4.5, "coordinates": {"latitude": 35.080813, "longitude": -106.623344}, "transactions": ["delivery", "pickup"], "price": "$$", "location": {"address1": "2110 Central Ave SE", "address2": null, "address3": "", "city": "Albuquerque", "zip_code": "87106", "country": "US", "state": "NM", "display_address": ["2110 Central Ave SE", "Albuquerque, NM 87106"]}, "phone": "+15053691039", "display_phone": "(505) 369-1039", "distance": 4146.401036475464}, {"id": "8cpweMpD9N8qXg_ByI6P_Q", "alias": "yummi-house-albuquerque", "name": "Yummi House", "image_url": "https://s3-media2.fl.yelpcdn.com/bphoto/jwJnJM3rSzFh54y-5aARUQ/o.jpg", "is_closed": false, "url": "https://www.yelp.com/biz/yummi-house-albuquerque?adjust_creative=vyhy616UjsMTA_hrWyg_5w&utm_campaign=yelp_api_v3&utm_medium=api_v3_business_search&utm_source=vyhy616UjsMTA_hrWyg_5w", "review_count": 102, "categories": [{"alias": "chinese", "title": "Chinese"}], "rating": 4.0, "coordinates": {"latitude": 35.094586, "longitude": -106.5326375}, "transactions": ["delivery"], "price": "$", "location": {"address1": "1404 Eubank Blvd NE", "address2": "", "address3": "", "city": "Albuquerque", "zip_code": "87112", "country": "US", "state": "NM", "display_address": ["1404 Eubank Blvd NE", "Albuquerque, NM 87112"]}, "phone": "+15052718700", "display_phone": "(505) 271-8700", "distance": 7043.63595700577}, {"id": "d0LcvBLT60H3u_X9vUpYpA", "alias": "bangkok-bite-albuquerque", "name": "Bangkok Bite", "image_url": "https://s3-media4.fl.yelpcdn.com/bphoto/O6RynmYqqhQ-gZba_OmGGw/o.jpg", "is_closed": false, "url": "https://www.yelp.com/biz/bangkok-bite-albuquerque?adjust_creative=vyhy616UjsMTA_hrWyg_5w&utm_campaign=yelp_api_v3&utm_medium=api_v3_business_search&utm_source=vyhy616UjsMTA_hrWyg_5w", "review_count": 100, "categories": [{"alias": "thai", "title": "Thai"}], "rating": 4.5, "coordinates": {"latitude": 35.108557206803, "longitude": -106.551849593115}, "transactions": ["delivery", "pickup"], "price": "$", "location": {"address1": "8246 Menaul Blvd NE", "address2": null, "address3": "", "city": "Albuquerque", "zip_code": "87110", "country": "US", "state": "NM", "display_address": ["8246 Menaul Blvd NE", "Albuquerque, NM 87110"]}, "phone": "+15052193831", "display_phone": "(505) 219-3831", "distance": 4966.471769843169}, {"id": "sQoY5omnrMiTxATz2V1McQ", "alias": "huong-thao-albuquerque-2", "name": "Huong Thao", "image_url": "https://s3-media2.fl.yelpcdn.com/bphoto/NcefY2qAR5eyljgTUOUpCQ/o.jpg", "is_closed": false, "url": "https://www.yelp.com/biz/huong-thao-albuquerque-2?adjust_creative=vyhy616UjsMTA_hrWyg_5w&utm_campaign=yelp_api_v3&utm_medium=api_v3_business_search&utm_source=vyhy616UjsMTA_hrWyg_5w", "review_count": 82, "categories": [{"alias": "vietnamese", "title": "Vietnamese"}], "rating": 4.5, "coordinates": {"latitude": 35.08961, "longitude": -106.5144}, "transactions": ["delivery"], "price": "$", "location": {"address1": "1016 Juan Tabo Blvd NE", "address2": "Ste B", "address3": "", "city": "Albuquerque", "zip_code": "87112", "country": "US", "state": "NM", "display_address": ["1016 Juan Tabo Blvd NE", "Ste B", "Albuquerque, NM 87112"]}, "phone": "+15052928222", "display_phone": "(505) 292-8222", "distance": 8779.515689969456}, {"id": "njzzdYPTkDi_VeArX_jugg", "alias": "saigon-restaurant-albuquerque", "name": "Saigon Restaurant", "image_url": "https://s3-media3.fl.yelpcdn.com/bphoto/rsP2I8lUr7mMn0hF1sQwNg/o.jpg", "is_closed": false, "url": "https://www.yelp.com/biz/saigon-restaurant-albuquerque?adjust_creative=vyhy616UjsMTA_hrWyg_5w&utm_campaign=yelp_api_v3&utm_medium=api_v3_business_search&utm_source=vyhy616UjsMTA_hrWyg_5w", "review_count": 106, "categories": [{"alias": "vietnamese", "title": "Vietnamese"}], "rating": 4.0, "coordinates": {"latitude": 35.1458902584357, "longitude": -106.587719824906}, "transactions": ["delivery"], "price": "$", "location": {"address1": "6001 San Mateo Blvd NE", "address2": "Ste D4", "address3": "", "city": "Albuquerque", "zip_code": "87109", "country": "US", "state": "NM", "display_address": ["6001 San Mateo Blvd NE", "Ste D4", "Albuquerque, NM 87109"]}, "phone": "+15058840706", "display_phone": "(505) 884-0706", "distance": 3785.307725294435}, {"id": "xsT1dsnWRmr76UOZ_o82bw", "alias": "pad-thai-cafe-albuquerque", "name": "Pad Thai Cafe", "image_url": "https://s3-media3.fl.yelpcdn.com/bphoto/IA3cgL7VUk5rG7B8mVXmNw/o.jpg", "is_closed": false, "url": "https://www.yelp.com/biz/pad-thai-cafe-albuquerque?adjust_creative=vyhy616UjsMTA_hrWyg_5w&utm_campaign=yelp_api_v3&utm_medium=api_v3_business_search&utm_source=vyhy616UjsMTA_hrWyg_5w", "review_count": 132, "categories": [{"alias": "thai", "title": "Thai"}], "rating": 4.5, "coordinates": {"latitude": 35.0752261, "longitude": -106.5684251}, "transactions": ["delivery"], "price": "$$", "location": {"address1": "110 Louisiana Blvd SE", "address2": "Ste A", "address3": "", "city": "Albuquerque", "zip_code": "87108", "country": "US", "state": "NM", "display_address": ["110 Louisiana Blvd SE", "Ste A", "Albuquerque, NM 87108"]}, "phone": "+15052660567", "display_phone": "(505) 266-0567", "distance": 5618.298735943481}, {"id": "oc0-wLCD278zzI3jqGgtlw", "alias": "thai-vegan-albuquerque-2", "name": "Thai Vegan", "image_url": "https://s3-media3.fl.yelpcdn.com/bphoto/SUzaikHe8Qd3IzyCh7QMug/o.jpg", "is_closed": false, "url": "https://www.yelp.com/biz/thai-vegan-albuquerque-2?adjust_creative=vyhy616UjsMTA_hrWyg_5w&utm_campaign=yelp_api_v3&utm_medium=api_v3_business_search&utm_source=vyhy616UjsMTA_hrWyg_5w", "review_count": 303, "categories": [{"alias": "vegan", "title": "Vegan"}, {"alias": "thai", "title": "Thai"}], "rating": 4.5, "coordinates": {"latitude": 35.14528, "longitude": -106.5848}, "transactions": ["delivery"], "price": "$$", "location": {"address1": "5505 Osuna Rd NE", "address2": "", "address3": "", "city": "Albuquerque", "zip_code": "87109", "country": "US", "state": "NM", "display_address": ["5505 Osuna Rd NE", "Albuquerque, NM 87109"]}, "phone": "+15058844610", "display_phone": "(505) 884-4610", "distance": 3856.5774411587786}, {"id": "3KRZMRPYqX_bNQh6cKDzTw", "alias": "yu-eat-albuquerque", "name": "Yu Eat", "image_url": "https://s3-media3.fl.yelpcdn.com/bphoto/jghCIExcxw9GgBITlKSa4g/o.jpg", "is_closed": false, "url": "https://www.yelp.com/biz/yu-eat-albuquerque?adjust_creative=vyhy616UjsMTA_hrWyg_5w&utm_campaign=yelp_api_v3&utm_medium=api_v3_business_search&utm_source=vyhy616UjsMTA_hrWyg_5w", "review_count": 10, "categories": [{"alias": "asianfusion", "title": "Asian Fusion"}], "rating": 4.5, "coordinates": {"latitude": 35.07955, "longitude": -106.62062}, "transactions": ["delivery"], "location": {"address1": "138 Harvard Dr SE", "address2": null, "address3": "", "city": "Albuquerque", "zip_code": "87106", "country": "US", "state": "NM", "display_address": ["138 Harvard Dr SE", "Albuquerque, NM 87106"]}, "phone": "+15052668388", "display_phone": "(505) 266-8388", "distance": 4190.048156987893}, {"id": "sY931TYhAxx6PhAYOpN7kg", "alias": "takumi-restaurant-albuquerque", "name": "Takumi Restaurant", "image_url": "https://s3-media1.fl.yelpcdn.com/bphoto/eh1yxehCawERRy8DYMTEcg/o.jpg", "is_closed": false, "url": "https://www.yelp.com/biz/takumi-restaurant-albuquerque?adjust_creative=vyhy616UjsMTA_hrWyg_5w&utm_campaign=yelp_api_v3&utm_medium=api_v3_business_search&utm_source=vyhy616UjsMTA_hrWyg_5w", "review_count": 198, "categories": [{"alias": "sushi", "title": "Sushi Bars"}, {"alias": "bbq", "title": "Barbeque"}, {"alias": "teppanyaki", "title": "Teppanyaki"}], "rating": 3.5, "coordinates": {"latitude": 35.10109395173303, "longitude": -106.56544256239874}, "transactions": ["delivery", "pickup"], "price": "$$", "location": {"address1": "2100 Louisiana Blvd NE", "address2": "Ste 800", "address3": null, "city": "Albuquerque", "zip_code": "87110", "country": "US", "state": "NM", "display_address": ["2100 Louisiana Blvd NE", "Ste 800", "Albuquerque, NM 87110"]}, "phone": "+15055083091", "display_phone": "(505) 508-3091", "distance": 3996.874626312627}, {"id": "H16T4kFap6o28OusR3-SLA", "alias": "mr-pho-albuquerque-2", "name": "Mr Pho", "image_url": "https://s3-media2.fl.yelpcdn.com/bphoto/km0I0joVDhLGN0hz6f3RGQ/o.jpg", "is_closed": false, "url": "https://www.yelp.com/biz/mr-pho-albuquerque-2?adjust_creative=vyhy616UjsMTA_hrWyg_5w&utm_campaign=yelp_api_v3&utm_medium=api_v3_business_search&utm_source=vyhy616UjsMTA_hrWyg_5w", "review_count": 132, "categories": [{"alias": "vietnamese", "title": "Vietnamese"}], "rating": 4.5, "coordinates": {"latitude": 35.131694530623015, "longitude": -106.57729203945813}, "transactions": ["delivery"], "price": "$", "location": {"address1": "6205 Montgomery Blvd NE", "address2": "", "address3": "", "city": "Albuquerque", "zip_code": "87109", "country": "US", "state": "NM", "display_address": ["6205 Montgomery Blvd NE", "Albuquerque, NM 87109"]}, "phone": "+15058722311", "display_phone": "(505) 872-2311", "distance": 3175.8449119782304}, {"id": "UtrLsncbpw7IC5-g4_7Jmw", "alias": "krung-thai-restaurant-albuquerque", "name": "Krung Thai Restaurant", "image_url": "https://s3-media3.fl.yelpcdn.com/bphoto/Edqjn1KWzBdgD5urYomViQ/o.jpg", "is_closed": false, "url": "https://www.yelp.com/biz/krung-thai-restaurant-albuquerque?adjust_creative=vyhy616UjsMTA_hrWyg_5w&utm_campaign=yelp_api_v3&utm_medium=api_v3_business_search&utm_source=vyhy616UjsMTA_hrWyg_5w", "review_count": 81, "categories": [{"alias": "thai", "title": "Thai"}], "rating": 4.0, "coordinates": {"latitude": 35.1095352172852, "longitude": -106.555618286133}, "transactions": ["delivery"], "price": "$$", "location": {"address1": "7923 Menaul Blvd NE", "address2": "", "address3": "", "city": "Albuquerque", "zip_code": "87110", "country": "US", "state": "NM", "display_address": ["7923 Menaul Blvd NE", "Albuquerque, NM 87110"]}, "phone": "+15052929319", "display_phone": "(505) 292-9319", "distance": 4609.417395647066}, {"id": "IVSX2mZLiMdo9UwzEXQGvw", "alias": "thai-kitchen-albuquerque-2", "name": "Thai Kitchen", "image_url": "https://s3-media1.fl.yelpcdn.com/bphoto/zBNT9B5f8084ZNbMT7xGkg/o.jpg", "is_closed": false, "url": "https://www.yelp.com/biz/thai-kitchen-albuquerque-2?adjust_creative=vyhy616UjsMTA_hrWyg_5w&utm_campaign=yelp_api_v3&utm_medium=api_v3_business_search&utm_source=vyhy616UjsMTA_hrWyg_5w", "review_count": 202, "categories": [{"alias": "thai", "title": "Thai"}], "rating": 4.0, "coordinates": {"latitude": 35.204846, "longitude": -106.647647}, "transactions": ["delivery"], "price": "$$", "location": {"address1": "10701 Corrales Rd NW", "address2": "Ste 23", "address3": "", "city": "Albuquerque", "zip_code": "87114", "country": "US", "state": "NM", "display_address": ["10701 Corrales Rd NW", "Ste 23", "Albuquerque, NM 87114"]}, "phone": "+15058900059", "display_phone": "(505) 890-0059", "distance": 10664.004435772513}, {"id": "L6fQee-zMiLo6kfJBxJjQw", "alias": "the-blue-plate-bernalillo", "name": "The Blue Plate", "image_url": "https://s3-media2.fl.yelpcdn.com/bphoto/C2lSvPG-3nAiytWCo84cRA/o.jpg", "is_closed": false, "url": "https://www.yelp.com/biz/the-blue-plate-bernalillo?adjust_creative=vyhy616UjsMTA_hrWyg_5w&utm_campaign=yelp_api_v3&utm_medium=api_v3_business_search&utm_source=vyhy616UjsMTA_hrWyg_5w", "review_count": 1, "categories": [{"alias": "food_court", "title": "Food Court"}], "rating": 5.0, "coordinates": {"latitude": 35.32877862148735, "longitude": -106.56488437282391}, "transactions": [], "location": {"address1": "54 Jemez Canyon Dam Rd", "address2": "", "address3": null, "city": "Bernalillo", "zip_code": "87004", "country": "US", "state": "NM", "display_address": ["54 Jemez Canyon Dam Rd", "Bernalillo, NM 87004"]}, "phone": "", "display_phone": "", "distance": 24033.880545561056}, {"id": "XzsvePrM8U0jldt3zKt3sA", "alias": "sala-thai-albuquerque", "name": "Sala Thai", "image_url": "https://s3-media2.fl.yelpcdn.com/bphoto/LykMAT5GoMZxm--RNStN-w/o.jpg", "is_closed": false, "url": "https://www.yelp.com/biz/sala-thai-albuquerque?adjust_creative=vyhy616UjsMTA_hrWyg_5w&utm_campaign=yelp_api_v3&utm_medium=api_v3_business_search&utm_source=vyhy616UjsMTA_hrWyg_5w", "review_count": 126, "categories": [{"alias": "thai", "title": "Thai"}], "rating": 4.0, "coordinates": {"latitude": 35.08032696735787, "longitude": -106.60364441165663}, "transactions": ["delivery"], "price": "$", "location": {"address1": "3619 Copper Ave NE", "address2": "", "address3": "", "city": "Albuquerque", "zip_code": "87108", "country": "US", "state": "NM", "display_address": ["3619 Copper Ave NE", "Albuquerque, NM 87108"]}, "phone": "+15052659330", "display_phone": "(505) 265-9330", "distance": 3887.379168821502}, {"id": "lypGZucKLfAc8wHBnBtRlg", "alias": "noodle-works-albuquerque", "name": "Noodle Works", "image_url": "https://s3-media1.fl.yelpcdn.com/bphoto/A3rJM1-3G7keMP1eg6v3LA/o.jpg", "is_closed": false, "url": "https://www.yelp.com/biz/noodle-works-albuquerque?adjust_creative=vyhy616UjsMTA_hrWyg_5w&utm_campaign=yelp_api_v3&utm_medium=api_v3_business_search&utm_source=vyhy616UjsMTA_hrWyg_5w", "review_count": 88, "categories": [{"alias": "chinese", "title": "Chinese"}], "rating": 4.0, "coordinates": {"latitude": 35.14726642678607, "longitude": -106.55657825260283}, "transactions": ["delivery"], "location": {"address1": "5901-S Wyoming Blvd NE", "address2": null, "address3": "", "city": "Albuquerque", "zip_code": "87109", "country": "US", "state": "NM", "display_address": ["5901-S Wyoming Blvd NE", "Albuquerque, NM 87109"]}, "phone": "+15059900055", "display_phone": "(505) 990-0055", "distance": 5744.218106934134}], "total": 195, "region": {"center": {"longitude": -106.6058349609375, "latitude": 35.11524107648647}}}