{"businesses": [{"id": "3YPzX4jStdq2OgLke6C0Hw", "alias": "anongs-thai-cuisine-rawlins", "name": "Anong's Thai Cuisine", "image_url": "https://s3-media2.fl.yelpcdn.com/bphoto/a5WcOiPzyb8-YbI8nyOSBg/o.jpg", "is_closed": false, "url": "https://www.yelp.com/biz/anongs-thai-cuisine-rawlins?adjust_creative=vyhy616UjsMTA_hrWyg_5w&utm_campaign=yelp_api_v3&utm_medium=api_v3_business_search&utm_source=vyhy616UjsMTA_hrWyg_5w", "review_count": 274, "categories": [{"alias": "thai", "title": "Thai"}], "rating": 4.5, "coordinates": {"latitude": 41.7878379953364, "longitude": -107.24023684796}, "transactions": [], "price": "$$", "location": {"address1": "210 5th St", "address2": "", "address3": "", "city": "Rawlins", "zip_code": "82301", "country": "US", "state": "WY", "display_address": ["210 5th St", "Rawlins, WY 82301"]}, "phone": "+13073246262", "display_phone": "(307) 324-6262", "distance": 1497.347819128504}, {"id": "xPXbewjAxHofGkcu3QqBYA", "alias": "aspen-house-restaurant-rawlins", "name": "Aspen House Restaurant", "image_url": "https://s3-media2.fl.yelpcdn.com/bphoto/SS7iKg2tjHJGJHi0Ovt4Dg/o.jpg", "is_closed": false, "url": "https://www.yelp.com/biz/aspen-house-restaurant-rawlins?adjust_creative=vyhy616UjsMTA_hrWyg_5w&utm_campaign=yelp_api_v3&utm_medium=api_v3_business_search&utm_source=vyhy616UjsMTA_hrWyg_5w", "review_count": 86, "categories": [{"alias": "seafood", "title": "Seafood"}, {"alias": "steak", "title": "Steakhouses"}], "rating": 4.0, "coordinates": {"latitude": 41.78920333, "longitude": -107.2406175}, "transactions": [], "price": "$$", "location": {"address1": "318 5th St", "address2": "", "address3": "", "city": "Rawlins", "zip_code": "82301", "country": "US", "state": "WY", "display_address": ["318 5th St", "Rawlins, WY 82301"]}, "phone": "+13073244787", "display_phone": "(307) 324-4787", "distance": 1554.954163432638}, {"id": "ZoDJxW_NBop8lu6y-q2irQ", "alias": "four-season-rawlins", "name": "Four Season", "image_url": "https://s3-media3.fl.yelpcdn.com/bphoto/MSbw0YjAZbg-Cl2q8Oez5w/o.jpg", "is_closed": false, "url": "https://www.yelp.com/biz/four-season-rawlins?adjust_creative=vyhy616UjsMTA_hrWyg_5w&utm_campaign=yelp_api_v3&utm_medium=api_v3_business_search&utm_source=vyhy616UjsMTA_hrWyg_5w", "review_count": 13, "categories": [{"alias": "chinese", "title": "Chinese"}, {"alias": "seafood", "title": "Seafood"}, {"alias": "soup", "title": "Soup"}], "rating": 3.5, "coordinates": {"latitude": 41.78654, "longitude": -107.25579}, "transactions": [], "location": {"address1": "1730 W Spruce St", "address2": "", "address3": "", "city": "Rawlins", "zip_code": "82301", "country": "US", "state": "WY", "display_address": ["1730 W Spruce St", "Rawlins, WY 82301"]}, "phone": "+13073240565", "display_phone": "(307) 324-0565", "distance": 2786.2951034727184}], "total": 3, "region": {"center": {"longitude": -107.22244262695312, "latitude": 41.78742951764977}}}