{"businesses": [{"id": "HJUOZh18PKdp5SF2sUVy6g", "alias": "wonjo-korean-cuisine-anchorage-3", "name": "Wonjo Korean Cuisine", "image_url": "https://s3-media3.fl.yelpcdn.com/bphoto/E9rrS5FAe7uQ43-HFPXUWg/o.jpg", "is_closed": false, "url": "https://www.yelp.com/biz/wonjo-korean-cuisine-anchorage-3?adjust_creative=vyhy616UjsMTA_hrWyg_5w&utm_campaign=yelp_api_v3&utm_medium=api_v3_business_search&utm_source=vyhy616UjsMTA_hrWyg_5w", "review_count": 68, "categories": [{"alias": "korean", "title": "Korean"}], "rating": 4.5, "coordinates": {"latitude": 61.1987414671549, "longitude": -149.891205}, "transactions": ["pickup", "delivery"], "price": "$$", "location": {"address1": "515 W Fireweed Ln", "address2": "", "address3": "", "city": "Anchorage", "zip_code": "99503", "country": "US", "state": "AK", "display_address": ["515 W Fireweed Ln", "Anchorage, AK 99503"]}, "phone": "+19072226715", "display_phone": "(907) 222-6715", "distance": 2685.245135220122}, {"id": "LsaUfuPZevWbGPmKtKCM3Q", "alias": "jimmys-asian-food-anchorage", "name": "Jimmy's Asian Food", "image_url": "https://s3-media2.fl.yelpcdn.com/bphoto/wmRC1hw-lwwiJ4-tIc22Cg/o.jpg", "is_closed": false, "url": "https://www.yelp.com/biz/jimmys-asian-food-anchorage?adjust_creative=vyhy616UjsMTA_hrWyg_5w&utm_campaign=yelp_api_v3&utm_medium=api_v3_business_search&utm_source=vyhy616UjsMTA_hrWyg_5w", "review_count": 130, "categories": [{"alias": "sushi", "title": "Sushi Bars"}, {"alias": "szechuan", "title": "Szechuan"}], "rating": 4.5, "coordinates": {"latitude": 61.1801474544064, "longitude": -149.893421530724}, "transactions": ["pickup", "delivery"], "price": "$$", "location": {"address1": "550 W Tudor Rd", "address2": "", "address3": null, "city": "Anchorage", "zip_code": "99503", "country": "US", "state": "AK", "display_address": ["550 W Tudor Rd", "Anchorage, AK 99503"]}, "phone": "+19076467777", "display_phone": "(907) 646-7777", "distance": 1307.8182124561636}, {"id": "o5JRIp_u_yazxZrEmatM6w", "alias": "pho-lena-anchorage", "name": "Pho Lena", "image_url": "https://s3-media4.fl.yelpcdn.com/bphoto/8sBS3yItvhUMN0ejVZcQ4w/o.jpg", "is_closed": false, "url": "https://www.yelp.com/biz/pho-lena-anchorage?adjust_creative=vyhy616UjsMTA_hrWyg_5w&utm_campaign=yelp_api_v3&utm_medium=api_v3_business_search&utm_source=vyhy616UjsMTA_hrWyg_5w", "review_count": 270, "categories": [{"alias": "vietnamese", "title": "Vietnamese"}, {"alias": "thai", "title": "Thai"}, {"alias": "laotian", "title": "Laotian"}], "rating": 4.0, "coordinates": {"latitude": 61.1899082, "longitude": -149.9074355}, "transactions": ["delivery"], "price": "$$", "location": {"address1": "3311 Spenard Rd", "address2": "", "address3": "", "city": "Anchorage", "zip_code": "99503", "country": "US", "state": "AK", "display_address": ["3311 Spenard Rd", "Anchorage, AK 99503"]}, "phone": "+19072779777", "display_phone": "(907) 277-9777", "distance": 2476.0953552548262}, {"id": "nwWqAfru8AEwHdQm9o-0QQ", "alias": "ginger-anchorage", "name": "Ginger", "image_url": "https://s3-media4.fl.yelpcdn.com/bphoto/7Uxo5LWLy3JUJiR38lQjEQ/o.jpg", "is_closed": false, "url": "https://www.yelp.com/biz/ginger-anchorage?adjust_creative=vyhy616UjsMTA_hrWyg_5w&utm_campaign=yelp_api_v3&utm_medium=api_v3_business_search&utm_source=vyhy616UjsMTA_hrWyg_5w", "review_count": 406, "categories": [{"alias": "asianfusion", "title": "Asian Fusion"}, {"alias": "cocktailbars", "title": "Cocktail Bars"}], "rating": 4.0, "coordinates": {"latitude": 61.21768, "longitude": -149.89047}, "transactions": ["pickup", "delivery"], "price": "$$", "location": {"address1": "425 W 5th Ave", "address2": "", "address3": "", "city": "Anchorage", "zip_code": "99501", "country": "US", "state": "AK", "display_address": ["425 W 5th Ave", "Anchorage, AK 99501"]}, "phone": "+19079293680", "display_phone": "(907) 929-3680", "distance": 4670.967929192548}, {"id": "6v9WFB5TvRkgwYExjAJ78w", "alias": "gia-dinh-pho-and-vietnamese-cuisine-anchorage", "name": "Gia Dinh Pho and Vietnamese Cuisine", "image_url": "https://s3-media2.fl.yelpcdn.com/bphoto/H0f2iIa5y7XawYOWXNf5cQ/o.jpg", "is_closed": false, "url": "https://www.yelp.com/biz/gia-dinh-pho-and-vietnamese-cuisine-anchorage?adjust_creative=vyhy616UjsMTA_hrWyg_5w&utm_campaign=yelp_api_v3&utm_medium=api_v3_business_search&utm_source=vyhy616UjsMTA_hrWyg_5w", "review_count": 104, "categories": [{"alias": "vietnamese", "title": "Vietnamese"}], "rating": 4.5, "coordinates": {"latitude": 61.174306, "longitude": -149.893998}, "transactions": ["delivery"], "price": "$$", "location": {"address1": "549 W International Airport Rd", "address2": "Ste A1", "address3": null, "city": "Anchorage", "zip_code": "99518", "country": "US", "state": "AK", "display_address": ["549 W International Airport Rd", "Ste A1", "Anchorage, AK 99518"]}, "phone": "+19072222663", "display_phone": "(907) 222-2663", "distance": 1308.1019195150252}, {"id": "3DJQANJe-BZuundKDnlLAg", "alias": "mekong-pho-anchorage", "name": "Mekong Pho", "image_url": "https://s3-media4.fl.yelpcdn.com/bphoto/vc2IGS9g02__OTRQA5gLkA/o.jpg", "is_closed": false, "url": "https://www.yelp.com/biz/mekong-pho-anchorage?adjust_creative=vyhy616UjsMTA_hrWyg_5w&utm_campaign=yelp_api_v3&utm_medium=api_v3_business_search&utm_source=vyhy616UjsMTA_hrWyg_5w", "review_count": 18, "categories": [{"alias": "thai", "title": "Thai"}, {"alias": "laotian", "title": "Laotian"}, {"alias": "asianfusion", "title": "Asian Fusion"}], "rating": 4.5, "coordinates": {"latitude": 61.22442833, "longitude": -149.80598167}, "transactions": ["pickup", "delivery"], "price": "$$", "location": {"address1": "4015 Mountain View Dr", "address2": null, "address3": "", "city": "Anchorage", "zip_code": "99508", "country": "US", "state": "AK", "display_address": ["4015 Mountain View Dr", "Anchorage, AK 99508"]}, "phone": "+19072740046", "display_phone": "(907) 274-0046", "distance": 6306.517785097629}, {"id": "k7d8tnz1HDIEQL5GaYuFxQ", "alias": "pho-vietnam-8-anchorage", "name": "Pho Vietnam 8", "image_url": "https://s3-media2.fl.yelpcdn.com/bphoto/nBW1C1u8EdbY2PYJgA-cJg/o.jpg", "is_closed": false, "url": "https://www.yelp.com/biz/pho-vietnam-8-anchorage?adjust_creative=vyhy616UjsMTA_hrWyg_5w&utm_campaign=yelp_api_v3&utm_medium=api_v3_business_search&utm_source=vyhy616UjsMTA_hrWyg_5w", "review_count": 62, "categories": [{"alias": "vietnamese", "title": "Vietnamese"}, {"alias": "thai", "title": "Thai"}, {"alias": "seafood", "title": "Seafood"}], "rating": 4.5, "coordinates": {"latitude": 61.19767, "longitude": -149.87205}, "transactions": ["delivery"], "price": "$$", "location": {"address1": "602 E Fireweed Ln", "address2": "", "address3": "", "city": "Anchorage", "zip_code": "99503", "country": "US", "state": "AK", "display_address": ["602 E Fireweed Ln", "Anchorage, AK 99503"]}, "phone": "+19079290999", "display_phone": "(907) 929-0999", "distance": 2310.103676631702}, {"id": "dCLKhzlp8zXBeBVQMkDa2A", "alias": "tofu-house-anchorage", "name": "Tofu House", "image_url": "https://s3-media2.fl.yelpcdn.com/bphoto/EakmxJDvZ59jRRe0DQdTuw/o.jpg", "is_closed": false, "url": "https://www.yelp.com/biz/tofu-house-anchorage?adjust_creative=vyhy616UjsMTA_hrWyg_5w&utm_campaign=yelp_api_v3&utm_medium=api_v3_business_search&utm_source=vyhy616UjsMTA_hrWyg_5w", "review_count": 125, "categories": [{"alias": "korean", "title": "Korean"}, {"alias": "asianfusion", "title": "Asian Fusion"}], "rating": 4.0, "coordinates": {"latitude": 61.1742852, "longitude": -149.8968746}, "transactions": ["pickup", "delivery"], "price": "$$", "location": {"address1": "5121 Arctic Blvd", "address2": "Ste A", "address3": "", "city": "Anchorage", "zip_code": "99503", "country": "US", "state": "AK", "display_address": ["5121 Arctic Blvd", "Ste A", "Anchorage, AK 99503"]}, "phone": "+19072586715", "display_phone": "(907) 258-6715", "distance": 1469.2316653590394}, {"id": "oRjqDrwRW0FfvayadEr4ig", "alias": "fukumaru-teriyaki-anchorage", "name": "Fukumaru Teriyaki", "image_url": "https://s3-media3.fl.yelpcdn.com/bphoto/KCk4E3GFEBqXBPwTsUSdDg/o.jpg", "is_closed": false, "url": "https://www.yelp.com/biz/fukumaru-teriyaki-anchorage?adjust_creative=vyhy616UjsMTA_hrWyg_5w&utm_campaign=yelp_api_v3&utm_medium=api_v3_business_search&utm_source=vyhy616UjsMTA_hrWyg_5w", "review_count": 60, "categories": [{"alias": "japanese", "title": "Japanese"}], "rating": 4.0, "coordinates": {"latitude": 61.1798667907715, "longitude": -149.937683105469}, "transactions": ["delivery"], "price": "$$", "location": {"address1": "4505 Spenard Rd", "address2": "", "address3": "", "city": "Anchorage", "zip_code": "99517", "country": "US", "state": "AK", "display_address": ["4505 Spenard Rd", "Anchorage, AK 99517"]}, "phone": "+19072226394", "display_phone": "(907) 222-6394", "distance": 3649.2719409651263}, {"id": "N0p_M_7pK9MGDN2BEa3nnQ", "alias": "tozai-anchorage-8", "name": "TOZAI", "image_url": "https://s3-media3.fl.yelpcdn.com/bphoto/FGRq1Y3nyOawXbRz9yjn2A/o.jpg", "is_closed": false, "url": "https://www.yelp.com/biz/tozai-anchorage-8?adjust_creative=vyhy616UjsMTA_hrWyg_5w&utm_campaign=yelp_api_v3&utm_medium=api_v3_business_search&utm_source=vyhy616UjsMTA_hrWyg_5w", "review_count": 34, "categories": [{"alias": "asianfusion", "title": "Asian Fusion"}], "rating": 4.5, "coordinates": {"latitude": 61.1739654419619, "longitude": -149.895631670952}, "transactions": ["pickup", "delivery"], "location": {"address1": "639 W International Airport Rd", "address2": null, "address3": "", "city": "Anchorage", "zip_code": "99518", "country": "US", "state": "AK", "display_address": ["639 W International Airport Rd", "Anchorage, AK 99518"]}, "phone": "+19073333337", "display_phone": "(907) 333-3337", "distance": 1411.6321698427444}, {"id": "nOg4Pi_x7WGTGj2NVSl-8w", "alias": "so-thai-anchorage-2", "name": "So Thai", "image_url": "https://s3-media4.fl.yelpcdn.com/bphoto/vzMg-64tcfbnDVcrG8glvA/o.jpg", "is_closed": false, "url": "https://www.yelp.com/biz/so-thai-anchorage-2?adjust_creative=vyhy616UjsMTA_hrWyg_5w&utm_campaign=yelp_api_v3&utm_medium=api_v3_business_search&utm_source=vyhy616UjsMTA_hrWyg_5w", "review_count": 151, "categories": [{"alias": "thai", "title": "Thai"}, {"alias": "streetvendors", "title": "Street Vendors"}], "rating": 4.5, "coordinates": {"latitude": 61.1973779922648, "longitude": -149.905828801249}, "transactions": ["pickup", "delivery"], "price": "$$", "location": {"address1": "2602 Spenard Rd", "address2": "", "address3": null, "city": "Anchorage", "zip_code": "99503", "country": "US", "state": "AK", "display_address": ["2602 Spenard Rd", "Anchorage, AK 99503"]}, "phone": "+19072778424", "display_phone": "(907) 277-8424", "distance": 2981.885864448962}, {"id": "ghzJVOfmlJ2fZCLQZQmKGw", "alias": "ramen-house-anchorage", "name": "Ramen House", "image_url": "https://s3-media2.fl.yelpcdn.com/bphoto/L5kHF4bqCjyH-dTh1sU7qA/o.jpg", "is_closed": false, "url": "https://www.yelp.com/biz/ramen-house-anchorage?adjust_creative=vyhy616UjsMTA_hrWyg_5w&utm_campaign=yelp_api_v3&utm_medium=api_v3_business_search&utm_source=vyhy616UjsMTA_hrWyg_5w", "review_count": 118, "categories": [{"alias": "ramen", "title": "Ramen"}], "rating": 4.5, "coordinates": {"latitude": 61.1985829, "longitude": -149.881635}, "transactions": ["delivery"], "price": "$$", "location": {"address1": "149 E Fireweed Ln", "address2": "", "address3": null, "city": "Anchorage", "zip_code": "99503", "country": "US", "state": "AK", "display_address": ["149 E Fireweed Ln", "Anchorage, AK 99503"]}, "phone": "+19072722016", "display_phone": "(907) 272-2016", "distance": 2494.4433122771406}, {"id": "hBVoOAA2A_dSTyeNRXCm7w", "alias": "rays-place-anchorage-2", "name": "Ray's Place", "image_url": "https://s3-media3.fl.yelpcdn.com/bphoto/U-KqwdZg2irGrjeSws6lOw/o.jpg", "is_closed": false, "url": "https://www.yelp.com/biz/rays-place-anchorage-2?adjust_creative=vyhy616UjsMTA_hrWyg_5w&utm_campaign=yelp_api_v3&utm_medium=api_v3_business_search&utm_source=vyhy616UjsMTA_hrWyg_5w", "review_count": 143, "categories": [{"alias": "vietnamese", "title": "Vietnamese"}], "rating": 4.0, "coordinates": {"latitude": 61.198627, "longitude": -149.905975}, "transactions": ["delivery"], "price": "$$", "location": {"address1": "2412 Spenard Rd", "address2": "", "address3": "", "city": "Anchorage", "zip_code": "99503", "country": "US", "state": "AK", "display_address": ["2412 Spenard Rd", "Anchorage, AK 99503"]}, "phone": "+19072792932", "display_phone": "(907) 279-2932", "distance": 3098.0423468682116}, {"id": "RgNJe585qy7yh_fgBOcdQg", "alias": "home-town-restaurant-anchorage", "name": "Home Town Restaurant", "image_url": "https://s3-media4.fl.yelpcdn.com/bphoto/5nps7jN--VKJd12uszALIg/o.jpg", "is_closed": false, "url": "https://www.yelp.com/biz/home-town-restaurant-anchorage?adjust_creative=vyhy616UjsMTA_hrWyg_5w&utm_campaign=yelp_api_v3&utm_medium=api_v3_business_search&utm_source=vyhy616UjsMTA_hrWyg_5w", "review_count": 75, "categories": [{"alias": "korean", "title": "Korean"}, {"alias": "bbq", "title": "Barbeque"}, {"alias": "seafood", "title": "Seafood"}], "rating": 4.0, "coordinates": {"latitude": 61.192841, "longitude": -149.915417}, "transactions": ["delivery"], "price": "$$", "location": {"address1": "3020 Minnesota Dr", "address2": "", "address3": "", "city": "Anchorage", "zip_code": "99503", "country": "US", "state": "AK", "display_address": ["3020 Minnesota Dr", "Anchorage, AK 99503"]}, "phone": "+19072772211", "display_phone": "(907) 277-2211", "distance": 3013.770866108363}, {"id": "pDXUJ4iA_cVaGIAaTlVjlg", "alias": "seoul-casa-anchorage", "name": "Seoul Casa", "image_url": "https://s3-media3.fl.yelpcdn.com/bphoto/MH5x0Gsfec3lHYVcIvSSQg/o.jpg", "is_closed": false, "url": "https://www.yelp.com/biz/seoul-casa-anchorage?adjust_creative=vyhy616UjsMTA_hrWyg_5w&utm_campaign=yelp_api_v3&utm_medium=api_v3_business_search&utm_source=vyhy616UjsMTA_hrWyg_5w", "review_count": 195, "categories": [{"alias": "korean", "title": "Korean"}, {"alias": "mexican", "title": "Mexican"}], "rating": 4.5, "coordinates": {"latitude": 61.1456216856811, "longitude": -149.869214947864}, "transactions": ["pickup", "delivery"], "price": "$$", "location": {"address1": "601 E Dimond Blvd", "address2": "Ste 6", "address3": null, "city": "Anchorage", "zip_code": "99515", "country": "US", "state": "AK", "display_address": ["601 E Dimond Blvd", "Ste 6", "Anchorage, AK 99515"]}, "phone": "+19073443333", "display_phone": "(907) 344-3333", "distance": 3474.0716270380767}, {"id": "A8La43l3AnAPdSYpYSOZgA", "alias": "charlies-bakery-anchorage", "name": "Charlie's Bakery", "image_url": "https://s3-media4.fl.yelpcdn.com/bphoto/91Bfl9pF38PWxRyokRtSlw/o.jpg", "is_closed": false, "url": "https://www.yelp.com/biz/charlies-bakery-anchorage?adjust_creative=vyhy616UjsMTA_hrWyg_5w&utm_campaign=yelp_api_v3&utm_medium=api_v3_business_search&utm_source=vyhy616UjsMTA_hrWyg_5w", "review_count": 271, "categories": [{"alias": "bakeries", "title": "Bakeries"}, {"alias": "dimsum", "title": "Dim Sum"}, {"alias": "soup", "title": "Soup"}], "rating": 4.0, "coordinates": {"latitude": 61.19602, "longitude": -149.88634}, "transactions": ["delivery"], "price": "$$", "location": {"address1": "2729 C St", "address2": "", "address3": "", "city": "Anchorage", "zip_code": "99503", "country": "US", "state": "AK", "display_address": ["2729 C St", "Anchorage, AK 99503"]}, "phone": "+19076777777", "display_phone": "(907) 677-7777", "distance": 2286.6883295972452}, {"id": "S1x6CikFTORSw6JWQ_7Zkg", "alias": "lime-leaf-anchorage", "name": "Lime Leaf", "image_url": "https://s3-media3.fl.yelpcdn.com/bphoto/lYr387co_k_7d2kXMtJ-TA/o.jpg", "is_closed": false, "url": "https://www.yelp.com/biz/lime-leaf-anchorage?adjust_creative=vyhy616UjsMTA_hrWyg_5w&utm_campaign=yelp_api_v3&utm_medium=api_v3_business_search&utm_source=vyhy616UjsMTA_hrWyg_5w", "review_count": 20, "categories": [{"alias": "asianfusion", "title": "Asian Fusion"}], "rating": 3.5, "coordinates": {"latitude": 61.33762, "longitude": -149.564498}, "transactions": ["delivery"], "location": {"address1": "12940 Old Glenn Hwy", "address2": null, "address3": "", "city": "Anchorage", "zip_code": "99577", "country": "US", "state": "AK", "display_address": ["12940 Old Glenn Hwy", "Anchorage, AK 99577"]}, "phone": "+19076967222", "display_phone": "(907) 696-7222", "distance": 24207.50949994528}, {"id": "TN0j17O4nmAJ-QiO4bnNNQ", "alias": "the-hott-spot-anchorage-2", "name": "The Hott Spot", "image_url": "https://s3-media4.fl.yelpcdn.com/bphoto/rvWZ6ZVJ3bLVQMgd9IEtBQ/o.jpg", "is_closed": false, "url": "https://www.yelp.com/biz/the-hott-spot-anchorage-2?adjust_creative=vyhy616UjsMTA_hrWyg_5w&utm_campaign=yelp_api_v3&utm_medium=api_v3_business_search&utm_source=vyhy616UjsMTA_hrWyg_5w", "review_count": 74, "categories": [{"alias": "seafood", "title": "Seafood"}, {"alias": "hotpot", "title": "Hot Pot"}, {"alias": "asianfusion", "title": "Asian Fusion"}], "rating": 4.5, "coordinates": {"latitude": 61.20986, "longitude": -149.76232}, "transactions": ["delivery"], "price": "$$", "location": {"address1": "6311 Debarr Rd", "address2": "Unit F", "address3": null, "city": "Anchorage", "zip_code": "99504", "country": "US", "state": "AK", "display_address": ["6311 Debarr Rd", "Unit F", "Anchorage, AK 99504"]}, "phone": "+19077433060", "display_phone": "(907) 743-3060", "distance": 6881.4893893316175}, {"id": "ith8mXsbA8n3KT6yKgBxrQ", "alias": "dami-anchorage", "name": "Dami", "image_url": "https://s3-media1.fl.yelpcdn.com/bphoto/ed_AqJtOwYgYNG-oTA7UEg/o.jpg", "is_closed": false, "url": "https://www.yelp.com/biz/dami-anchorage?adjust_creative=vyhy616UjsMTA_hrWyg_5w&utm_campaign=yelp_api_v3&utm_medium=api_v3_business_search&utm_source=vyhy616UjsMTA_hrWyg_5w", "review_count": 143, "categories": [{"alias": "japanese", "title": "Japanese"}, {"alias": "korean", "title": "Korean"}, {"alias": "sushi", "title": "Sushi Bars"}], "rating": 4.0, "coordinates": {"latitude": 61.21728, "longitude": -149.87152}, "transactions": ["pickup", "delivery"], "price": "$$", "location": {"address1": "642 E 5th Ave", "address2": "", "address3": "", "city": "Anchorage", "zip_code": "99501", "country": "US", "state": "AK", "display_address": ["642 E 5th Ave", "Anchorage, AK 99501"]}, "phone": "+19072745211", "display_phone": "(907) 274-5211", "distance": 4493.879423003143}, {"id": "O1rL4Kjd29YSrZDy1a_jcQ", "alias": "oriental-garden-anchorage", "name": "Oriental Garden", "image_url": "https://s3-media4.fl.yelpcdn.com/bphoto/oIfokWFLWOpYBzgBtEO45w/o.jpg", "is_closed": false, "url": "https://www.yelp.com/biz/oriental-garden-anchorage?adjust_creative=vyhy616UjsMTA_hrWyg_5w&utm_campaign=yelp_api_v3&utm_medium=api_v3_business_search&utm_source=vyhy616UjsMTA_hrWyg_5w", "review_count": 121, "categories": [{"alias": "chinese", "title": "Chinese"}, {"alias": "bars", "title": "Bars"}, {"alias": "karaoke", "title": "Karaoke"}], "rating": 4.0, "coordinates": {"latitude": 61.2154083251953, "longitude": -149.734298706055}, "transactions": ["delivery"], "price": "$$", "location": {"address1": "720 Muldoon Rd", "address2": null, "address3": "", "city": "Anchorage", "zip_code": "99504", "country": "US", "state": "AK", "display_address": ["720 Muldoon Rd", "Anchorage, AK 99504"]}, "phone": "+19073382272", "display_phone": "(907) 338-2272", "distance": 8442.893482749001}, {"id": "kxHfI6_h_av5i6vCZiRTLA", "alias": "korean-garden-anchorage", "name": "Korean Garden", "image_url": "https://s3-media1.fl.yelpcdn.com/bphoto/k9UsGt198VgviAtILttfTg/o.jpg", "is_closed": false, "url": "https://www.yelp.com/biz/korean-garden-anchorage?adjust_creative=vyhy616UjsMTA_hrWyg_5w&utm_campaign=yelp_api_v3&utm_medium=api_v3_business_search&utm_source=vyhy616UjsMTA_hrWyg_5w", "review_count": 62, "categories": [{"alias": "korean", "title": "Korean"}], "rating": 4.0, "coordinates": {"latitude": 61.144356, "longitude": -149.876805}, "transactions": ["delivery"], "price": "$$", "location": {"address1": "300 E Dimond Blvd", "address2": "", "address3": "", "city": "Anchorage", "zip_code": "99515", "country": "US", "state": "AK", "display_address": ["300 E Dimond Blvd", "Anchorage, AK 99515"]}, "phone": "+19075225556", "display_phone": "(907) 522-5556", "distance": 3632.9647563439576}, {"id": "TqOYr_WsR1ouOwsXnAnszA", "alias": "naruto-japanese-restaurant-anchorage", "name": "Naruto Japanese Restaurant", "image_url": "https://s3-media1.fl.yelpcdn.com/bphoto/Bsw1XJ0qHxDK897socKnlg/o.jpg", "is_closed": false, "url": "https://www.yelp.com/biz/naruto-japanese-restaurant-anchorage?adjust_creative=vyhy616UjsMTA_hrWyg_5w&utm_campaign=yelp_api_v3&utm_medium=api_v3_business_search&utm_source=vyhy616UjsMTA_hrWyg_5w", "review_count": 178, "categories": [{"alias": "ramen", "title": "Ramen"}], "rating": 4.0, "coordinates": {"latitude": 61.1877632141113, "longitude": -149.913726806641}, "transactions": ["delivery"], "price": "$$", "location": {"address1": "3600 Minnesota Dr", "address2": "", "address3": "", "city": "Anchorage", "zip_code": "99503", "country": "US", "state": "AK", "display_address": ["3600 Minnesota Dr", "Anchorage, AK 99503"]}, "phone": "+19072783050", "display_phone": "(907) 278-3050", "distance": 2638.809727085465}, {"id": "hlycOty0-qY7ZA4Lfi4r3g", "alias": "sushi-and-sushi-anchorage", "name": "Sushi & Sushi", "image_url": "https://s3-media4.fl.yelpcdn.com/bphoto/maYv4AkEDBqDBlCc5OvPGA/o.jpg", "is_closed": false, "url": "https://www.yelp.com/biz/sushi-and-sushi-anchorage?adjust_creative=vyhy616UjsMTA_hrWyg_5w&utm_campaign=yelp_api_v3&utm_medium=api_v3_business_search&utm_source=vyhy616UjsMTA_hrWyg_5w", "review_count": 400, "categories": [{"alias": "sushi", "title": "Sushi Bars"}, {"alias": "japanese", "title": "Japanese"}], "rating": 4.0, "coordinates": {"latitude": 61.18973, "longitude": -149.8702}, "transactions": ["pickup", "delivery"], "price": "$$", "location": {"address1": "3337 Fairbanks St", "address2": "", "address3": "", "city": "Anchorage", "zip_code": "99503", "country": "US", "state": "AK", "display_address": ["3337 Fairbanks St", "Anchorage, AK 99503"]}, "phone": "+19073339999", "display_phone": "(907) 333-9999", "distance": 1458.7327316892117}, {"id": "5SDFDkNSwwTNdBG4M2L7DA", "alias": "pho-lena-downtown-anchorage-3", "name": "Pho Lena Downtown", "image_url": "https://s3-media2.fl.yelpcdn.com/bphoto/lOKA26YSzSWdqvLuCZ6weg/o.jpg", "is_closed": false, "url": "https://www.yelp.com/biz/pho-lena-downtown-anchorage-3?adjust_creative=vyhy616UjsMTA_hrWyg_5w&utm_campaign=yelp_api_v3&utm_medium=api_v3_business_search&utm_source=vyhy616UjsMTA_hrWyg_5w", "review_count": 53, "categories": [{"alias": "thai", "title": "Thai"}, {"alias": "laotian", "title": "Laotian"}, {"alias": "vietnamese", "title": "Vietnamese"}], "rating": 4.0, "coordinates": {"latitude": 61.21786, "longitude": -149.88478}, "transactions": ["pickup", "delivery"], "price": "$$", "location": {"address1": "137 W 5th Ave", "address2": null, "address3": "", "city": "Anchorage", "zip_code": "99501", "country": "US", "state": "AK", "display_address": ["137 W 5th Ave", "Anchorage, AK 99501"]}, "phone": "+19072767746", "display_phone": "(907) 276-7746", "distance": 4621.685439275643}, {"id": "a6-wsRA1W2MBNocNmb7CdQ", "alias": "lahn-pad-thai-anchorage", "name": "Lahn Pad Thai", "image_url": "https://s3-media4.fl.yelpcdn.com/bphoto/Ui4-TL1tiMf69cR8yseTxg/o.jpg", "is_closed": false, "url": "https://www.yelp.com/biz/lahn-pad-thai-anchorage?adjust_creative=vyhy616UjsMTA_hrWyg_5w&utm_campaign=yelp_api_v3&utm_medium=api_v3_business_search&utm_source=vyhy616UjsMTA_hrWyg_5w", "review_count": 200, "categories": [{"alias": "thai", "title": "Thai"}], "rating": 4.0, "coordinates": {"latitude": 61.13821, "longitude": -149.8433}, "transactions": ["delivery"], "price": "$$", "location": {"address1": "2101 Abbott Rd", "address2": "Ste 7", "address3": "", "city": "Anchorage", "zip_code": "99507", "country": "US", "state": "AK", "display_address": ["2101 Abbott Rd", "Ste 7", "Anchorage, AK 99507"]}, "phone": "+19072728424", "display_phone": "(907) 272-8424", "distance": 4517.678912010197}, {"id": "Z1BvUWSovHrllO6Az_Ep8g", "alias": "thai-delight-restaurant-anchorage", "name": "Thai Delight Restaurant", "image_url": "https://s3-media1.fl.yelpcdn.com/bphoto/eZWhtYYGFU0myfceYYiDmg/o.jpg", "is_closed": false, "url": "https://www.yelp.com/biz/thai-delight-restaurant-anchorage?adjust_creative=vyhy616UjsMTA_hrWyg_5w&utm_campaign=yelp_api_v3&utm_medium=api_v3_business_search&utm_source=vyhy616UjsMTA_hrWyg_5w", "review_count": 121, "categories": [{"alias": "thai", "title": "Thai"}], "rating": 4.0, "coordinates": {"latitude": 61.1876712057149, "longitude": -149.89724971354}, "transactions": ["delivery"], "price": "$$", "location": {"address1": "3609 Arctic Blvd", "address2": null, "address3": "", "city": "Anchorage", "zip_code": "99503", "country": "US", "state": "AK", "display_address": ["3609 Arctic Blvd", "Anchorage, AK 99503"]}, "phone": "+19075630777", "display_phone": "(907) 563-0777", "distance": 1891.6799957275568}, {"id": "WlDubcj8cEZwrshjWuFVSA", "alias": "mythai-downtown-restaurant-anchorage", "name": "myThai Downtown Restaurant", "image_url": "https://s3-media3.fl.yelpcdn.com/bphoto/QnDH4XWHpjkpi2XOZkx0Zw/o.jpg", "is_closed": false, "url": "https://www.yelp.com/biz/mythai-downtown-restaurant-anchorage?adjust_creative=vyhy616UjsMTA_hrWyg_5w&utm_campaign=yelp_api_v3&utm_medium=api_v3_business_search&utm_source=vyhy616UjsMTA_hrWyg_5w", "review_count": 81, "categories": [{"alias": "thai", "title": "Thai"}], "rating": 4.0, "coordinates": {"latitude": 61.2186160870163, "longitude": -149.889197017474}, "transactions": ["delivery"], "price": "$$", "location": {"address1": "333 W 4th Ave", "address2": "Ste 228", "address3": "", "city": "Anchorage", "zip_code": "99501", "country": "US", "state": "AK", "display_address": ["333 W 4th Ave", "Ste 228", "Anchorage, AK 99501"]}, "phone": "+19073330684", "display_phone": "(907) 333-0684", "distance": 4755.375536063451}, {"id": "a5PUW4FL_W-O2TVWAdgDxA", "alias": "siam-cuisine-anchorage", "name": "Siam Cuisine", "image_url": "https://s3-media2.fl.yelpcdn.com/bphoto/tlL0i7osvyL0qmDQBJGWJg/o.jpg", "is_closed": false, "url": "https://www.yelp.com/biz/siam-cuisine-anchorage?adjust_creative=vyhy616UjsMTA_hrWyg_5w&utm_campaign=yelp_api_v3&utm_medium=api_v3_business_search&utm_source=vyhy616UjsMTA_hrWyg_5w", "review_count": 95, "categories": [{"alias": "thai", "title": "Thai"}, {"alias": "vietnamese", "title": "Vietnamese"}], "rating": 4.0, "coordinates": {"latitude": 61.138419, "longitude": -149.915939}, "transactions": ["delivery"], "price": "$$", "location": {"address1": "1911 W Dimond Blvd", "address2": "", "address3": "", "city": "Anchorage", "zip_code": "99515", "country": "US", "state": "AK", "display_address": ["1911 W Dimond Blvd", "Anchorage, AK 99515"]}, "phone": "+19073443663", "display_phone": "(907) 344-3663", "distance": 4934.244617034177}, {"id": "0C8Ba2wkLXWKvrmVDsgNqw", "alias": "miso-sushi-anchorage", "name": "Miso Sushi", "image_url": "https://s3-media4.fl.yelpcdn.com/bphoto/0Zgf-pYp3TC8OqQaBmgBIg/o.jpg", "is_closed": false, "url": "https://www.yelp.com/biz/miso-sushi-anchorage?adjust_creative=vyhy616UjsMTA_hrWyg_5w&utm_campaign=yelp_api_v3&utm_medium=api_v3_business_search&utm_source=vyhy616UjsMTA_hrWyg_5w", "review_count": 98, "categories": [{"alias": "japanese", "title": "Japanese"}, {"alias": "sushi", "title": "Sushi Bars"}], "rating": 4.5, "coordinates": {"latitude": 61.14503, "longitude": -149.86128}, "transactions": ["pickup", "delivery"], "price": "$$", "location": {"address1": "1111 East Dimond Blvd", "address2": null, "address3": "", "city": "Anchorage", "zip_code": "99515", "country": "US", "state": "AK", "display_address": ["1111 East Dimond Blvd", "Anchorage, AK 99515"]}, "phone": "+19073440980", "display_phone": "(907) 344-0980", "distance": 3570.6754213674258}, {"id": "mYBTyfWw0C0UNaZRkZ6B2Q", "alias": "pho-tommy-anchorage-2", "name": "Pho Tommy", "image_url": "https://s3-media2.fl.yelpcdn.com/bphoto/-a-o0oEFeQvWHoUj8qP1Fg/o.jpg", "is_closed": false, "url": "https://www.yelp.com/biz/pho-tommy-anchorage-2?adjust_creative=vyhy616UjsMTA_hrWyg_5w&utm_campaign=yelp_api_v3&utm_medium=api_v3_business_search&utm_source=vyhy616UjsMTA_hrWyg_5w", "review_count": 37, "categories": [{"alias": "vietnamese", "title": "Vietnamese"}, {"alias": "thai", "title": "Thai"}, {"alias": "laotian", "title": "Laotian"}], "rating": 4.5, "coordinates": {"latitude": 61.223119, "longitude": -149.73219}, "transactions": ["delivery"], "price": "$$", "location": {"address1": "171 Muldoon Rd", "address2": "Ste 107", "address3": "", "city": "Anchorage", "zip_code": "99504", "country": "US", "state": "AK", "display_address": ["171 Muldoon Rd", "Ste 107", "Anchorage, AK 99504"]}, "phone": "+19079290328", "display_phone": "(907) 929-0328", "distance": 8997.193344538351}, {"id": "LOFmg4S3OyPXIcIldR68kQ", "alias": "papaya-tree-anchorage-2", "name": "Papaya Tree", "image_url": "https://s3-media3.fl.yelpcdn.com/bphoto/TLJBw6iaNHLPOK5POJ7R8w/o.jpg", "is_closed": false, "url": "https://www.yelp.com/biz/papaya-tree-anchorage-2?adjust_creative=vyhy616UjsMTA_hrWyg_5w&utm_campaign=yelp_api_v3&utm_medium=api_v3_business_search&utm_source=vyhy616UjsMTA_hrWyg_5w", "review_count": 14, "categories": [{"alias": "foodtrucks", "title": "Food Trucks"}, {"alias": "laotian", "title": "Laotian"}, {"alias": "thai", "title": "Thai"}], "rating": 5.0, "coordinates": {"latitude": 61.144990325486596, "longitude": -149.87694112410838}, "transactions": [], "location": {"address1": "301 E Dimond Blvd", "address2": "", "address3": null, "city": "Anchorage", "zip_code": "99515", "country": "US", "state": "AK", "display_address": ["301 E Dimond Blvd", "Anchorage, AK 99515"]}, "phone": "+19078858421", "display_phone": "(907) 885-8421", "distance": 3563.550998121473}, {"id": "ysN7-GrGWAINaJK8R1QChQ", "alias": "souper-bowl-anchorage", "name": "Souper Bowl", "image_url": "https://s3-media1.fl.yelpcdn.com/bphoto/fPNl8_rutnSbrJObDq00cg/o.jpg", "is_closed": false, "url": "https://www.yelp.com/biz/souper-bowl-anchorage?adjust_creative=vyhy616UjsMTA_hrWyg_5w&utm_campaign=yelp_api_v3&utm_medium=api_v3_business_search&utm_source=vyhy616UjsMTA_hrWyg_5w", "review_count": 27, "categories": [{"alias": "hotdogs", "title": "Fast Food"}, {"alias": "asianfusion", "title": "Asian Fusion"}], "rating": 4.0, "coordinates": {"latitude": 61.21744, "longitude": -149.88876}, "transactions": ["delivery"], "price": "$", "location": {"address1": "320 W 5th Ave", "address2": "Ste 420", "address3": "", "city": "Anchorage", "zip_code": "99501", "country": "US", "state": "AK", "display_address": ["320 W 5th Ave", "Ste 420", "Anchorage, AK 99501"]}, "phone": "+19072787687", "display_phone": "(907) 278-7687", "distance": 4596.946585968003}, {"id": "V_FHsQ-kW5zv3SI8Zx0eNw", "alias": "phonatik-anchorage", "name": "Phonatik", "image_url": "https://s3-media2.fl.yelpcdn.com/bphoto/Sg6KkWRZKnT4pFUHfxdBxQ/o.jpg", "is_closed": false, "url": "https://www.yelp.com/biz/phonatik-anchorage?adjust_creative=vyhy616UjsMTA_hrWyg_5w&utm_campaign=yelp_api_v3&utm_medium=api_v3_business_search&utm_source=vyhy616UjsMTA_hrWyg_5w", "review_count": 314, "categories": [{"alias": "vietnamese", "title": "Vietnamese"}, {"alias": "wine_bars", "title": "Wine Bars"}, {"alias": "beerbar", "title": "Beer Bar"}], "rating": 4.0, "coordinates": {"latitude": 61.145624, "longitude": -149.867048}, "transactions": ["delivery"], "price": "$$", "location": {"address1": "901 E Dimond Ave", "address2": "Ste A", "address3": "", "city": "Anchorage", "zip_code": "99515", "country": "US", "state": "AK", "display_address": ["901 E Dimond Ave", "Ste A", "Anchorage, AK 99515"]}, "phone": "+19073368880", "display_phone": "(907) 336-8880", "distance": 3477.1568912711627}, {"id": "aSuX47hjtO8V4y7f8aKlUQ", "alias": "tempura-express-anchorage", "name": "Tempura Express", "image_url": "https://s3-media4.fl.yelpcdn.com/bphoto/dnk0mdZhQNPlE8G6h2P-6A/o.jpg", "is_closed": false, "url": "https://www.yelp.com/biz/tempura-express-anchorage?adjust_creative=vyhy616UjsMTA_hrWyg_5w&utm_campaign=yelp_api_v3&utm_medium=api_v3_business_search&utm_source=vyhy616UjsMTA_hrWyg_5w", "review_count": 72, "categories": [{"alias": "asianfusion", "title": "Asian Fusion"}], "rating": 4.0, "coordinates": {"latitude": 61.219669342041, "longitude": -149.822723388672}, "transactions": ["delivery"], "price": "$$", "location": {"address1": "3024 Mountain View Dr", "address2": "Ste 101", "address3": "", "city": "Anchorage", "zip_code": "99501", "country": "US", "state": "AK", "display_address": ["3024 Mountain View Dr", "Ste 101", "Anchorage, AK 99501"]}, "phone": "+19077707022", "display_phone": "(907) 770-7022", "distance": 5390.053477556293}, {"id": "JrER6kzT12QrZWEOA5CjiQ", "alias": "top-bop-midtown-anchorage-2", "name": "Top Bop - Midtown", "image_url": "https://s3-media3.fl.yelpcdn.com/bphoto/hAvExvxIDQVsvdh8olU16A/o.jpg", "is_closed": false, "url": "https://www.yelp.com/biz/top-bop-midtown-anchorage-2?adjust_creative=vyhy616UjsMTA_hrWyg_5w&utm_campaign=yelp_api_v3&utm_medium=api_v3_business_search&utm_source=vyhy616UjsMTA_hrWyg_5w", "review_count": 81, "categories": [{"alias": "korean", "title": "Korean"}, {"alias": "hotdogs", "title": "Fast Food"}, {"alias": "asianfusion", "title": "Asian Fusion"}], "rating": 4.5, "coordinates": {"latitude": 61.192489, "longitude": -149.914212}, "transactions": ["delivery"], "price": "$$", "location": {"address1": "3020 Minnesota Dr", "address2": "Ste 20", "address3": "", "city": "Anchorage", "zip_code": "99503", "country": "US", "state": "AK", "display_address": ["3020 Minnesota Dr", "Ste 20", "Anchorage, AK 99503"]}, "phone": "+19073343340", "display_phone": "(907) 334-3340", "distance": 2938.5489899944478}, {"id": "pP2RtoWybr3h7-w5_tXVlA", "alias": "bahay-kubo-restaurant-anchorage", "name": "Bahay Kubo Restaurant", "image_url": "https://s3-media1.fl.yelpcdn.com/bphoto/c0kXayM6t1587vue_16CRA/o.jpg", "is_closed": false, "url": "https://www.yelp.com/biz/bahay-kubo-restaurant-anchorage?adjust_creative=vyhy616UjsMTA_hrWyg_5w&utm_campaign=yelp_api_v3&utm_medium=api_v3_business_search&utm_source=vyhy616UjsMTA_hrWyg_5w", "review_count": 56, "categories": [{"alias": "filipino", "title": "Filipino"}, {"alias": "asianfusion", "title": "Asian Fusion"}], "rating": 3.5, "coordinates": {"latitude": 61.19248, "longitude": -149.91355}, "transactions": ["delivery"], "price": "$$", "location": {"address1": "3020 Minnesota Dr", "address2": "Ste 13", "address3": "", "city": "Anchorage", "zip_code": "99503", "country": "US", "state": "AK", "display_address": ["3020 Minnesota Dr", "Ste 13", "Anchorage, AK 99503"]}, "phone": "+19078911278", "display_phone": "(907) 891-1278", "distance": 3014.045562229437}, {"id": "FjsZtCWiWx4HgAyYBSIiJA", "alias": "yamaya-seafood-restaurant-anchorage", "name": "Yamaya Seafood Restaurant", "image_url": "https://s3-media1.fl.yelpcdn.com/bphoto/z-HYOeff2lJ2iB8qayQE_g/o.jpg", "is_closed": false, "url": "https://www.yelp.com/biz/yamaya-seafood-restaurant-anchorage?adjust_creative=vyhy616UjsMTA_hrWyg_5w&utm_campaign=yelp_api_v3&utm_medium=api_v3_business_search&utm_source=vyhy616UjsMTA_hrWyg_5w", "review_count": 104, "categories": [{"alias": "seafood", "title": "Seafood"}, {"alias": "japanese", "title": "Japanese"}], "rating": 3.5, "coordinates": {"latitude": 61.21686, "longitude": -149.89865}, "transactions": ["delivery"], "price": "$$", "location": {"address1": "825 W 6th Ave", "address2": null, "address3": "", "city": "Anchorage", "zip_code": "99501", "country": "US", "state": "AK", "display_address": ["825 W 6th Ave", "Anchorage, AK 99501"]}, "phone": "+19072766388", "display_phone": "(907) 276-6388", "distance": 4694.199196143999}, {"id": "M7LEwyB29mSpgKFa6B-K7Q", "alias": "china-town-restaurant-anchorage", "name": "China Town Restaurant", "image_url": "https://s3-media3.fl.yelpcdn.com/bphoto/fBymfqaC24fzVjjpXZDTBA/o.jpg", "is_closed": false, "url": "https://www.yelp.com/biz/china-town-restaurant-anchorage?adjust_creative=vyhy616UjsMTA_hrWyg_5w&utm_campaign=yelp_api_v3&utm_medium=api_v3_business_search&utm_source=vyhy616UjsMTA_hrWyg_5w", "review_count": 119, "categories": [{"alias": "chinese", "title": "Chinese"}], "rating": 3.5, "coordinates": {"latitude": 61.231089, "longitude": -149.874132}, "transactions": ["delivery"], "price": "$$", "location": {"address1": "836 E Loop Rd", "address2": "", "address3": "", "city": "Anchorage", "zip_code": "99501", "country": "US", "state": "AK", "display_address": ["836 E Loop Rd", "Anchorage, AK 99501"]}, "phone": "+19072728390", "display_phone": "(907) 272-8390", "distance": 6033.77147952876}, {"id": "jpp7_JaeBKBxfYntp4nnzA", "alias": "top-bop-muldoon-anchorage-6", "name": "Top Bop - Muldoon", "image_url": "https://s3-media1.fl.yelpcdn.com/bphoto/Hbu_nxijHskaynunYZFvUA/o.jpg", "is_closed": false, "url": "https://www.yelp.com/biz/top-bop-muldoon-anchorage-6?adjust_creative=vyhy616UjsMTA_hrWyg_5w&utm_campaign=yelp_api_v3&utm_medium=api_v3_business_search&utm_source=vyhy616UjsMTA_hrWyg_5w", "review_count": 166, "categories": [{"alias": "asianfusion", "title": "Asian Fusion"}, {"alias": "korean", "title": "Korean"}, {"alias": "hotdogs", "title": "Fast Food"}], "rating": 4.0, "coordinates": {"latitude": 61.22177, "longitude": -149.73382}, "transactions": ["delivery"], "price": "$", "location": {"address1": "220 Muldoon Rd", "address2": null, "address3": "", "city": "Anchorage", "zip_code": "99504", "country": "US", "state": "AK", "display_address": ["220 Muldoon Rd", "Anchorage, AK 99504"]}, "phone": "+19073343377", "display_phone": "(907) 334-3377", "distance": 8788.299797257798}, {"id": "gYicIGOpPb_OYkfqMzRMCg", "alias": "kumagoro-anchorage", "name": "Kumagoro", "image_url": "https://s3-media2.fl.yelpcdn.com/bphoto/5DKA_UpCWnZafQuHOGUm9w/o.jpg", "is_closed": false, "url": "https://www.yelp.com/biz/kumagoro-anchorage?adjust_creative=vyhy616UjsMTA_hrWyg_5w&utm_campaign=yelp_api_v3&utm_medium=api_v3_business_search&utm_source=vyhy616UjsMTA_hrWyg_5w", "review_count": 133, "categories": [{"alias": "japanese", "title": "Japanese"}], "rating": 3.0, "coordinates": {"latitude": 61.2188339233398, "longitude": -149.892837524414}, "transactions": ["pickup", "delivery"], "price": "$$", "location": {"address1": "533 W 4th Ave", "address2": "", "address3": "", "city": "Anchorage", "zip_code": "99501", "country": "US", "state": "AK", "display_address": ["533 W 4th Ave", "Anchorage, AK 99501"]}, "phone": "+19072729905", "display_phone": "(907) 272-9905", "distance": 4823.443568492957}, {"id": "gBIvK58yPn-L_9yrpf66zA", "alias": "sushi-on-the-fly-anchorage", "name": "Sushi On The Fly", "image_url": "https://s3-media1.fl.yelpcdn.com/bphoto/JJecm48zvpqxUdlGbBsshw/o.jpg", "is_closed": false, "url": "https://www.yelp.com/biz/sushi-on-the-fly-anchorage?adjust_creative=vyhy616UjsMTA_hrWyg_5w&utm_campaign=yelp_api_v3&utm_medium=api_v3_business_search&utm_source=vyhy616UjsMTA_hrWyg_5w", "review_count": 40, "categories": [{"alias": "sushi", "title": "Sushi Bars"}, {"alias": "asianfusion", "title": "Asian Fusion"}, {"alias": "japanese", "title": "Japanese"}], "rating": 4.0, "coordinates": {"latitude": 61.175552, "longitude": -149.983588}, "transactions": ["delivery"], "price": "$$", "location": {"address1": "5000 W International Airport Rd", "address2": "", "address3": null, "city": "Anchorage", "zip_code": "99502", "country": "US", "state": "AK", "display_address": ["5000 W International Airport Rd", "Anchorage, AK 99502"]}, "phone": "+19073378744", "display_phone": "(907) 337-8744", "distance": 6091.33932027394}, {"id": "uyOq7wAhxOnYYeZpZMATIQ", "alias": "familia-anchorage-2", "name": "Familia", "image_url": "https://s3-media4.fl.yelpcdn.com/bphoto/Rj3KreDFDkO0Qb2hRtfoPw/o.jpg", "is_closed": false, "url": "https://www.yelp.com/biz/familia-anchorage-2?adjust_creative=vyhy616UjsMTA_hrWyg_5w&utm_campaign=yelp_api_v3&utm_medium=api_v3_business_search&utm_source=vyhy616UjsMTA_hrWyg_5w", "review_count": 7, "categories": [{"alias": "asianfusion", "title": "Asian Fusion"}], "rating": 4.5, "coordinates": {"latitude": 61.138543, "longitude": -149.881641}, "transactions": [], "location": {"address1": "148 W 91st Ave", "address2": "", "address3": null, "city": "Anchorage", "zip_code": "99515", "country": "US", "state": "AK", "display_address": ["148 W 91st Ave", "Anchorage, AK 99515"]}, "phone": "", "display_phone": "", "distance": 4306.48172805238}, {"id": "s7TS6bRzrhzMIGYpl6rWYw", "alias": "hong-kong-spirit-food-anchorage-3", "name": "Hong Kong Spirit Food", "image_url": "https://s3-media3.fl.yelpcdn.com/bphoto/lCguVdzvfOHTcs_BeeKANQ/o.jpg", "is_closed": false, "url": "https://www.yelp.com/biz/hong-kong-spirit-food-anchorage-3?adjust_creative=vyhy616UjsMTA_hrWyg_5w&utm_campaign=yelp_api_v3&utm_medium=api_v3_business_search&utm_source=vyhy616UjsMTA_hrWyg_5w", "review_count": 15, "categories": [{"alias": "dimsum", "title": "Dim Sum"}], "rating": 4.5, "coordinates": {"latitude": 61.17237129999999, "longitude": -149.8937504}, "transactions": [], "location": {"address1": "570 W 53rd Ave", "address2": "", "address3": null, "city": "Anchorage", "zip_code": "99518", "country": "US", "state": "AK", "display_address": ["570 W 53rd Ave", "Anchorage, AK 99518"]}, "phone": "+19078306908", "display_phone": "(907) 830-6908", "distance": 1367.9757915464158}, {"id": "WWHaRcgwX4naBlfjoU0Reg", "alias": "silk-anchorage-3", "name": "Silk", "image_url": "https://s3-media4.fl.yelpcdn.com/bphoto/ByHXKUclm_pHWtrWwjNEyg/o.jpg", "is_closed": false, "url": "https://www.yelp.com/biz/silk-anchorage-3?adjust_creative=vyhy616UjsMTA_hrWyg_5w&utm_campaign=yelp_api_v3&utm_medium=api_v3_business_search&utm_source=vyhy616UjsMTA_hrWyg_5w", "review_count": 68, "categories": [{"alias": "japanese", "title": "Japanese"}, {"alias": "chinese", "title": "Chinese"}, {"alias": "korean", "title": "Korean"}], "rating": 3.5, "coordinates": {"latitude": 61.19273, "longitude": -149.87515}, "transactions": ["pickup", "delivery"], "price": "$$", "location": {"address1": "500 E Benson Blvd", "address2": "Ste 114", "address3": "", "city": "Anchorage", "zip_code": "99503", "country": "US", "state": "AK", "display_address": ["500 E Benson Blvd", "Ste 114", "Anchorage, AK 99503"]}, "phone": "+19072745236", "display_phone": "(907) 274-5236", "distance": 1790.711743527438}, {"id": "KXIdqHQebhQ_JCjlZbXIig", "alias": "jinmi-korean-restaurant-anchorage", "name": "Jinmi Korean Restaurant", "image_url": "https://s3-media1.fl.yelpcdn.com/bphoto/kh5bnR4CqUovI1GTqvv38A/o.jpg", "is_closed": false, "url": "https://www.yelp.com/biz/jinmi-korean-restaurant-anchorage?adjust_creative=vyhy616UjsMTA_hrWyg_5w&utm_campaign=yelp_api_v3&utm_medium=api_v3_business_search&utm_source=vyhy616UjsMTA_hrWyg_5w", "review_count": 66, "categories": [{"alias": "korean", "title": "Korean"}], "rating": 4.0, "coordinates": {"latitude": 61.179853, "longitude": -149.93797}, "transactions": ["delivery"], "price": "$$", "location": {"address1": "4505 Spenard Rd", "address2": "", "address3": null, "city": "Anchorage", "zip_code": "99517", "country": "US", "state": "AK", "display_address": ["4505 Spenard Rd", "Anchorage, AK 99517"]}, "phone": "+19078684900", "display_phone": "(907) 868-4900", "distance": 3658.9555077748055}, {"id": "pCbE9jl-Tqe3T_DaZEw8vA", "alias": "thai-orchid-anchorage-2", "name": "Thai Orchid", "image_url": "https://s3-media2.fl.yelpcdn.com/bphoto/L8ihswFMqKtmuZfeME0Ong/o.jpg", "is_closed": false, "url": "https://www.yelp.com/biz/thai-orchid-anchorage-2?adjust_creative=vyhy616UjsMTA_hrWyg_5w&utm_campaign=yelp_api_v3&utm_medium=api_v3_business_search&utm_source=vyhy616UjsMTA_hrWyg_5w", "review_count": 91, "categories": [{"alias": "thai", "title": "Thai"}], "rating": 4.0, "coordinates": {"latitude": 61.1672806642905, "longitude": -149.837698303163}, "transactions": ["delivery"], "price": "$$", "location": {"address1": "5905 Lake Otis Pkwy", "address2": "Ste A", "address3": "", "city": "Anchorage", "zip_code": "99507", "country": "US", "state": "AK", "display_address": ["5905 Lake Otis Pkwy", "Ste A", "Anchorage, AK 99507"]}, "phone": "+19078685226", "display_phone": "(907) 868-5226", "distance": 2033.1550832387163}, {"id": "z17mMIOb3891iCK78HBVhg", "alias": "thai-village-restaurant-anchorage", "name": "Thai Village Restaurant", "image_url": "https://s3-media2.fl.yelpcdn.com/bphoto/34kYdn5Z78xLS5ndhjD0uQ/o.jpg", "is_closed": false, "url": "https://www.yelp.com/biz/thai-village-restaurant-anchorage?adjust_creative=vyhy616UjsMTA_hrWyg_5w&utm_campaign=yelp_api_v3&utm_medium=api_v3_business_search&utm_source=vyhy616UjsMTA_hrWyg_5w", "review_count": 72, "categories": [{"alias": "thai", "title": "Thai"}, {"alias": "vegetarian", "title": "Vegetarian"}], "rating": 4.0, "coordinates": {"latitude": 61.21362, "longitude": -149.73424}, "transactions": ["delivery"], "price": "$$", "location": {"address1": "954 Muldoon Rd", "address2": "", "address3": "", "city": "Anchorage", "zip_code": "99504", "country": "US", "state": "AK", "display_address": ["954 Muldoon Rd", "Anchorage, AK 99504"]}, "phone": "+19073379559", "display_phone": "(907) 337-9559", "distance": 8347.329481263494}, {"id": "AX3_h5Ebo56FcF-Ln3aXeQ", "alias": "vip-restaurant-anchorage", "name": "Vip Restaurant", "image_url": "https://s3-media1.fl.yelpcdn.com/bphoto/pd6Y_-MsIF6VL6qkHfODDw/o.jpg", "is_closed": false, "url": "https://www.yelp.com/biz/vip-restaurant-anchorage?adjust_creative=vyhy616UjsMTA_hrWyg_5w&utm_campaign=yelp_api_v3&utm_medium=api_v3_business_search&utm_source=vyhy616UjsMTA_hrWyg_5w", "review_count": 118, "categories": [{"alias": "korean", "title": "Korean"}, {"alias": "chinese", "title": "Chinese"}], "rating": 3.5, "coordinates": {"latitude": 61.1957244873047, "longitude": -149.894073486328}, "transactions": ["pickup", "delivery"], "price": "$$", "location": {"address1": "555 W Northern Lights Blvd", "address2": "Ste 105", "address3": "", "city": "Anchorage", "zip_code": "99503", "country": "US", "state": "AK", "display_address": ["555 W Northern Lights Blvd", "Ste 105", "Anchorage, AK 99503"]}, "phone": "+19072797549", "display_phone": "(907) 279-7549", "distance": 2478.6457366195323}, {"id": "UYS-Yhk4qqZwwyPKuiXkgA", "alias": "pho-dimond-anchorage", "name": "Pho Dimond", "image_url": "https://s3-media2.fl.yelpcdn.com/bphoto/X6F5u0EC-NW8NcUhMf3wNA/o.jpg", "is_closed": false, "url": "https://www.yelp.com/biz/pho-dimond-anchorage?adjust_creative=vyhy616UjsMTA_hrWyg_5w&utm_campaign=yelp_api_v3&utm_medium=api_v3_business_search&utm_source=vyhy616UjsMTA_hrWyg_5w", "review_count": 83, "categories": [{"alias": "vietnamese", "title": "Vietnamese"}], "rating": 4.0, "coordinates": {"latitude": 61.1458, "longitude": -149.88159}, "transactions": ["delivery"], "price": "$$", "location": {"address1": "135 W Dimond Blvd", "address2": "Ste 106", "address3": "", "city": "Anchorage", "zip_code": "99515", "country": "US", "state": "AK", "display_address": ["135 W Dimond Blvd", "Ste 106", "Anchorage, AK 99515"]}, "phone": "+19079297979", "display_phone": "(907) 929-7979", "distance": 3500.5876804924437}, {"id": "xQUFcmPcC9TBBfJJcRUHfQ", "alias": "pho-vietnam-anchorage", "name": "Pho Vietnam", "image_url": "https://s3-media2.fl.yelpcdn.com/bphoto/7QI-bKQX9kSLI7lbKvJcAw/o.jpg", "is_closed": false, "url": "https://www.yelp.com/biz/pho-vietnam-anchorage?adjust_creative=vyhy616UjsMTA_hrWyg_5w&utm_campaign=yelp_api_v3&utm_medium=api_v3_business_search&utm_source=vyhy616UjsMTA_hrWyg_5w", "review_count": 132, "categories": [{"alias": "vietnamese", "title": "Vietnamese"}], "rating": 4.0, "coordinates": {"latitude": 61.192877, "longitude": -149.877546}, "transactions": ["delivery"], "price": "$$", "location": {"address1": "3030 Denali St", "address2": "Unit 1", "address3": "", "city": "Anchorage", "zip_code": "99503", "country": "US", "state": "AK", "display_address": ["3030 Denali St", "Unit 1", "Anchorage, AK 99503"]}, "phone": "+19079299938", "display_phone": "(907) 929-9938", "distance": 1827.800466710011}], "total": 112, "region": {"center": {"longitude": -149.8699951171875, "latitude": 61.17686253072936}}}