{"businesses": [{"id": "kHNzZ_sei_C8wTS5egyg2A", "alias": "shiki-birmingham", "name": "Shiki", "image_url": "https://s3-media4.fl.yelpcdn.com/bphoto/wyT6QIhVGl8FPsXx-zBGfw/o.jpg", "is_closed": false, "url": "https://www.yelp.com/biz/shiki-birmingham?adjust_creative=vyhy616UjsMTA_hrWyg_5w&utm_campaign=yelp_api_v3&utm_medium=api_v3_business_search&utm_source=vyhy616UjsMTA_hrWyg_5w", "review_count": 222, "categories": [{"alias": "asianfusion", "title": "Asian Fusion"}, {"alias": "sushi", "title": "Sushi Bars"}, {"alias": "thai", "title": "Thai"}], "rating": 4.0, "coordinates": {"latitude": 33.478301, "longitude": -86.78945}, "transactions": ["delivery", "pickup"], "price": "$$", "location": {"address1": "300 Hallman Hill E", "address2": "Ste 109", "address3": "", "city": "Birmingham", "zip_code": "35209", "country": "US", "state": "AL", "display_address": ["300 Hallman Hill E", "Ste 109", "Birmingham, AL 35209"]}, "phone": "+12057835222", "display_phone": "(205) 783-5222", "distance": 1274.2201566298704}, {"id": "cpCHZmd3bQH6zADw67o9uw", "alias": "bamboo-on-2nd-birmingham", "name": "Bamboo on 2nd", "image_url": "https://s3-media3.fl.yelpcdn.com/bphoto/O18GFCPesY5rRYxJnOQNBQ/o.jpg", "is_closed": false, "url": "https://www.yelp.com/biz/bamboo-on-2nd-birmingham?adjust_creative=vyhy616UjsMTA_hrWyg_5w&utm_campaign=yelp_api_v3&utm_medium=api_v3_business_search&utm_source=vyhy616UjsMTA_hrWyg_5w", "review_count": 344, "categories": [{"alias": "sushi", "title": "Sushi Bars"}, {"alias": "asianfusion", "title": "Asian Fusion"}, {"alias": "ramen", "title": "Ramen"}], "rating": 4.5, "coordinates": {"latitude": 33.51707612757072, "longitude": -86.80305242883553}, "transactions": ["delivery"], "price": "$$", "location": {"address1": "2212 2nd Ave N", "address2": "", "address3": "", "city": "Birmingham", "zip_code": "35203", "country": "US", "state": "AL", "display_address": ["2212 2nd Ave N", "Birmingham, AL 35203"]}, "phone": "+12057030551", "display_phone": "(205) 703-0551", "distance": 5402.5701679970825}, {"id": "2lGu4coTDMUNRSVjUtAC_A", "alias": "super-oriental-market-and-red-pearl-restaurant-homewood", "name": "Super Oriental Market and Red Pearl Restaurant", "image_url": "https://s3-media4.fl.yelpcdn.com/bphoto/4BYJk3Es0wMoeZW3FoGzTQ/o.jpg", "is_closed": false, "url": "https://www.yelp.com/biz/super-oriental-market-and-red-pearl-restaurant-homewood?adjust_creative=vyhy616UjsMTA_hrWyg_5w&utm_campaign=yelp_api_v3&utm_medium=api_v3_business_search&utm_source=vyhy616UjsMTA_hrWyg_5w", "review_count": 355, "categories": [{"alias": "chinese", "title": "Chinese"}, {"alias": "intlgrocery", "title": "International Grocery"}], "rating": 4.0, "coordinates": {"latitude": 33.4667397, "longitude": -86.8339996}, "transactions": [], "price": "$$", "location": {"address1": "243 W Valley Ave", "address2": "Ste 121", "address3": "", "city": "Homewood", "zip_code": "35209", "country": "US", "state": "AL", "display_address": ["243 W Valley Ave", "Ste 121", "Homewood, AL 35209"]}, "phone": "+12059459558", "display_phone": "(205) 945-9558", "distance": 5336.774060658074}, {"id": "jaZOyPmLrUNp8fSGhQAZlQ", "alias": "saigon-noodle-house-birmingham", "name": "Saigon Noodle House", "image_url": "https://s3-media3.fl.yelpcdn.com/bphoto/B78wQUof0o9HBkSWJEltRw/o.jpg", "is_closed": false, "url": "https://www.yelp.com/biz/saigon-noodle-house-birmingham?adjust_creative=vyhy616UjsMTA_hrWyg_5w&utm_campaign=yelp_api_v3&utm_medium=api_v3_business_search&utm_source=vyhy616UjsMTA_hrWyg_5w", "review_count": 317, "categories": [{"alias": "vietnamese", "title": "Vietnamese"}, {"alias": "noodles", "title": "Noodles"}], "rating": 4.5, "coordinates": {"latitude": 33.4279314128122, "longitude": -86.7098522186279}, "transactions": ["delivery"], "price": "$$", "location": {"address1": "4606 Hwy 280", "address2": "Ste 108", "address3": "", "city": "Birmingham", "zip_code": "35242", "country": "US", "state": "AL", "display_address": ["4606 Hwy 280", "Ste 108", "Birmingham, AL 35242"]}, "phone": "+12054081800", "display_phone": "(205) 408-1800", "distance": 8033.61203379462}, {"id": "nHsa942X-xxURhlleW3TTw", "alias": "yummefy-birmingham-2", "name": "Yummefy", "image_url": "https://s3-media1.fl.yelpcdn.com/bphoto/ivvHYD93IyaVEx1mijCUrA/o.jpg", "is_closed": false, "url": "https://www.yelp.com/biz/yummefy-birmingham-2?adjust_creative=vyhy616UjsMTA_hrWyg_5w&utm_campaign=yelp_api_v3&utm_medium=api_v3_business_search&utm_source=vyhy616UjsMTA_hrWyg_5w", "review_count": 131, "categories": [{"alias": "asianfusion", "title": "Asian Fusion"}, {"alias": "indpak", "title": "Indian"}, {"alias": "himalayan", "title": "Himalayan/Nepalese"}], "rating": 4.5, "coordinates": {"latitude": 33.506435, "longitude": -86.7979714}, "transactions": ["delivery", "pickup"], "price": "$$", "location": {"address1": "707 Richard Arrington Jr Blvd S", "address2": "Ste 104", "address3": null, "city": "Birmingham", "zip_code": "35233", "country": "US", "state": "AL", "display_address": ["707 Richard Arrington Jr Blvd S", "Ste 104", "Birmingham, AL 35233"]}, "phone": "+12053244873", "display_phone": "(205) 324-4873", "distance": 4135.306034120556}, {"id": "kmkS8qtMyBqdZi_1KxpIkA", "alias": "black-pearl-asian-cuisine-birmingham", "name": "Black Pearl Asian Cuisine", "image_url": "https://s3-media2.fl.yelpcdn.com/bphoto/cjlCX3tqjOVJCm2u_jMC9w/o.jpg", "is_closed": false, "url": "https://www.yelp.com/biz/black-pearl-asian-cuisine-birmingham?adjust_creative=vyhy616UjsMTA_hrWyg_5w&utm_campaign=yelp_api_v3&utm_medium=api_v3_business_search&utm_source=vyhy616UjsMTA_hrWyg_5w", "review_count": 98, "categories": [{"alias": "asianfusion", "title": "Asian Fusion"}, {"alias": "chinese", "title": "Chinese"}], "rating": 4.0, "coordinates": {"latitude": 33.43757, "longitude": -86.728832}, "transactions": ["delivery", "pickup"], "price": "$$", "location": {"address1": "3439 Colonnade Pkwy", "address2": "", "address3": "", "city": "Birmingham", "zip_code": "35243", "country": "US", "state": "AL", "display_address": ["3439 Colonnade Pkwy", "Birmingham, AL 35243"]}, "phone": "+12052629888", "display_phone": "(205) 262-9888", "distance": 5998.594516215892}, {"id": "zkBEZgUI2bD8ZuCYzHZ8Sg", "alias": "nori-thai-and-sushi-restaurant-birmingham-2", "name": "Nori Thai and Sushi Restaurant", "image_url": "https://s3-media4.fl.yelpcdn.com/bphoto/Ffs8DuiXRdOzBvKsoIzDnw/o.jpg", "is_closed": false, "url": "https://www.yelp.com/biz/nori-thai-and-sushi-restaurant-birmingham-2?adjust_creative=vyhy616UjsMTA_hrWyg_5w&utm_campaign=yelp_api_v3&utm_medium=api_v3_business_search&utm_source=vyhy616UjsMTA_hrWyg_5w", "review_count": 242, "categories": [{"alias": "sushi", "title": "Sushi Bars"}, {"alias": "thai", "title": "Thai"}], "rating": 4.5, "coordinates": {"latitude": 33.432277, "longitude": -86.737773}, "transactions": ["delivery"], "price": "$$", "location": {"address1": "4704 Cahaba River Rd", "address2": "", "address3": "", "city": "Birmingham", "zip_code": "35243", "country": "US", "state": "AL", "display_address": ["4704 Cahaba River Rd", "Birmingham, AL 35243"]}, "phone": "+12059707570", "display_phone": "(205) 970-7570", "distance": 5860.650652680775}, {"id": "NKr94WfTtPBDwEODGByPTA", "alias": "seoul-restaurant-birmingham", "name": "Seoul Restaurant", "image_url": "https://s3-media3.fl.yelpcdn.com/bphoto/yH3Af2vEohkW8T6nZNVGKw/o.jpg", "is_closed": false, "url": "https://www.yelp.com/biz/seoul-restaurant-birmingham?adjust_creative=vyhy616UjsMTA_hrWyg_5w&utm_campaign=yelp_api_v3&utm_medium=api_v3_business_search&utm_source=vyhy616UjsMTA_hrWyg_5w", "review_count": 103, "categories": [{"alias": "korean", "title": "Korean"}], "rating": 3.5, "coordinates": {"latitude": 33.463152, "longitude": -86.821412}, "transactions": ["delivery"], "price": "$$", "location": {"address1": "430 Green Springs Hwy", "address2": "", "address3": "", "city": "Birmingham", "zip_code": "35209", "country": "US", "state": "AL", "display_address": ["430 Green Springs Hwy", "Birmingham, AL 35209"]}, "phone": "+12059458007", "display_phone": "(205) 945-8007", "distance": 4292.385178543921}, {"id": "vI9qSbsOGYkVLxQRVqIrjQ", "alias": "ooka-chinese-and-japanese-restaurant-birmingham", "name": "Ooka Chinese & Japanese Restaurant", "image_url": "https://s3-media4.fl.yelpcdn.com/bphoto/KvnKicM35xLR8p7JxCeZQA/o.jpg", "is_closed": false, "url": "https://www.yelp.com/biz/ooka-chinese-and-japanese-restaurant-birmingham?adjust_creative=vyhy616UjsMTA_hrWyg_5w&utm_campaign=yelp_api_v3&utm_medium=api_v3_business_search&utm_source=vyhy616UjsMTA_hrWyg_5w", "review_count": 65, "categories": [{"alias": "japanese", "title": "Japanese"}, {"alias": "chinese", "title": "Chinese"}, {"alias": "sushi", "title": "Sushi Bars"}], "rating": 4.5, "coordinates": {"latitude": 33.3457805002756, "longitude": -86.7947798454037}, "transactions": ["delivery", "pickup"], "price": "$$", "location": {"address1": "2005 Valleydale Rd", "address2": "Ste 6", "address3": "", "city": "Birmingham", "zip_code": "35244", "country": "US", "state": "AL", "display_address": ["2005 Valleydale Rd", "Ste 6", "Birmingham, AL 35244"]}, "phone": "+12055185590", "display_phone": "(205) 518-5590", "distance": 14316.799496015086}, {"id": "ERQ7Gf3iHXqgZN344eDj8A", "alias": "blue-pacific-at-hoover-foodmart-birmingham", "name": "Blue Pacific At Hoover Foodmart", "image_url": "https://s3-media4.fl.yelpcdn.com/bphoto/wBxT_E9KzBvFQIQKQsAJDw/o.jpg", "is_closed": false, "url": "https://www.yelp.com/biz/blue-pacific-at-hoover-foodmart-birmingham?adjust_creative=vyhy616UjsMTA_hrWyg_5w&utm_campaign=yelp_api_v3&utm_medium=api_v3_business_search&utm_source=vyhy616UjsMTA_hrWyg_5w", "review_count": 276, "categories": [{"alias": "thai", "title": "Thai"}], "rating": 4.5, "coordinates": {"latitude": 33.39689, "longitude": -86.80042}, "transactions": ["delivery"], "price": "$", "location": {"address1": "3219 Lorna Rd", "address2": "", "address3": "", "city": "Birmingham", "zip_code": "35216", "country": "US", "state": "AL", "display_address": ["3219 Lorna Rd", "Birmingham, AL 35216"]}, "phone": "+12059780754", "display_phone": "(205) 978-0754", "distance": 8812.327218494522}, {"id": "dBOti0H0MjdaTw0QiDKZJg", "alias": "eastwest-birmingham", "name": "EastWest", "image_url": "https://s3-media2.fl.yelpcdn.com/bphoto/L1LpwetBZpwoligrbj3UHQ/o.jpg", "is_closed": false, "url": "https://www.yelp.com/biz/eastwest-birmingham?adjust_creative=vyhy616UjsMTA_hrWyg_5w&utm_campaign=yelp_api_v3&utm_medium=api_v3_business_search&utm_source=vyhy616UjsMTA_hrWyg_5w", "review_count": 222, "categories": [{"alias": "newamerican", "title": "American (New)"}, {"alias": "venues", "title": "Venues & Event Spaces"}, {"alias": "panasian", "title": "Pan Asian"}], "rating": 4.5, "coordinates": {"latitude": 33.5178, "longitude": -86.8021}, "transactions": ["delivery"], "price": "$$", "location": {"address1": "2306 2nd Ave N", "address2": "", "address3": null, "city": "Birmingham", "zip_code": "35203", "country": "US", "state": "AL", "display_address": ["2306 2nd Ave N", "Birmingham, AL 35203"]}, "phone": "+12052024496", "display_phone": "(205) 202-4496", "distance": 5424.806888617866}, {"id": "p4RZxAL7LZudl9LhNlOYkg", "alias": "hometown-supermarket-and-chinese-restaurant-homewood", "name": "Hometown Supermarket and Chinese Restaurant", "image_url": "https://s3-media1.fl.yelpcdn.com/bphoto/zsHCG_V6cqnNW_oOmUx4NA/o.jpg", "is_closed": false, "url": "https://www.yelp.com/biz/hometown-supermarket-and-chinese-restaurant-homewood?adjust_creative=vyhy616UjsMTA_hrWyg_5w&utm_campaign=yelp_api_v3&utm_medium=api_v3_business_search&utm_source=vyhy616UjsMTA_hrWyg_5w", "review_count": 171, "categories": [{"alias": "chinese", "title": "Chinese"}, {"alias": "grocery", "title": "Grocery"}, {"alias": "seafoodmarkets", "title": "Seafood Markets"}], "rating": 4.0, "coordinates": {"latitude": 33.46112, "longitude": -86.81963}, "transactions": ["delivery", "pickup"], "price": "$", "location": {"address1": "808 Green Springs Hwy", "address2": "Ste 140", "address3": null, "city": "Homewood", "zip_code": "35209", "country": "US", "state": "AL", "display_address": ["808 Green Springs Hwy", "Ste 140", "Homewood, AL 35209"]}, "phone": "+12059425000", "display_phone": "(205) 942-5000", "distance": 4200.402164961248}, {"id": "Sh5oK1lzyra8Yop8WaHbvQ", "alias": "shu-shop-birmingham", "name": "Shu Shop", "image_url": "https://s3-media1.fl.yelpcdn.com/bphoto/IU_6krSosLC9M1SdDzz_ZA/o.jpg", "is_closed": false, "url": "https://www.yelp.com/biz/shu-shop-birmingham?adjust_creative=vyhy616UjsMTA_hrWyg_5w&utm_campaign=yelp_api_v3&utm_medium=api_v3_business_search&utm_source=vyhy616UjsMTA_hrWyg_5w", "review_count": 176, "categories": [{"alias": "bars", "title": "Bars"}, {"alias": "ramen", "title": "Ramen"}], "rating": 4.0, "coordinates": {"latitude": 33.5154180489643, "longitude": -86.8087461087657}, "transactions": ["delivery", "pickup"], "price": "$$", "location": {"address1": "1820 3rd Ave N", "address2": "", "address3": null, "city": "Birmingham", "zip_code": "35203", "country": "US", "state": "AL", "display_address": ["1820 3rd Ave N", "Birmingham, AL 35203"]}, "phone": "+12052916660", "display_phone": "(205) 291-6660", "distance": 5502.98555691769}, {"id": "p3790Zjg2pi0jeiD_Hb_cA", "alias": "pho-pho-asian-cuisine-hoover", "name": "Pho Pho Asian Cuisine", "image_url": "https://s3-media4.fl.yelpcdn.com/bphoto/4blbJi2wexckPob-HP4V8A/o.jpg", "is_closed": false, "url": "https://www.yelp.com/biz/pho-pho-asian-cuisine-hoover?adjust_creative=vyhy616UjsMTA_hrWyg_5w&utm_campaign=yelp_api_v3&utm_medium=api_v3_business_search&utm_source=vyhy616UjsMTA_hrWyg_5w", "review_count": 17, "categories": [{"alias": "vietnamese", "title": "Vietnamese"}, {"alias": "korean", "title": "Korean"}], "rating": 4.5, "coordinates": {"latitude": 33.40446, "longitude": -86.80679}, "transactions": ["delivery"], "location": {"address1": "1580 Montgomery Hwy", "address2": null, "address3": "", "city": "Hoover", "zip_code": "35216", "country": "US", "state": "AL", "display_address": ["1580 Montgomery Hwy", "Hoover, AL 35216"]}, "phone": "+12057831333", "display_phone": "(205) 783-1333", "distance": 8194.30722774219}, {"id": "GaKpkGFJ5xi3ysjcriTqSA", "alias": "taste-of-thailand-birmingham", "name": "Taste of Thailand", "image_url": "https://s3-media3.fl.yelpcdn.com/bphoto/CUFrHOZxY9Hjk4HiUeIlRw/o.jpg", "is_closed": false, "url": "https://www.yelp.com/biz/taste-of-thailand-birmingham?adjust_creative=vyhy616UjsMTA_hrWyg_5w&utm_campaign=yelp_api_v3&utm_medium=api_v3_business_search&utm_source=vyhy616UjsMTA_hrWyg_5w", "review_count": 151, "categories": [{"alias": "thai", "title": "Thai"}, {"alias": "sushi", "title": "Sushi Bars"}, {"alias": "soup", "title": "Soup"}], "rating": 4.0, "coordinates": {"latitude": 33.393528, "longitude": -86.796726}, "transactions": ["delivery", "pickup"], "price": "$$", "location": {"address1": "3321 Lorna Rd", "address2": "Ste 3", "address3": "", "city": "Birmingham", "zip_code": "35216", "country": "US", "state": "AL", "display_address": ["3321 Lorna Rd", "Ste 3", "Birmingham, AL 35216"]}, "phone": "+12059786863", "display_phone": "(205) 978-6863", "distance": 9210.092682958884}, {"id": "qvZtkf0McXFh7ibqklyYTw", "alias": "ginza-sushi-and-korean-bbq-birmingham", "name": "Ginza Sushi and Korean BBQ", "image_url": "https://s3-media3.fl.yelpcdn.com/bphoto/f0ZwTljdKrroriUkgPThVA/o.jpg", "is_closed": false, "url": "https://www.yelp.com/biz/ginza-sushi-and-korean-bbq-birmingham?adjust_creative=vyhy616UjsMTA_hrWyg_5w&utm_campaign=yelp_api_v3&utm_medium=api_v3_business_search&utm_source=vyhy616UjsMTA_hrWyg_5w", "review_count": 141, "categories": [{"alias": "korean", "title": "Korean"}, {"alias": "sushi", "title": "Sushi Bars"}, {"alias": "japanese", "title": "Japanese"}], "rating": 3.5, "coordinates": {"latitude": 33.414235, "longitude": -86.699067}, "transactions": ["delivery"], "price": "$$", "location": {"address1": "5291 Valleydale Rd", "address2": "Ste 101", "address3": "", "city": "Birmingham", "zip_code": "35242", "country": "US", "state": "AL", "display_address": ["5291 Valleydale Rd", "Ste 101", "Birmingham, AL 35242"]}, "phone": "+12059811616", "display_phone": "(205) 981-1616", "distance": 9787.92674692409}, {"id": "52aRUbxqDz_ej4WJeQnCRw", "alias": "pho-place-birmingham", "name": "Pho Place", "image_url": "https://s3-media4.fl.yelpcdn.com/bphoto/RnKiYV2a0f5vXtelifRAUQ/o.jpg", "is_closed": false, "url": "https://www.yelp.com/biz/pho-place-birmingham?adjust_creative=vyhy616UjsMTA_hrWyg_5w&utm_campaign=yelp_api_v3&utm_medium=api_v3_business_search&utm_source=vyhy616UjsMTA_hrWyg_5w", "review_count": 50, "categories": [{"alias": "vietnamese", "title": "Vietnamese"}, {"alias": "chinese", "title": "Chinese"}], "rating": 4.0, "coordinates": {"latitude": 33.4252008, "longitude": -86.7032977}, "transactions": ["delivery"], "price": "$$", "location": {"address1": "4647 Hwy 280", "address2": "", "address3": null, "city": "Birmingham", "zip_code": "35242", "country": "US", "state": "AL", "display_address": ["4647 Hwy 280", "Birmingham, AL 35242"]}, "phone": "+12055185811", "display_phone": "(205) 518-5811", "distance": 8806.260716080546}, {"id": "SOBKyFH033Aw3k6cvfiWjQ", "alias": "abhi-eatery-and-bar-birmingham", "name": "Abhi Eatery and Bar", "image_url": "https://s3-media1.fl.yelpcdn.com/bphoto/gz9PKVnnz8O6ewrYt4LPfQ/o.jpg", "is_closed": false, "url": "https://www.yelp.com/biz/abhi-eatery-and-bar-birmingham?adjust_creative=vyhy616UjsMTA_hrWyg_5w&utm_campaign=yelp_api_v3&utm_medium=api_v3_business_search&utm_source=vyhy616UjsMTA_hrWyg_5w", "review_count": 148, "categories": [{"alias": "sushi", "title": "Sushi Bars"}, {"alias": "asianfusion", "title": "Asian Fusion"}, {"alias": "bars", "title": "Bars"}], "rating": 4.5, "coordinates": {"latitude": 33.4503463, "longitude": -86.7300445}, "transactions": ["delivery"], "price": "$$", "location": {"address1": "300 Summit Blvd", "address2": "Ste 104", "address3": null, "city": "Birmingham", "zip_code": "35243", "country": "US", "state": "AL", "display_address": ["300 Summit Blvd", "Ste 104", "Birmingham, AL 35243"]}, "phone": "+12059696858", "display_phone": "(205) 969-6858", "distance": 5007.214531924763}, {"id": "sEsiSa4DCH43YF371Tqvyw", "alias": "pho-280-birmingham", "name": "Pho 280", "image_url": "https://s3-media2.fl.yelpcdn.com/bphoto/jVCwIVWx_WOr_UrlJ7UgCg/o.jpg", "is_closed": false, "url": "https://www.yelp.com/biz/pho-280-birmingham?adjust_creative=vyhy616UjsMTA_hrWyg_5w&utm_campaign=yelp_api_v3&utm_medium=api_v3_business_search&utm_source=vyhy616UjsMTA_hrWyg_5w", "review_count": 131, "categories": [{"alias": "vietnamese", "title": "Vietnamese"}, {"alias": "noodles", "title": "Noodles"}, {"alias": "soup", "title": "Soup"}], "rating": 4.5, "coordinates": {"latitude": 33.411828, "longitude": -86.663961}, "transactions": ["delivery", "pickup"], "price": "$$", "location": {"address1": "5479 US 280", "address2": "Unit 102", "address3": "", "city": "Birmingham", "zip_code": "35242", "country": "US", "state": "AL", "display_address": ["5479 US 280", "Unit 102", "Birmingham, AL 35242"]}, "phone": "+12057392177", "display_phone": "(205) 739-2177", "distance": 12555.64887837115}, {"id": "exezmeZpmOcvnWmXH1gCcg", "alias": "tao-asian-pelham", "name": "Tao Asian", "image_url": "https://s3-media3.fl.yelpcdn.com/bphoto/2T5mexuHLBsEjAko4wtnAQ/o.jpg", "is_closed": false, "url": "https://www.yelp.com/biz/tao-asian-pelham?adjust_creative=vyhy616UjsMTA_hrWyg_5w&utm_campaign=yelp_api_v3&utm_medium=api_v3_business_search&utm_source=vyhy616UjsMTA_hrWyg_5w", "review_count": 33, "categories": [{"alias": "chinese", "title": "Chinese"}, {"alias": "thai", "title": "Thai"}], "rating": 4.0, "coordinates": {"latitude": 33.2745247, "longitude": -86.7940216}, "transactions": ["delivery"], "price": "$", "location": {"address1": "345 Huntley Pkwy", "address2": "", "address3": "", "city": "Pelham", "zip_code": "35124", "country": "US", "state": "AL", "display_address": ["345 Huntley Pkwy", "Pelham, AL 35124"]}, "phone": "+12056858809", "display_phone": "(205) 685-8809", "distance": 22107.21318319453}, {"id": "BZVeJ5fT1SLz1oQheSwUdA", "alias": "masaman-thai-kitchen-birmingham", "name": "Masaman Thai Kitchen", "image_url": "https://s3-media4.fl.yelpcdn.com/bphoto/WOZ6sV_oqqryFZtLVEEz5Q/o.jpg", "is_closed": false, "url": "https://www.yelp.com/biz/masaman-thai-kitchen-birmingham?adjust_creative=vyhy616UjsMTA_hrWyg_5w&utm_campaign=yelp_api_v3&utm_medium=api_v3_business_search&utm_source=vyhy616UjsMTA_hrWyg_5w", "review_count": 158, "categories": [{"alias": "thai", "title": "Thai"}, {"alias": "sushi", "title": "Sushi Bars"}], "rating": 4.5, "coordinates": {"latitude": 33.444254326587, "longitude": -86.7925914481406}, "transactions": ["delivery"], "price": "$$", "location": {"address1": "790 Montgomery Hwy", "address2": "Ste 104", "address3": "", "city": "Birmingham", "zip_code": "35216", "country": "US", "state": "AL", "display_address": ["790 Montgomery Hwy", "Ste 104", "Birmingham, AL 35216"]}, "phone": "+12052000711", "display_phone": "(205) 200-0711", "distance": 3580.214947192774}, {"id": "8iI18nJrfwDEGK318uMZmw", "alias": "great-wall-chinese-restaurant-birmingham-2", "name": "Great Wall Chinese Restaurant", "image_url": "https://s3-media1.fl.yelpcdn.com/bphoto/PjP4rwMyNJj2jDTIzin0og/o.jpg", "is_closed": false, "url": "https://www.yelp.com/biz/great-wall-chinese-restaurant-birmingham-2?adjust_creative=vyhy616UjsMTA_hrWyg_5w&utm_campaign=yelp_api_v3&utm_medium=api_v3_business_search&utm_source=vyhy616UjsMTA_hrWyg_5w", "review_count": 133, "categories": [{"alias": "chinese", "title": "Chinese"}], "rating": 4.0, "coordinates": {"latitude": 33.4757747, "longitude": -86.8158094}, "transactions": ["pickup"], "price": "$$", "location": {"address1": "706 Valley Ave", "address2": "", "address3": "", "city": "Birmingham", "zip_code": "35209", "country": "US", "state": "AL", "display_address": ["706 Valley Ave", "Birmingham, AL 35209"]}, "phone": "+12059451465", "display_phone": "(205) 945-1465", "distance": 3606.1993487384366}, {"id": "r9G1P4ZbWn5ysiGujYYIag", "alias": "mr-chens-authentic-chinese-cooking-hoover", "name": "Mr. Chens Authentic Chinese Cooking", "image_url": "https://s3-media1.fl.yelpcdn.com/bphoto/sLRMTQNYnyHNdhJiKOEbIQ/o.jpg", "is_closed": false, "url": "https://www.yelp.com/biz/mr-chens-authentic-chinese-cooking-hoover?adjust_creative=vyhy616UjsMTA_hrWyg_5w&utm_campaign=yelp_api_v3&utm_medium=api_v3_business_search&utm_source=vyhy616UjsMTA_hrWyg_5w", "review_count": 206, "categories": [{"alias": "chinese", "title": "Chinese"}, {"alias": "taiwanese", "title": "Taiwanese"}], "rating": 3.5, "coordinates": {"latitude": 33.402152, "longitude": -86.8073488}, "transactions": ["delivery"], "price": "$$", "location": {"address1": "1917 Hoover Ct", "address2": "", "address3": "", "city": "Hoover", "zip_code": "35226", "country": "US", "state": "AL", "display_address": ["1917 Hoover Ct", "Hoover, AL 35226"]}, "phone": "+12058248283", "display_phone": "(205) 824-8283", "distance": 8495.69107764973}, {"id": "WGeGTF7mdQsuBYIQs4WphA", "alias": "formosa-chinese-restaurant-birmingham", "name": "Formosa Chinese Restaurant", "image_url": "https://s3-media2.fl.yelpcdn.com/bphoto/Q-5Ky7ajPbmdI_mGDxj2pA/o.jpg", "is_closed": false, "url": "https://www.yelp.com/biz/formosa-chinese-restaurant-birmingham?adjust_creative=vyhy616UjsMTA_hrWyg_5w&utm_campaign=yelp_api_v3&utm_medium=api_v3_business_search&utm_source=vyhy616UjsMTA_hrWyg_5w", "review_count": 52, "categories": [{"alias": "chinese", "title": "Chinese"}], "rating": 4.5, "coordinates": {"latitude": 33.391748, "longitude": -86.795919}, "transactions": ["delivery"], "price": "$$", "location": {"address1": "2109 Lornaridge Ln", "address2": "", "address3": "", "city": "Birmingham", "zip_code": "35216", "country": "US", "state": "AL", "display_address": ["2109 Lornaridge Ln", "Birmingham, AL 35216"]}, "phone": "+12059008021", "display_phone": "(205) 900-8021", "distance": 9278.434118572122}, {"id": "romSB-8nBZFHsDLm1_mdEA", "alias": "kumo-sushi-and-asian-gardendale", "name": "Kumo Sushi & Asian", "image_url": "https://s3-media3.fl.yelpcdn.com/bphoto/5BorTLjQ-2Q_zEdKmCMQoA/o.jpg", "is_closed": false, "url": "https://www.yelp.com/biz/kumo-sushi-and-asian-gardendale?adjust_creative=vyhy616UjsMTA_hrWyg_5w&utm_campaign=yelp_api_v3&utm_medium=api_v3_business_search&utm_source=vyhy616UjsMTA_hrWyg_5w", "review_count": 58, "categories": [{"alias": "sushi", "title": "Sushi Bars"}, {"alias": "asianfusion", "title": "Asian Fusion"}], "rating": 4.5, "coordinates": {"latitude": 33.6463346351707, "longitude": -86.8265024675421}, "transactions": ["delivery"], "price": "$$", "location": {"address1": "835 Odum Rd", "address2": "Ste 107", "address3": null, "city": "Gardendale", "zip_code": "35071", "country": "US", "state": "AL", "display_address": ["835 Odum Rd", "Ste 107", "Gardendale, AL 35071"]}, "phone": "+12052855250", "display_phone": "(205) 285-5250", "distance": 19742.684426318338}, {"id": "QQJNMWb7Wb-_tpmeSpdEpw", "alias": "l-and-l-asian-restaurant-moody-2", "name": "L & L Asian Restaurant", "image_url": "https://s3-media1.fl.yelpcdn.com/bphoto/I40TzmOHABSru8X3o6aqTA/o.jpg", "is_closed": false, "url": "https://www.yelp.com/biz/l-and-l-asian-restaurant-moody-2?adjust_creative=vyhy616UjsMTA_hrWyg_5w&utm_campaign=yelp_api_v3&utm_medium=api_v3_business_search&utm_source=vyhy616UjsMTA_hrWyg_5w", "review_count": 17, "categories": [{"alias": "chinese", "title": "Chinese"}], "rating": 4.5, "coordinates": {"latitude": 33.588379, "longitude": -86.500617}, "transactions": [], "location": {"address1": "2729 Moody Pkwy", "address2": "", "address3": null, "city": "Moody", "zip_code": "35004", "country": "US", "state": "AL", "display_address": ["2729 Moody Pkwy", "Moody, AL 35004"]}, "phone": "+12053520588", "display_phone": "(205) 352-0588", "distance": 28608.537832326845}, {"id": "yyeBHe9fB_0_sqjjmra8dA", "alias": "hometown-supermarket-homewood", "name": "Hometown Supermarket", "image_url": "https://s3-media1.fl.yelpcdn.com/bphoto/R5xMla0wX1nfjFM6LAJJdw/o.jpg", "is_closed": false, "url": "https://www.yelp.com/biz/hometown-supermarket-homewood?adjust_creative=vyhy616UjsMTA_hrWyg_5w&utm_campaign=yelp_api_v3&utm_medium=api_v3_business_search&utm_source=vyhy616UjsMTA_hrWyg_5w", "review_count": 36, "categories": [{"alias": "chinese", "title": "Chinese"}, {"alias": "grocery", "title": "Grocery"}], "rating": 4.0, "coordinates": {"latitude": 33.4608431134563, "longitude": -86.8193751946092}, "transactions": [], "price": "$$", "location": {"address1": "808 Green Springs Hwy", "address2": "Ste 140", "address3": "", "city": "Homewood", "zip_code": "35209", "country": "US", "state": "AL", "display_address": ["808 Green Springs Hwy", "Ste 140", "Homewood, AL 35209"]}, "phone": "+12059410999", "display_phone": "(205) 941-0999", "distance": 4191.211517403311}, {"id": "IY1kLIsYOa15VByCb3UkkQ", "alias": "thai-basil-and-sushi-trussville", "name": "Thai Basil And Sushi", "image_url": "https://s3-media2.fl.yelpcdn.com/bphoto/FkaMyx6Bwtwkr_f9wsgWVw/o.jpg", "is_closed": false, "url": "https://www.yelp.com/biz/thai-basil-and-sushi-trussville?adjust_creative=vyhy616UjsMTA_hrWyg_5w&utm_campaign=yelp_api_v3&utm_medium=api_v3_business_search&utm_source=vyhy616UjsMTA_hrWyg_5w", "review_count": 60, "categories": [{"alias": "thai", "title": "Thai"}], "rating": 4.5, "coordinates": {"latitude": 33.6154449596308, "longitude": -86.6176494442013}, "transactions": ["delivery", "pickup"], "price": "$$", "location": {"address1": "445 Main St", "address2": "Ste 121", "address3": null, "city": "Trussville", "zip_code": "35173", "country": "US", "state": "AL", "display_address": ["445 Main St", "Ste 121", "Trussville, AL 35173"]}, "phone": "+12055371133", "display_phone": "(205) 537-1133", "distance": 21594.465593314162}, {"id": "nJkBLnv5w2Vp1pEwPq9eDg", "alias": "king-buffet-birmingham-3", "name": "King Buffet", "image_url": "https://s3-media1.fl.yelpcdn.com/bphoto/3YJUTr2uPpjbTz_Lh_bJ2g/o.jpg", "is_closed": false, "url": "https://www.yelp.com/biz/king-buffet-birmingham-3?adjust_creative=vyhy616UjsMTA_hrWyg_5w&utm_campaign=yelp_api_v3&utm_medium=api_v3_business_search&utm_source=vyhy616UjsMTA_hrWyg_5w", "review_count": 61, "categories": [{"alias": "sushi", "title": "Sushi Bars"}, {"alias": "seafood", "title": "Seafood"}, {"alias": "mongolian", "title": "Mongolian"}], "rating": 4.0, "coordinates": {"latitude": 33.530106, "longitude": -86.715746}, "transactions": ["delivery"], "location": {"address1": "7873 Crestwood Blvd", "address2": null, "address3": "", "city": "Birmingham", "zip_code": "35210", "country": "US", "state": "AL", "display_address": ["7873 Crestwood Blvd", "Birmingham, AL 35210"]}, "phone": "+12055027800", "display_phone": "(205) 502-7800", "distance": 8457.224015340978}, {"id": "esl4EvTrIzoVjf4QUXZVdw", "alias": "samurai-japan-vestavia-hills-2", "name": "Samurai Japan", "image_url": "https://s3-media1.fl.yelpcdn.com/bphoto/oSlK1RUM0NNdZwA83MkaMg/o.jpg", "is_closed": false, "url": "https://www.yelp.com/biz/samurai-japan-vestavia-hills-2?adjust_creative=vyhy616UjsMTA_hrWyg_5w&utm_campaign=yelp_api_v3&utm_medium=api_v3_business_search&utm_source=vyhy616UjsMTA_hrWyg_5w", "review_count": 123, "categories": [{"alias": "japanese", "title": "Japanese"}], "rating": 4.5, "coordinates": {"latitude": 33.445721, "longitude": -86.792314}, "transactions": ["delivery", "pickup"], "price": "$$", "location": {"address1": "700 Montgomery Hwy", "address2": "Ste178", "address3": "", "city": "Vestavia Hills", "zip_code": "35216", "country": "US", "state": "AL", "display_address": ["700 Montgomery Hwy", "Ste178", "Vestavia Hills, AL 35216"]}, "phone": "+12059787775", "display_phone": "(205) 978-7775", "distance": 3421.0326532399663}, {"id": "R5JfOAVuHzv5WkH6FpCKrg", "alias": "ikko-japanese-fusion-birmingham", "name": "IKKO Japanese Fusion", "image_url": "https://s3-media2.fl.yelpcdn.com/bphoto/eqVtgpYnqNRbyBF-wnlAUw/o.jpg", "is_closed": false, "url": "https://www.yelp.com/biz/ikko-japanese-fusion-birmingham?adjust_creative=vyhy616UjsMTA_hrWyg_5w&utm_campaign=yelp_api_v3&utm_medium=api_v3_business_search&utm_source=vyhy616UjsMTA_hrWyg_5w", "review_count": 148, "categories": [{"alias": "sushi", "title": "Sushi Bars"}, {"alias": "poke", "title": "Poke"}, {"alias": "ramen", "title": "Ramen"}], "rating": 3.5, "coordinates": {"latitude": 33.5000101075852, "longitude": -86.7974567504959}, "transactions": ["delivery", "pickup"], "price": "$$", "location": {"address1": "1909 11th Ave S", "address2": "", "address3": null, "city": "Birmingham", "zip_code": "35205", "country": "US", "state": "AL", "display_address": ["1909 11th Ave S", "Birmingham, AL 35205"]}, "phone": "+12052034833", "display_phone": "(205) 203-4833", "distance": 3476.7001304015007}, {"id": "5lbepr6rlF0PtsYy8KsiEQ", "alias": "okinawa-sushi-and-hibachi-steak-house-homewood", "name": "Okinawa Sushi & Hibachi Steak House", "image_url": "https://s3-media1.fl.yelpcdn.com/bphoto/Rms16ai5Wx0YxlLzpdX7iQ/o.jpg", "is_closed": false, "url": "https://www.yelp.com/biz/okinawa-sushi-and-hibachi-steak-house-homewood?adjust_creative=vyhy616UjsMTA_hrWyg_5w&utm_campaign=yelp_api_v3&utm_medium=api_v3_business_search&utm_source=vyhy616UjsMTA_hrWyg_5w", "review_count": 280, "categories": [{"alias": "sushi", "title": "Sushi Bars"}, {"alias": "japanese", "title": "Japanese"}, {"alias": "steak", "title": "Steakhouses"}], "rating": 4.5, "coordinates": {"latitude": 33.450255, "longitude": -86.825384}, "transactions": ["delivery", "pickup"], "price": "$$", "location": {"address1": "148 Wildwood Pkwy", "address2": "", "address3": "", "city": "Homewood", "zip_code": "35209", "country": "US", "state": "AL", "display_address": ["148 Wildwood Pkwy", "Homewood, AL 35209"]}, "phone": "+12059171111", "display_phone": "(205) 917-1111", "distance": 5197.7131081241}, {"id": "dnvwvraSLDgW-a-drrrnjg", "alias": "happy-wok-asian-cuisine-birmingham", "name": "Happy Wok Asian Cuisine", "image_url": "https://s3-media2.fl.yelpcdn.com/bphoto/5OK2PHU6aR9rAUthUWBk8A/o.jpg", "is_closed": false, "url": "https://www.yelp.com/biz/happy-wok-asian-cuisine-birmingham?adjust_creative=vyhy616UjsMTA_hrWyg_5w&utm_campaign=yelp_api_v3&utm_medium=api_v3_business_search&utm_source=vyhy616UjsMTA_hrWyg_5w", "review_count": 37, "categories": [{"alias": "chinese", "title": "Chinese"}, {"alias": "noodles", "title": "Noodles"}, {"alias": "asianfusion", "title": "Asian Fusion"}], "rating": 4.5, "coordinates": {"latitude": 33.596343, "longitude": -86.644437}, "transactions": ["delivery", "pickup"], "location": {"address1": "1423 Gadsden Hwy", "address2": "Ste 111", "address3": null, "city": "Birmingham", "zip_code": "35235", "country": "US", "state": "AL", "display_address": ["1423 Gadsden Hwy", "Ste 111", "Birmingham, AL 35235"]}, "phone": "+12055371188", "display_phone": "(205) 537-1188", "distance": 18351.703884332852}, {"id": "Njsyz70f3T3UfUmXk65avA", "alias": "china-bistro-vestavia-hills", "name": "China Bistro", "image_url": "https://s3-media1.fl.yelpcdn.com/bphoto/o13f_q_HkQl7aEx2iyhNcw/o.jpg", "is_closed": false, "url": "https://www.yelp.com/biz/china-bistro-vestavia-hills?adjust_creative=vyhy616UjsMTA_hrWyg_5w&utm_campaign=yelp_api_v3&utm_medium=api_v3_business_search&utm_source=vyhy616UjsMTA_hrWyg_5w", "review_count": 15, "categories": [{"alias": "chinese", "title": "Chinese"}], "rating": 4.0, "coordinates": {"latitude": 33.426276, "longitude": -86.773522}, "transactions": [], "price": "$", "location": {"address1": "3378 Morgan Dr", "address2": "", "address3": null, "city": "Vestavia Hills", "zip_code": "35216", "country": "US", "state": "AL", "display_address": ["3378 Morgan Dr", "Vestavia Hills, AL 35216"]}, "phone": "+12055822098", "display_phone": "(205) 582-2098", "distance": 5280.183375195542}, {"id": "VTaiXP6jQQEpAY5qJVHS9w", "alias": "abhi-mountain-brook-2", "name": "Abhi", "image_url": "https://s3-media2.fl.yelpcdn.com/bphoto/1XEY_ihBtu8xg5GSmyenUQ/o.jpg", "is_closed": false, "url": "https://www.yelp.com/biz/abhi-mountain-brook-2?adjust_creative=vyhy616UjsMTA_hrWyg_5w&utm_campaign=yelp_api_v3&utm_medium=api_v3_business_search&utm_source=vyhy616UjsMTA_hrWyg_5w", "review_count": 26, "categories": [{"alias": "sushi", "title": "Sushi Bars"}, {"alias": "japanese", "title": "Japanese"}], "rating": 4.5, "coordinates": {"latitude": 33.484096, "longitude": -86.773505}, "transactions": ["delivery"], "location": {"address1": "2721 Cahaba Rd", "address2": "", "address3": null, "city": "Mountain Brook", "zip_code": "35223", "country": "US", "state": "AL", "display_address": ["2721 Cahaba Rd", "Mountain Brook, AL 35223"]}, "phone": "+12057831123", "display_phone": "(205) 783-1123", "distance": 1201.9621605818372}, {"id": "8LLm-UDCs-qRX4-1_7yOJw", "alias": "yummy-bowl-birmingham-2", "name": "Yummy Bowl", "image_url": "https://s3-media4.fl.yelpcdn.com/bphoto/TzqNdFefJTfkgNrSC2ZU6w/o.jpg", "is_closed": false, "url": "https://www.yelp.com/biz/yummy-bowl-birmingham-2?adjust_creative=vyhy616UjsMTA_hrWyg_5w&utm_campaign=yelp_api_v3&utm_medium=api_v3_business_search&utm_source=vyhy616UjsMTA_hrWyg_5w", "review_count": 72, "categories": [{"alias": "sushi", "title": "Sushi Bars"}, {"alias": "mongolian", "title": "Mongolian"}], "rating": 4.5, "coordinates": {"latitude": 33.449419, "longitude": -86.8243439868093}, "transactions": ["delivery", "pickup"], "price": "$$", "location": {"address1": "109 Wildwood Pkwy", "address2": "", "address3": null, "city": "Birmingham", "zip_code": "35209", "country": "US", "state": "AL", "display_address": ["109 Wildwood Pkwy", "Birmingham, AL 35209"]}, "phone": "+12056373071", "display_phone": "(205) 637-3071", "distance": 5162.3878525848695}, {"id": "e74fw60fXoxTxj1fhuS9Yg", "alias": "pinto-thai-chelsea-2", "name": "Pinto Thai", "image_url": "https://s3-media1.fl.yelpcdn.com/bphoto/TjBK4H6SroF93Bl4LjPUIA/o.jpg", "is_closed": false, "url": "https://www.yelp.com/biz/pinto-thai-chelsea-2?adjust_creative=vyhy616UjsMTA_hrWyg_5w&utm_campaign=yelp_api_v3&utm_medium=api_v3_business_search&utm_source=vyhy616UjsMTA_hrWyg_5w", "review_count": 88, "categories": [{"alias": "thai", "title": "Thai"}, {"alias": "noodles", "title": "Noodles"}, {"alias": "vegan", "title": "Vegan"}], "rating": 4.0, "coordinates": {"latitude": 33.3483094, "longitude": -86.6326581}, "transactions": [], "price": "$$", "location": {"address1": "16712 Hwy 280", "address2": "Ste B", "address3": "", "city": "Chelsea", "zip_code": "35043", "country": "US", "state": "AL", "display_address": ["16712 Hwy 280", "Ste B", "Chelsea, AL 35043"]}, "phone": "+12056774207", "display_phone": "(205) 677-4207", "distance": 19344.26134059164}, {"id": "Z1uzNfg7lZqSfyYyS5DXug", "alias": "sushi-village-280-birmingham-2", "name": "Sushi Village 280", "image_url": "https://s3-media3.fl.yelpcdn.com/bphoto/v6zC15K3SdEfnJa5ZK5sUA/o.jpg", "is_closed": false, "url": "https://www.yelp.com/biz/sushi-village-280-birmingham-2?adjust_creative=vyhy616UjsMTA_hrWyg_5w&utm_campaign=yelp_api_v3&utm_medium=api_v3_business_search&utm_source=vyhy616UjsMTA_hrWyg_5w", "review_count": 112, "categories": [{"alias": "japanese", "title": "Japanese"}, {"alias": "sushi", "title": "Sushi Bars"}, {"alias": "asianfusion", "title": "Asian Fusion"}], "rating": 4.0, "coordinates": {"latitude": 33.4073993671405, "longitude": -86.6660972044159}, "transactions": ["delivery", "pickup"], "price": "$$", "location": {"address1": "601 Doug Baker Blvd", "address2": "Ste 101", "address3": "", "city": "Birmingham", "zip_code": "35242", "country": "US", "state": "AL", "display_address": ["601 Doug Baker Blvd", "Ste 101", "Birmingham, AL 35242"]}, "phone": "+12059681588", "display_phone": "(205) 968-1588", "distance": 12647.851919046812}, {"id": "2Q8JiOsUyyycls7R5S4w6A", "alias": "pho-sizzle-birmingham-2", "name": "Pho Sizzle", "image_url": "https://s3-media3.fl.yelpcdn.com/bphoto/-cnab9RnDAalo2kmFTSkXQ/o.jpg", "is_closed": false, "url": "https://www.yelp.com/biz/pho-sizzle-birmingham-2?adjust_creative=vyhy616UjsMTA_hrWyg_5w&utm_campaign=yelp_api_v3&utm_medium=api_v3_business_search&utm_source=vyhy616UjsMTA_hrWyg_5w", "review_count": 29, "categories": [{"alias": "vietnamese", "title": "Vietnamese"}, {"alias": "bubbletea", "title": "Bubble Tea"}, {"alias": "asianfusion", "title": "Asian Fusion"}], "rating": 4.0, "coordinates": {"latitude": 33.6452494, "longitude": -86.6271496}, "transactions": ["delivery"], "location": {"address1": "5880 Trussville Crossing Blvd", "address2": "Ste 100", "address3": null, "city": "Birmingham", "zip_code": "35235", "country": "US", "state": "AL", "display_address": ["5880 Trussville Crossing Blvd", "Ste 100", "Birmingham, AL 35235"]}, "phone": "+12056559500", "display_phone": "(205) 655-9500", "distance": 23536.809908132567}, {"id": "18YkvOeDHn5pbdEwPvzuzA", "alias": "ichiban-express-calera", "name": "Ichiban Express", "image_url": "https://s3-media1.fl.yelpcdn.com/bphoto/Ah3duMFggrC14_g3Onq0Pw/o.jpg", "is_closed": false, "url": "https://www.yelp.com/biz/ichiban-express-calera?adjust_creative=vyhy616UjsMTA_hrWyg_5w&utm_campaign=yelp_api_v3&utm_medium=api_v3_business_search&utm_source=vyhy616UjsMTA_hrWyg_5w", "review_count": 22, "categories": [{"alias": "sushi", "title": "Sushi Bars"}], "rating": 4.0, "coordinates": {"latitude": 33.155672, "longitude": -86.747275}, "transactions": ["delivery"], "location": {"address1": "160 Marketplace Cir", "address2": "Ste 103", "address3": null, "city": "Calera", "zip_code": "35040", "country": "US", "state": "AL", "display_address": ["160 Marketplace Cir", "Ste 103", "Calera, AL 35040"]}, "phone": "+12053197333", "display_phone": "(205) 319-7333", "distance": 35466.101056644984}, {"id": "ZG8LO9ngskDyu7s-sQOn5Q", "alias": "surin-west-birmingham", "name": "Surin West", "image_url": "https://s3-media2.fl.yelpcdn.com/bphoto/SgVf8r4i-Leqc5jQagDsiQ/o.jpg", "is_closed": false, "url": "https://www.yelp.com/biz/surin-west-birmingham?adjust_creative=vyhy616UjsMTA_hrWyg_5w&utm_campaign=yelp_api_v3&utm_medium=api_v3_business_search&utm_source=vyhy616UjsMTA_hrWyg_5w", "review_count": 256, "categories": [{"alias": "thai", "title": "Thai"}, {"alias": "sushi", "title": "Sushi Bars"}, {"alias": "soup", "title": "Soup"}], "rating": 3.5, "coordinates": {"latitude": 33.50043, "longitude": -86.796989}, "transactions": ["delivery", "pickup"], "price": "$$", "location": {"address1": "1918 11th Ave S", "address2": "", "address3": "", "city": "Birmingham", "zip_code": "35205", "country": "US", "state": "AL", "display_address": ["1918 11th Ave S", "Birmingham, AL 35205"]}, "phone": "+12053241928", "display_phone": "(205) 324-1928", "distance": 3511.8014420978457}, {"id": "O4etKbfob_kSjR_SpowugA", "alias": "hotbox-birmingham", "name": "Hotbox", "image_url": "https://s3-media3.fl.yelpcdn.com/bphoto/jRRBjWb528EpiSjVp5Bbew/o.jpg", "is_closed": false, "url": "https://www.yelp.com/biz/hotbox-birmingham?adjust_creative=vyhy616UjsMTA_hrWyg_5w&utm_campaign=yelp_api_v3&utm_medium=api_v3_business_search&utm_source=vyhy616UjsMTA_hrWyg_5w", "review_count": 109, "categories": [{"alias": "foodtrucks", "title": "Food Trucks"}, {"alias": "asianfusion", "title": "Asian Fusion"}], "rating": 4.0, "coordinates": {"latitude": 33.521925, "longitude": -86.773245}, "transactions": ["delivery"], "price": "$$", "location": {"address1": "4036 5th Ave S", "address2": null, "address3": "", "city": "Birmingham", "zip_code": "35222", "country": "US", "state": "AL", "display_address": ["4036 5th Ave S", "Birmingham, AL 35222"]}, "phone": "+12052245632", "display_phone": "(205) 224-5632", "distance": 5376.8323931830455}, {"id": "PQVHx_ge4cuLBUFSb8b8fQ", "alias": "surin-of-thailand-mountain-brook-mountain-brook", "name": "Surin of Thailand - Mountain Brook", "image_url": "https://s3-media2.fl.yelpcdn.com/bphoto/N-u6nyWw7qCgZe-otPcu2g/o.jpg", "is_closed": false, "url": "https://www.yelp.com/biz/surin-of-thailand-mountain-brook-mountain-brook?adjust_creative=vyhy616UjsMTA_hrWyg_5w&utm_campaign=yelp_api_v3&utm_medium=api_v3_business_search&utm_source=vyhy616UjsMTA_hrWyg_5w", "review_count": 53, "categories": [{"alias": "thai", "title": "Thai"}], "rating": 3.5, "coordinates": {"latitude": 33.502302, "longitude": -86.756069}, "transactions": ["delivery"], "price": "$$", "location": {"address1": "64 Church St", "address2": "", "address3": "", "city": "Mountain Brook", "zip_code": "35213", "country": "US", "state": "AL", "display_address": ["64 Church St", "Mountain Brook, AL 35213"]}, "phone": "+12058714531", "display_phone": "(205) 871-4531", "distance": 3723.741054692826}, {"id": "XZCsGXFcfC-FXvm1T1KtZw", "alias": "wasabi-juans-birmingham-4", "name": "Wasabi Juan's", "image_url": "https://s3-media2.fl.yelpcdn.com/bphoto/xnZNhEODFQVWZFtBtMwInA/o.jpg", "is_closed": false, "url": "https://www.yelp.com/biz/wasabi-juans-birmingham-4?adjust_creative=vyhy616UjsMTA_hrWyg_5w&utm_campaign=yelp_api_v3&utm_medium=api_v3_business_search&utm_source=vyhy616UjsMTA_hrWyg_5w", "review_count": 36, "categories": [{"alias": "sushi", "title": "Sushi Bars"}], "rating": 4.0, "coordinates": {"latitude": 33.4199863979846, "longitude": -86.6915961041661}, "transactions": ["delivery", "pickup"], "location": {"address1": "5037 US-280", "address2": "Ste 101", "address3": null, "city": "Birmingham", "zip_code": "35242", "country": "US", "state": "AL", "display_address": ["5037 US-280", "Ste 101", "Birmingham, AL 35242"]}, "phone": "+12057772714", "display_phone": "(205) 777-2714", "distance": 9911.93171211206}, {"id": "layc3LQgrRgFpuVw64zddg", "alias": "stix-fultondale", "name": "Stix", "image_url": "https://s3-media3.fl.yelpcdn.com/bphoto/aHTFnQWu8vB6U9dyFAMmtA/o.jpg", "is_closed": false, "url": "https://www.yelp.com/biz/stix-fultondale?adjust_creative=vyhy616UjsMTA_hrWyg_5w&utm_campaign=yelp_api_v3&utm_medium=api_v3_business_search&utm_source=vyhy616UjsMTA_hrWyg_5w", "review_count": 76, "categories": [{"alias": "sushi", "title": "Sushi Bars"}, {"alias": "asianfusion", "title": "Asian Fusion"}, {"alias": "japanese", "title": "Japanese"}], "rating": 3.0, "coordinates": {"latitude": 33.6035432307121, "longitude": -86.8066230343407}, "transactions": ["delivery"], "price": "$$", "location": {"address1": "3405 Lowery Pkwy", "address2": null, "address3": null, "city": "Fultondale", "zip_code": "35068", "country": "US", "state": "AL", "display_address": ["3405 Lowery Pkwy", "Fultondale, AL 35068"]}, "phone": "+12058499677", "display_phone": "(205) 849-9677", "distance": 14702.384108573779}, {"id": "BeWN6vmONV2Uq3HBNxqegA", "alias": "o-sushi-hoover", "name": "O Sushi", "image_url": "https://s3-media3.fl.yelpcdn.com/bphoto/3XdWduyAyBl4WhpgZTHbaQ/o.jpg", "is_closed": false, "url": "https://www.yelp.com/biz/o-sushi-hoover?adjust_creative=vyhy616UjsMTA_hrWyg_5w&utm_campaign=yelp_api_v3&utm_medium=api_v3_business_search&utm_source=vyhy616UjsMTA_hrWyg_5w", "review_count": 123, "categories": [{"alias": "sushi", "title": "Sushi Bars"}, {"alias": "ramen", "title": "Ramen"}, {"alias": "desserts", "title": "Desserts"}], "rating": 4.0, "coordinates": {"latitude": 33.3628910350398, "longitude": -86.8493843892212}, "transactions": ["delivery", "pickup"], "price": "$$", "location": {"address1": "5519 Grover Blvd", "address2": "Ste 101", "address3": "", "city": "Hoover", "zip_code": "35226", "country": "US", "state": "AL", "display_address": ["5519 Grover Blvd", "Ste 101", "Hoover, AL 35226"]}, "phone": "+12057333736", "display_phone": "(205) 733-3736", "distance": 14035.540270099802}, {"id": "6-AF5JrdmbIzbpXqfHOyYg", "alias": "jinsei-sushi-birmingham", "name": "Jinsei Sushi", "image_url": "https://s3-media1.fl.yelpcdn.com/bphoto/QQABfM1slEnKeNFXBEJbMg/o.jpg", "is_closed": false, "url": "https://www.yelp.com/biz/jinsei-sushi-birmingham?adjust_creative=vyhy616UjsMTA_hrWyg_5w&utm_campaign=yelp_api_v3&utm_medium=api_v3_business_search&utm_source=vyhy616UjsMTA_hrWyg_5w", "review_count": 147, "categories": [{"alias": "sushi", "title": "Sushi Bars"}, {"alias": "japanese", "title": "Japanese"}, {"alias": "cocktailbars", "title": "Cocktail Bars"}], "rating": 4.0, "coordinates": {"latitude": 33.479910507787, "longitude": -86.790048747274}, "transactions": ["delivery", "pickup"], "price": "$$$", "location": {"address1": "1830 29th St S", "address2": "Ste 125", "address3": "", "city": "Birmingham", "zip_code": "35209", "country": "US", "state": "AL", "display_address": ["1830 29th St S", "Ste 125", "Birmingham, AL 35209"]}, "phone": "+12058021440", "display_phone": "(205) 802-1440", "distance": 1404.5116296961774}, {"id": "tsO18HocTCjt4YXLRCqKQQ", "alias": "chop-suey-inn-birmingham-3", "name": "Chop Suey Inn", "image_url": "https://s3-media3.fl.yelpcdn.com/bphoto/2-aJTj5ti_q0MUlifJej7A/o.jpg", "is_closed": false, "url": "https://www.yelp.com/biz/chop-suey-inn-birmingham-3?adjust_creative=vyhy616UjsMTA_hrWyg_5w&utm_campaign=yelp_api_v3&utm_medium=api_v3_business_search&utm_source=vyhy616UjsMTA_hrWyg_5w", "review_count": 48, "categories": [{"alias": "chinese", "title": "Chinese"}], "rating": 4.0, "coordinates": {"latitude": 33.461597442627, "longitude": -86.8172149658203}, "transactions": ["delivery"], "price": "$", "location": {"address1": "813 Green Springs Hwy", "address2": "Ste F", "address3": "", "city": "Birmingham", "zip_code": "35209", "country": "US", "state": "AL", "display_address": ["813 Green Springs Hwy", "Ste F", "Birmingham, AL 35209"]}, "phone": "+12059429782", "display_phone": "(205) 942-9782", "distance": 4007.122514887603}, {"id": "5bd8Hu6AbnbmsNmhf0BaOg", "alias": "thirstea-cafe-birmingham-4", "name": "ThirsTea Cafe", "image_url": "https://s3-media3.fl.yelpcdn.com/bphoto/PP5BWits7DIZNV0lffVaQw/o.jpg", "is_closed": false, "url": "https://www.yelp.com/biz/thirstea-cafe-birmingham-4?adjust_creative=vyhy616UjsMTA_hrWyg_5w&utm_campaign=yelp_api_v3&utm_medium=api_v3_business_search&utm_source=vyhy616UjsMTA_hrWyg_5w", "review_count": 158, "categories": [{"alias": "bubbletea", "title": "Bubble Tea"}, {"alias": "coffee", "title": "Coffee & Tea"}, {"alias": "juicebars", "title": "Juice Bars & Smoothies"}], "rating": 4.5, "coordinates": {"latitude": 33.4194908, "longitude": -86.6963501}, "transactions": ["delivery", "pickup"], "price": "$", "location": {"address1": "170 Inverness Plz", "address2": "", "address3": "", "city": "Birmingham", "zip_code": "35242", "country": "US", "state": "AL", "display_address": ["170 Inverness Plz", "Birmingham, AL 35242"]}, "phone": "+12059957788", "display_phone": "(205) 995-7788", "distance": 9576.704212706612}, {"id": "h_uqEOspuh9uKwwUICcqiQ", "alias": "stix-restaurant-hoover", "name": "Stix Restaurant", "image_url": "https://s3-media3.fl.yelpcdn.com/bphoto/NMJapbIX2MDdnOQDiO2BIw/o.jpg", "is_closed": false, "url": "https://www.yelp.com/biz/stix-restaurant-hoover?adjust_creative=vyhy616UjsMTA_hrWyg_5w&utm_campaign=yelp_api_v3&utm_medium=api_v3_business_search&utm_source=vyhy616UjsMTA_hrWyg_5w", "review_count": 148, "categories": [{"alias": "chinese", "title": "Chinese"}, {"alias": "sushi", "title": "Sushi Bars"}, {"alias": "japanese", "title": "Japanese"}], "rating": 3.0, "coordinates": {"latitude": 33.3755226135254, "longitude": -86.8086090087891}, "transactions": ["delivery"], "price": "$$", "location": {"address1": "3250 Galleria Cir", "address2": "", "address3": "", "city": "Hoover", "zip_code": "35244", "country": "US", "state": "AL", "display_address": ["3250 Galleria Cir", "Hoover, AL 35244"]}, "phone": "+12059823070", "display_phone": "(205) 982-3070", "distance": 11308.272926005793}], "total": 127, "region": {"center": {"longitude": -86.77688598632812, "latitude": 33.473665348883976}}}