{"businesses": [{"id": "Y3aGrZR8QBlj8C2l7oEvDg", "alias": "the-vig-mccormick-scottsdale", "name": "The Vig McCormick", "image_url": "https://s3-media3.fl.yelpcdn.com/bphoto/tt5wH56f5mN22xvTYMpJvA/o.jpg", "is_closed": false, "url": "https://www.yelp.com/biz/the-vig-mccormick-scottsdale?adjust_creative=vyhy616UjsMTA_hrWyg_5w&utm_campaign=yelp_api_v3&utm_medium=api_v3_business_search&utm_source=vyhy616UjsMTA_hrWyg_5w", "review_count": 489, "categories": [{"alias": "newamerican", "title": "American (New)"}, {"alias": "tradamerican", "title": "American (Traditional)"}, {"alias": "breakfast_brunch", "title": "Breakfast & Brunch"}], "rating": 4.0, "coordinates": {"latitude": 33.5433146, "longitude": -111.906081}, "transactions": ["delivery"], "price": "$$", "location": {"address1": "7345 N Via Paseo Del Sur", "address2": "", "address3": "", "city": "Scottsdale", "zip_code": "85258", "country": "US", "state": "AZ", "display_address": ["7345 N Via Paseo Del Sur", "Scottsdale, AZ 85258"]}, "phone": "+14807585399", "display_phone": "(480) 758-5399", "distance": 18775.708178607183}, {"id": "UwIsqUFQBDMNofkTrAP_pw", "alias": "chennai-fusion-grill-chandler-2", "name": "Chennai Fusion Grill", "image_url": "https://s3-media3.fl.yelpcdn.com/bphoto/eAud1pgGe_qIy_U77O1xsg/o.jpg", "is_closed": false, "url": "https://www.yelp.com/biz/chennai-fusion-grill-chandler-2?adjust_creative=vyhy616UjsMTA_hrWyg_5w&utm_campaign=yelp_api_v3&utm_medium=api_v3_business_search&utm_source=vyhy616UjsMTA_hrWyg_5w", "review_count": 196, "categories": [{"alias": "indpak", "title": "Indian"}, {"alias": "buffets", "title": "Buffets"}], "rating": 4.0, "coordinates": {"latitude": 33.304722, "longitude": -111.927087}, "transactions": ["pickup", "delivery"], "price": "$$", "location": {"address1": "4929 W Chandler Blvd", "address2": "Ste 1", "address3": "", "city": "Chandler", "zip_code": "85226", "country": "US", "state": "AZ", "display_address": ["4929 W Chandler Blvd", "Ste 1", "Chandler, AZ 85226"]}, "phone": "+14807055444", "display_phone": "(480) 705-5444", "distance": 20491.98511351506}, {"id": "wFEZPY0JjUIJ8tNWx62vmg", "alias": "nakama-sushi-restaurant-and-lounge-goodyear", "name": "Nakama Sushi Restaurant & Lounge", "image_url": "https://s3-media1.fl.yelpcdn.com/bphoto/mr0NX2FzktXq89b78ZaiDA/o.jpg", "is_closed": false, "url": "https://www.yelp.com/biz/nakama-sushi-restaurant-and-lounge-goodyear?adjust_creative=vyhy616UjsMTA_hrWyg_5w&utm_campaign=yelp_api_v3&utm_medium=api_v3_business_search&utm_source=vyhy616UjsMTA_hrWyg_5w", "review_count": 286, "categories": [{"alias": "sushi", "title": "Sushi Bars"}, {"alias": "lounges", "title": "Lounges"}, {"alias": "japanese", "title": "Japanese"}], "rating": 3.5, "coordinates": {"latitude": 33.463185, "longitude": -112.343663}, "transactions": ["delivery"], "price": "$$", "location": {"address1": "13215 W Mcdowell Rd", "address2": "", "address3": "", "city": "Goodyear", "zip_code": "85395", "country": "US", "state": "AZ", "display_address": ["13215 W Mcdowell Rd", "Goodyear, AZ 85395"]}, "phone": "+16239357676", "display_phone": "(623) 935-7676", "distance": 25453.91008778383}, {"id": "dY-WnRDfUg8jHEZLzGSNXg", "alias": "saigon-boyz-sandwich-gilbert", "name": "Saigon Boyz Sandwich", "image_url": "https://s3-media2.fl.yelpcdn.com/bphoto/j1NV2tNPgiFz7KEeW49DeQ/o.jpg", "is_closed": false, "url": "https://www.yelp.com/biz/saigon-boyz-sandwich-gilbert?adjust_creative=vyhy616UjsMTA_hrWyg_5w&utm_campaign=yelp_api_v3&utm_medium=api_v3_business_search&utm_source=vyhy616UjsMTA_hrWyg_5w", "review_count": 20, "categories": [{"alias": "vietnamese", "title": "Vietnamese"}, {"alias": "sandwiches", "title": "Sandwiches"}], "rating": 2.5, "coordinates": {"latitude": 33.36533, "longitude": -111.7896451}, "transactions": ["pickup", "delivery"], "location": {"address1": "835 N Gilbert Rd", "address2": "Ste 107-2", "address3": "", "city": "Gilbert", "zip_code": "85234", "country": "US", "state": "AZ", "display_address": ["835 N Gilbert Rd", "Ste 107-2", "Gilbert, AZ 85234"]}, "phone": "+14806683300", "display_phone": "(480) 668-3300", "distance": 27629.498823642723}, {"id": "XVS-zdj4Z6TihagZcZZ7pQ", "alias": "mikado-sushi-chandler", "name": "Mikado Sushi", "image_url": "https://s3-media4.fl.yelpcdn.com/bphoto/dWtWfS-FPCOio_o05d0umQ/o.jpg", "is_closed": false, "url": "https://www.yelp.com/biz/mikado-sushi-chandler?adjust_creative=vyhy616UjsMTA_hrWyg_5w&utm_campaign=yelp_api_v3&utm_medium=api_v3_business_search&utm_source=vyhy616UjsMTA_hrWyg_5w", "review_count": 240, "categories": [{"alias": "sushi", "title": "Sushi Bars"}, {"alias": "japanese", "title": "Japanese"}], "rating": 3.5, "coordinates": {"latitude": 33.2612161790798, "longitude": -111.856960359525}, "transactions": ["delivery"], "price": "$$", "location": {"address1": "3125 S Alma School Rd", "address2": "", "address3": "", "city": "Chandler", "zip_code": "85248", "country": "US", "state": "AZ", "display_address": ["3125 S Alma School Rd", "Chandler, AZ 85248"]}, "phone": "+14807260255", "display_phone": "(480) 726-0255", "distance": 28457.86328611056}, {"id": "6vNMmkttsHkW1THWiP50xg", "alias": "thai-basil-chandler-chandler", "name": "Thai Basil Chandler", "image_url": "https://s3-media4.fl.yelpcdn.com/bphoto/Z5iQIi8_lxhVgfc3ORUaAg/o.jpg", "is_closed": false, "url": "https://www.yelp.com/biz/thai-basil-chandler-chandler?adjust_creative=vyhy616UjsMTA_hrWyg_5w&utm_campaign=yelp_api_v3&utm_medium=api_v3_business_search&utm_source=vyhy616UjsMTA_hrWyg_5w", "review_count": 134, "categories": [{"alias": "thai", "title": "Thai"}], "rating": 3.5, "coordinates": {"latitude": 33.30486, "longitude": -111.92706}, "transactions": ["pickup", "delivery"], "price": "$", "location": {"address1": "4929 W Chandler Blvd", "address2": "Ste 8", "address3": "", "city": "Chandler", "zip_code": "85226", "country": "US", "state": "AZ", "display_address": ["4929 W Chandler Blvd", "Ste 8", "Chandler, AZ 85226"]}, "phone": "+14807059061", "display_phone": "(480) 705-9061", "distance": 20491.98511351506}, {"id": "bTeQdYmrk55Pa0m-EsBP6w", "alias": "the-social-on-83rd-peoria", "name": "The Social On 83rd", "image_url": "https://s3-media2.fl.yelpcdn.com/bphoto/a2uPmOjnq_sJdtTcjkIEWw/o.jpg", "is_closed": false, "url": "https://www.yelp.com/biz/the-social-on-83rd-peoria?adjust_creative=vyhy616UjsMTA_hrWyg_5w&utm_campaign=yelp_api_v3&utm_medium=api_v3_business_search&utm_source=vyhy616UjsMTA_hrWyg_5w", "review_count": 324, "categories": [{"alias": "breakfast_brunch", "title": "Breakfast & Brunch"}, {"alias": "bars", "title": "Bars"}], "rating": 4.0, "coordinates": {"latitude": 33.63547627, "longitude": -112.23485397}, "transactions": ["delivery"], "price": "$$", "location": {"address1": "8350 W Paradise Ln", "address2": "", "address3": null, "city": "Peoria", "zip_code": "85382", "country": "US", "state": "AZ", "display_address": ["8350 W Paradise Ln", "Peoria, AZ 85382"]}, "phone": "+16234864343", "display_phone": "(623) 486-4343", "distance": 26105.003678297864}, {"id": "ghl3MaH8BsOx9rNejtz1Ig", "alias": "pk-shabu-and-grill-mesa-2", "name": "PK Shabu & Grill", "image_url": "https://s3-media1.fl.yelpcdn.com/bphoto/JoaSWZTGJeD6mkGyrRj3xQ/o.jpg", "is_closed": false, "url": "https://www.yelp.com/biz/pk-shabu-and-grill-mesa-2?adjust_creative=vyhy616UjsMTA_hrWyg_5w&utm_campaign=yelp_api_v3&utm_medium=api_v3_business_search&utm_source=vyhy616UjsMTA_hrWyg_5w", "review_count": 47, "categories": [{"alias": "hotpot", "title": "Hot Pot"}, {"alias": "seafood", "title": "Seafood"}, {"alias": "noodles", "title": "Noodles"}], "rating": 4.5, "coordinates": {"latitude": 33.408182, "longitude": -111.87129}, "transactions": [], "price": "$$", "location": {"address1": "1832 W Broadway Rd", "address2": "Ste 108", "address3": null, "city": "Mesa", "zip_code": "85202", "country": "US", "state": "AZ", "display_address": ["1832 W Broadway Rd", "Ste 108", "Mesa, AZ 85202"]}, "phone": "+14805902447", "display_phone": "(480) 590-2447", "distance": 18904.504064879096}, {"id": "zDbRhfmrhXdXy1o8uKTrAg", "alias": "pei-wei-scottsdale-5", "name": "Pei Wei", "image_url": "https://s3-media2.fl.yelpcdn.com/bphoto/uNmPD_m-6tNGVgJ5tRuF_g/o.jpg", "is_closed": false, "url": "https://www.yelp.com/biz/pei-wei-scottsdale-5?adjust_creative=vyhy616UjsMTA_hrWyg_5w&utm_campaign=yelp_api_v3&utm_medium=api_v3_business_search&utm_source=vyhy616UjsMTA_hrWyg_5w", "review_count": 134, "categories": [{"alias": "asianfusion", "title": "Asian Fusion"}, {"alias": "chinese", "title": "Chinese"}, {"alias": "gluten_free", "title": "Gluten-Free"}], "rating": 2.0, "coordinates": {"latitude": 33.7810052076883, "longitude": -111.924018867086}, "transactions": [], "price": "$", "location": {"address1": "32607 N Scottsdale Rd", "address2": "Ste 107", "address3": "", "city": "Scottsdale", "zip_code": "85266", "country": "US", "state": "AZ", "display_address": ["32607 N Scottsdale Rd", "Ste 107", "Scottsdale, AZ 85266"]}, "phone": "+14804888630", "display_phone": "(480) 488-8630", "distance": 39735.04001921636}, {"id": "ZmLYXTXXrrIA9qMx8rVsTA", "alias": "yogis-grill-teriyaki-and-roll-scottsdale-2", "name": "Yogis Grill Teriyaki & Roll", "image_url": "https://s3-media2.fl.yelpcdn.com/bphoto/HTFTW9cLY8x4kVMGau9GIA/o.jpg", "is_closed": false, "url": "https://www.yelp.com/biz/yogis-grill-teriyaki-and-roll-scottsdale-2?adjust_creative=vyhy616UjsMTA_hrWyg_5w&utm_campaign=yelp_api_v3&utm_medium=api_v3_business_search&utm_source=vyhy616UjsMTA_hrWyg_5w", "review_count": 94, "categories": [{"alias": "japanese", "title": "Japanese"}, {"alias": "sushi", "title": "Sushi Bars"}], "rating": 3.0, "coordinates": {"latitude": 33.582515301168, "longitude": -111.924432373017}, "transactions": ["pickup", "delivery"], "price": "$", "location": {"address1": "10629 N Scottsdale Rd", "address2": "Ste 105", "address3": "", "city": "Scottsdale", "zip_code": "85254", "country": "US", "state": "AZ", "display_address": ["10629 N Scottsdale Rd", "Ste 105", "Scottsdale, AZ 85254"]}, "phone": "+14808901200", "display_phone": "(480) 890-1200", "distance": 20402.534783300678}, {"id": "Edq3REDbBfss0WQu2Ta93w", "alias": "caf\u00e9-zupas-phoenix-6", "name": "Caf\u00e9 Zupas", "image_url": "https://s3-media3.fl.yelpcdn.com/bphoto/uA8YkXYX-n1ZpaA-K4L5YA/o.jpg", "is_closed": false, "url": "https://www.yelp.com/biz/caf%C3%A9-zupas-phoenix-6?adjust_creative=vyhy616UjsMTA_hrWyg_5w&utm_campaign=yelp_api_v3&utm_medium=api_v3_business_search&utm_source=vyhy616UjsMTA_hrWyg_5w", "review_count": 166, "categories": [{"alias": "salad", "title": "Salad"}, {"alias": "soup", "title": "Soup"}, {"alias": "sandwiches", "title": "Sandwiches"}], "rating": 3.0, "coordinates": {"latitude": 33.7130949, "longitude": -112.1120215}, "transactions": ["pickup", "delivery"], "price": "$", "location": {"address1": "2510 W Happy Valley Rd", "address2": null, "address3": "", "city": "Phoenix", "zip_code": "85085", "country": "US", "state": "AZ", "display_address": ["2510 W Happy Valley Rd", "Phoenix, AZ 85085"]}, "phone": "+14804479375", "display_phone": "(480) 447-9375", "distance": 30300.40775114534}, {"id": "NSmoI-d_rMZXp0UCM1vdog", "alias": "mylynn-cafe-mesa", "name": "Mylynn Cafe", "image_url": "https://s3-media4.fl.yelpcdn.com/bphoto/bzAVHMDPo5dFPhdWV05FkA/o.jpg", "is_closed": false, "url": "https://www.yelp.com/biz/mylynn-cafe-mesa?adjust_creative=vyhy616UjsMTA_hrWyg_5w&utm_campaign=yelp_api_v3&utm_medium=api_v3_business_search&utm_source=vyhy616UjsMTA_hrWyg_5w", "review_count": 5, "categories": [{"alias": "vietnamese", "title": "Vietnamese"}], "rating": 3.0, "coordinates": {"latitude": 33.413158416748, "longitude": -111.875778198242}, "transactions": [], "price": "$", "location": {"address1": "66 S Dobson Rd", "address2": "Ste -106", "address3": "", "city": "Mesa", "zip_code": "85202", "country": "US", "state": "AZ", "display_address": ["66 S Dobson Rd", "Ste -106", "Mesa, AZ 85202"]}, "phone": "+14808440808", "display_phone": "(480) 844-0808", "distance": 18365.841018780393}, {"id": "-PABBD9nMgAYZHSShqGsjg", "alias": "bomboba-peoria", "name": "Bomboba", "image_url": "https://s3-media2.fl.yelpcdn.com/bphoto/Q99qPlo_QJCdX_BTPRUjGQ/o.jpg", "is_closed": false, "url": "https://www.yelp.com/biz/bomboba-peoria?adjust_creative=vyhy616UjsMTA_hrWyg_5w&utm_campaign=yelp_api_v3&utm_medium=api_v3_business_search&utm_source=vyhy616UjsMTA_hrWyg_5w", "review_count": 313, "categories": [{"alias": "bubbletea", "title": "Bubble Tea"}, {"alias": "juicebars", "title": "Juice Bars & Smoothies"}, {"alias": "icecream", "title": "Ice Cream & Frozen Yogurt"}], "rating": 3.5, "coordinates": {"latitude": 33.594428, "longitude": -112.220875}, "transactions": ["delivery"], "price": "$$", "location": {"address1": "7521 W Cactus Rd", "address2": "Ste 101", "address3": "", "city": "Peoria", "zip_code": "85345", "country": "US", "state": "AZ", "display_address": ["7521 W Cactus Rd", "Ste 101", "Peoria, AZ 85345"]}, "phone": "+16234877788", "display_phone": "(623) 487-7788", "distance": 21707.188872039613}, {"id": "j9bWpCRwpDVfwVT_V85qeA", "alias": "papaya-thai-mesa", "name": "Papaya Thai", "image_url": "https://s3-media2.fl.yelpcdn.com/bphoto/nimw9mnrJPgBY1rYByjrUg/o.jpg", "is_closed": false, "url": "https://www.yelp.com/biz/papaya-thai-mesa?adjust_creative=vyhy616UjsMTA_hrWyg_5w&utm_campaign=yelp_api_v3&utm_medium=api_v3_business_search&utm_source=vyhy616UjsMTA_hrWyg_5w", "review_count": 139, "categories": [{"alias": "thai", "title": "Thai"}], "rating": 2.5, "coordinates": {"latitude": 33.4228149, "longitude": -111.7728896}, "transactions": ["pickup", "delivery"], "price": "$", "location": {"address1": "2706 E University Dr", "address2": "", "address3": "", "city": "Mesa", "zip_code": "85213", "country": "US", "state": "AZ", "display_address": ["2706 E University Dr", "Mesa, AZ 85213"]}, "phone": "+14809643171", "display_phone": "(480) 964-3171", "distance": 27686.56450696555}, {"id": "lkjgZcgbpbYR_mXoGXWmQw", "alias": "ra-sushi-bar-restaurant-mesa", "name": "RA Sushi Bar Restaurant", "image_url": "https://s3-media1.fl.yelpcdn.com/bphoto/8x9XoNsosyWQ8hKQrFqLZQ/o.jpg", "is_closed": false, "url": "https://www.yelp.com/biz/ra-sushi-bar-restaurant-mesa?adjust_creative=vyhy616UjsMTA_hrWyg_5w&utm_campaign=yelp_api_v3&utm_medium=api_v3_business_search&utm_source=vyhy616UjsMTA_hrWyg_5w", "review_count": 378, "categories": [{"alias": "japanese", "title": "Japanese"}, {"alias": "sushi", "title": "Sushi Bars"}], "rating": 3.5, "coordinates": {"latitude": 33.38533, "longitude": -111.754825}, "transactions": ["pickup", "delivery"], "price": "$$", "location": {"address1": "1652 S Val Vista Dr", "address2": "Ste 101", "address3": "", "city": "Mesa", "zip_code": "85204", "country": "US", "state": "AZ", "display_address": ["1652 S Val Vista Dr", "Ste 101", "Mesa, AZ 85204"]}, "phone": "+14806329500", "display_phone": "(480) 632-9500", "distance": 30010.864538242404}, {"id": "f64wkzPLEjXIbTJ9eGS6XA", "alias": "caf\u00e9-zupas-phoenix-7", "name": "Caf\u00e9 Zupas", "image_url": "https://s3-media4.fl.yelpcdn.com/bphoto/Y1E3LEatDTOzOss-Qb8jTQ/o.jpg", "is_closed": false, "url": "https://www.yelp.com/biz/caf%C3%A9-zupas-phoenix-7?adjust_creative=vyhy616UjsMTA_hrWyg_5w&utm_campaign=yelp_api_v3&utm_medium=api_v3_business_search&utm_source=vyhy616UjsMTA_hrWyg_5w", "review_count": 220, "categories": [{"alias": "soup", "title": "Soup"}, {"alias": "sandwiches", "title": "Sandwiches"}, {"alias": "salad", "title": "Salad"}], "rating": 3.0, "coordinates": {"latitude": 33.6755087129451, "longitude": -111.971540053085}, "transactions": ["pickup", "delivery"], "price": "$", "location": {"address1": "21001 N Tatum Blvd", "address2": "Ste 34-110", "address3": "", "city": "Phoenix", "zip_code": "85050", "country": "US", "state": "AZ", "display_address": ["21001 N Tatum Blvd", "Ste 34-110", "Phoenix, AZ 85050"]}, "phone": "+14803398038", "display_phone": "(480) 339-8038", "distance": 27209.196564401886}, {"id": "u6biYZCSOwyQ-WmXqQbbQA", "alias": "southern-rail-phoenix-3", "name": "Southern Rail", "image_url": "https://s3-media3.fl.yelpcdn.com/bphoto/SVhDuyXfrgYef9qhZOyh7w/o.jpg", "is_closed": false, "url": "https://www.yelp.com/biz/southern-rail-phoenix-3?adjust_creative=vyhy616UjsMTA_hrWyg_5w&utm_campaign=yelp_api_v3&utm_medium=api_v3_business_search&utm_source=vyhy616UjsMTA_hrWyg_5w", "review_count": 638, "categories": [{"alias": "southern", "title": "Southern"}, {"alias": "tradamerican", "title": "American (Traditional)"}, {"alias": "breakfast_brunch", "title": "Breakfast & Brunch"}], "rating": 3.5, "coordinates": {"latitude": 33.509547, "longitude": -112.078698}, "transactions": ["delivery"], "price": "$$", "location": {"address1": "300 W Camelback Rd", "address2": "", "address3": "", "city": "Phoenix", "zip_code": "85013", "country": "US", "state": "AZ", "display_address": ["300 W Camelback Rd", "Phoenix, AZ 85013"]}, "phone": "+16022000085", "display_phone": "(602) 200-0085", "distance": 7218.320085222945}, {"id": "tVVZcFFt3ZlWVE7nptN3EQ", "alias": "hot-wok-tempe-tempe", "name": "Hot Wok Tempe", "image_url": "https://s3-media4.fl.yelpcdn.com/bphoto/MAh0KKNQm7Po1V0Seof3TQ/o.jpg", "is_closed": false, "url": "https://www.yelp.com/biz/hot-wok-tempe-tempe?adjust_creative=vyhy616UjsMTA_hrWyg_5w&utm_campaign=yelp_api_v3&utm_medium=api_v3_business_search&utm_source=vyhy616UjsMTA_hrWyg_5w", "review_count": 96, "categories": [{"alias": "chinese", "title": "Chinese"}], "rating": 3.5, "coordinates": {"latitude": 33.3329097175214, "longitude": -111.947666237512}, "transactions": ["pickup", "delivery"], "price": "$", "location": {"address1": "655 W Warner Rd", "address2": "Ste 117", "address3": "", "city": "Tempe", "zip_code": "85284", "country": "US", "state": "AZ", "display_address": ["655 W Warner Rd", "Ste 117", "Tempe, AZ 85284"]}, "phone": "+14805929328", "display_phone": "(480) 592-9328", "distance": 16874.46251103018}, {"id": "EvgbRimNf0KLe6AsBlqsDQ", "alias": "caf\u00e9-zupas-avondale-3", "name": "Caf\u00e9 Zupas", "image_url": "https://s3-media3.fl.yelpcdn.com/bphoto/doMsPRP4C-CgWj5e-XcFKA/o.jpg", "is_closed": false, "url": "https://www.yelp.com/biz/caf%C3%A9-zupas-avondale-3?adjust_creative=vyhy616UjsMTA_hrWyg_5w&utm_campaign=yelp_api_v3&utm_medium=api_v3_business_search&utm_source=vyhy616UjsMTA_hrWyg_5w", "review_count": 163, "categories": [{"alias": "salad", "title": "Salad"}, {"alias": "soup", "title": "Soup"}, {"alias": "sandwiches", "title": "Sandwiches"}], "rating": 3.5, "coordinates": {"latitude": 33.464232, "longitude": -112.279894}, "transactions": ["pickup", "delivery"], "price": "$", "location": {"address1": "10265 W McDowell Rd", "address2": "", "address3": null, "city": "Avondale", "zip_code": "85392", "country": "US", "state": "AZ", "display_address": ["10265 W McDowell Rd", "Avondale, AZ 85392"]}, "phone": "+16236963894", "display_phone": "(623) 696-3894", "distance": 19574.405844596033}, {"id": "zrDi4gEaUi64lAMfJU51dw", "alias": "houstons-restaurant-scottsdale", "name": "Houston's Restaurant", "image_url": "https://s3-media2.fl.yelpcdn.com/bphoto/lQk-fmf4zrCIsY4cxBwDKA/o.jpg", "is_closed": false, "url": "https://www.yelp.com/biz/houstons-restaurant-scottsdale?adjust_creative=vyhy616UjsMTA_hrWyg_5w&utm_campaign=yelp_api_v3&utm_medium=api_v3_business_search&utm_source=vyhy616UjsMTA_hrWyg_5w", "review_count": 767, "categories": [{"alias": "newamerican", "title": "American (New)"}, {"alias": "steak", "title": "Steakhouses"}, {"alias": "tradamerican", "title": "American (Traditional)"}], "rating": 4.0, "coordinates": {"latitude": 33.5261327773333, "longitude": -111.925718933344}, "transactions": [], "price": "$$$", "location": {"address1": "6113 N Scottsdale Rd", "address2": "", "address3": "", "city": "Scottsdale", "zip_code": "85250", "country": "US", "state": "AZ", "display_address": ["6113 N Scottsdale Rd", "Scottsdale, AZ 85250"]}, "phone": "+14809227775", "display_phone": "(480) 922-7775", "distance": 16172.214830534835}, {"id": "pdWnWH3SnjTTkRZx0y2wSw", "alias": "new-china-buffet-phoenix", "name": "New China Buffet", "image_url": "https://s3-media1.fl.yelpcdn.com/bphoto/G79VrThmvYHMLp6SPgnO6g/o.jpg", "is_closed": false, "url": "https://www.yelp.com/biz/new-china-buffet-phoenix?adjust_creative=vyhy616UjsMTA_hrWyg_5w&utm_campaign=yelp_api_v3&utm_medium=api_v3_business_search&utm_source=vyhy616UjsMTA_hrWyg_5w", "review_count": 14, "categories": [{"alias": "chinese", "title": "Chinese"}, {"alias": "buffets", "title": "Buffets"}], "rating": 2.5, "coordinates": {"latitude": 33.4818496704102, "longitude": -112.02986907959}, "transactions": ["delivery"], "price": "$", "location": {"address1": "2939 N 24th St", "address2": "", "address3": "", "city": "Phoenix", "zip_code": "85016", "country": "US", "state": "AZ", "display_address": ["2939 N 24th St", "Phoenix, AZ 85016"]}, "phone": "+16026677878", "display_phone": "(602) 667-7878", "distance": 5545.896479473274}, {"id": "I3STZd5iAvUL9MNLF_DUug", "alias": "blanco-tacos-tequila-phoenix-2", "name": "Blanco Tacos + Tequila", "image_url": "https://s3-media1.fl.yelpcdn.com/bphoto/6ZPmmUAphFJrNKQFJQIyQg/o.jpg", "is_closed": false, "url": "https://www.yelp.com/biz/blanco-tacos-tequila-phoenix-2?adjust_creative=vyhy616UjsMTA_hrWyg_5w&utm_campaign=yelp_api_v3&utm_medium=api_v3_business_search&utm_source=vyhy616UjsMTA_hrWyg_5w", "review_count": 556, "categories": [{"alias": "mexican", "title": "Mexican"}], "rating": 3.5, "coordinates": {"latitude": 33.4370684152527, "longitude": -111.999121635027}, "transactions": [], "price": "$$", "location": {"address1": "3400 E Sky Harbor Blvd", "address2": "Terminal 4", "address3": "", "city": "Phoenix", "zip_code": "85034", "country": "US", "state": "AZ", "display_address": ["3400 E Sky Harbor Blvd", "Terminal 4", "Phoenix, AZ 85034"]}, "phone": "", "display_phone": "", "distance": 6650.498609426209}, {"id": "SqL19z7A7LB91RkWWwWvnQ", "alias": "yucca-tap-room-tempe", "name": "Yucca Tap Room", "image_url": "https://s3-media2.fl.yelpcdn.com/bphoto/FoU5jRkULjVoyGlkl9raRA/o.jpg", "is_closed": false, "url": "https://www.yelp.com/biz/yucca-tap-room-tempe?adjust_creative=vyhy616UjsMTA_hrWyg_5w&utm_campaign=yelp_api_v3&utm_medium=api_v3_business_search&utm_source=vyhy616UjsMTA_hrWyg_5w", "review_count": 249, "categories": [{"alias": "musicvenues", "title": "Music Venues"}, {"alias": "divebars", "title": "Dive Bars"}, {"alias": "asianfusion", "title": "Asian Fusion"}], "rating": 4.0, "coordinates": {"latitude": 33.39265262, "longitude": -111.94053755}, "transactions": ["delivery"], "price": "$$", "location": {"address1": "29 W Southern Ave", "address2": "", "address3": "", "city": "Tempe", "zip_code": "85282", "country": "US", "state": "AZ", "display_address": ["29 W Southern Ave", "Tempe, AZ 85282"]}, "phone": "+14809674777", "display_phone": "(480) 967-4777", "distance": 13365.612778926728}, {"id": "fGrE4Om-cTh_JgQC42qx9A", "alias": "panda-express-phoenix-12", "name": "Panda Express", "image_url": "https://s3-media3.fl.yelpcdn.com/bphoto/X-M0S1JJ5GiKsBO6_WkK8g/o.jpg", "is_closed": false, "url": "https://www.yelp.com/biz/panda-express-phoenix-12?adjust_creative=vyhy616UjsMTA_hrWyg_5w&utm_campaign=yelp_api_v3&utm_medium=api_v3_business_search&utm_source=vyhy616UjsMTA_hrWyg_5w", "review_count": 100, "categories": [{"alias": "chinese", "title": "Chinese"}, {"alias": "hotdogs", "title": "Fast Food"}], "rating": 2.0, "coordinates": {"latitude": 33.4045551, "longitude": -111.9784349}, "transactions": ["pickup", "delivery"], "price": "$", "location": {"address1": "4750 S 48th St", "address2": "Ste 121", "address3": "", "city": "Phoenix", "zip_code": "85040", "country": "US", "state": "AZ", "display_address": ["4750 S 48th St", "Ste 121", "Phoenix, AZ 85040"]}, "phone": "+16024371616", "display_phone": "(602) 437-1616", "distance": 9610.402475864004}, {"id": "YpnvKqeVD7dqZ9Mr0SGw6A", "alias": "pei-wei-scottsdale-4", "name": "Pei Wei", "image_url": "https://s3-media2.fl.yelpcdn.com/bphoto/43To0cw4_oWFRYVZLLfJVQ/o.jpg", "is_closed": false, "url": "https://www.yelp.com/biz/pei-wei-scottsdale-4?adjust_creative=vyhy616UjsMTA_hrWyg_5w&utm_campaign=yelp_api_v3&utm_medium=api_v3_business_search&utm_source=vyhy616UjsMTA_hrWyg_5w", "review_count": 241, "categories": [{"alias": "chinese", "title": "Chinese"}, {"alias": "asianfusion", "title": "Asian Fusion"}, {"alias": "gluten_free", "title": "Gluten-Free"}], "rating": 2.5, "coordinates": {"latitude": 33.6184249, "longitude": -111.8929837}, "transactions": ["pickup", "delivery"], "price": "$", "location": {"address1": "8700 E Raintree Dr", "address2": "", "address3": "", "city": "Scottsdale", "zip_code": "85260", "country": "US", "state": "AZ", "display_address": ["8700 E Raintree Dr", "Scottsdale, AZ 85260"]}, "phone": "+14803089898", "display_phone": "(480) 308-9898", "distance": 25335.731123306872}, {"id": "02d6s2cnDKLllR4f3ykPug", "alias": "yogis-grill-mesa", "name": "Yogis Grill", "image_url": "https://s3-media2.fl.yelpcdn.com/bphoto/yNEMsBHnAgWTaBUuAVtGkA/o.jpg", "is_closed": false, "url": "https://www.yelp.com/biz/yogis-grill-mesa?adjust_creative=vyhy616UjsMTA_hrWyg_5w&utm_campaign=yelp_api_v3&utm_medium=api_v3_business_search&utm_source=vyhy616UjsMTA_hrWyg_5w", "review_count": 87, "categories": [{"alias": "japanese", "title": "Japanese"}], "rating": 3.0, "coordinates": {"latitude": 33.433887340996, "longitude": -111.868131905794}, "transactions": ["pickup", "delivery"], "price": "$$", "location": {"address1": "929 N Dobson Rd", "address2": "Ste 102", "address3": "", "city": "Mesa", "zip_code": "85201", "country": "US", "state": "AZ", "display_address": ["929 N Dobson Rd", "Ste 102", "Mesa, AZ 85201"]}, "phone": "+14806153356", "display_phone": "(480) 615-3356", "distance": 18786.73582286058}, {"id": "bBTTZAitpCPYQgPen6VP3w", "alias": "panera-bread-scottsdale-3", "name": "Panera Bread", "image_url": "https://s3-media3.fl.yelpcdn.com/bphoto/nHU-yxK_oi8xZA-hCPGKNQ/o.jpg", "is_closed": false, "url": "https://www.yelp.com/biz/panera-bread-scottsdale-3?adjust_creative=vyhy616UjsMTA_hrWyg_5w&utm_campaign=yelp_api_v3&utm_medium=api_v3_business_search&utm_source=vyhy616UjsMTA_hrWyg_5w", "review_count": 79, "categories": [{"alias": "salad", "title": "Salad"}, {"alias": "soup", "title": "Soup"}, {"alias": "sandwiches", "title": "Sandwiches"}], "rating": 2.5, "coordinates": {"latitude": 33.6192027024556, "longitude": -111.892294585705}, "transactions": ["pickup", "delivery"], "price": "$$", "location": {"address1": "14826 N Pima Rd", "address2": null, "address3": null, "city": "Scottsdale", "zip_code": "85260", "country": "US", "state": "AZ", "display_address": ["14826 N Pima Rd", "Scottsdale, AZ 85260"]}, "phone": "+14802907770", "display_phone": "(480) 290-7770", "distance": 25434.43262367029}, {"id": "x_4gEfC25uiX21NyYdohgQ", "alias": "china-city-super-buffet-avondale", "name": "China City Super Buffet", "image_url": "https://s3-media1.fl.yelpcdn.com/bphoto/CSDSxceawAukJiKKyEgk7A/o.jpg", "is_closed": false, "url": "https://www.yelp.com/biz/china-city-super-buffet-avondale?adjust_creative=vyhy616UjsMTA_hrWyg_5w&utm_campaign=yelp_api_v3&utm_medium=api_v3_business_search&utm_source=vyhy616UjsMTA_hrWyg_5w", "review_count": 110, "categories": [{"alias": "buffets", "title": "Buffets"}, {"alias": "chinese", "title": "Chinese"}], "rating": 2.5, "coordinates": {"latitude": 33.465545, "longitude": -112.276636}, "transactions": ["delivery"], "price": "$$", "location": {"address1": "10040 W Mcdowell Rd", "address2": "", "address3": "", "city": "Avondale", "zip_code": "85392", "country": "US", "state": "AZ", "display_address": ["10040 W Mcdowell Rd", "Avondale, AZ 85392"]}, "phone": "+16234128989", "display_phone": "(623) 412-8989", "distance": 19290.568174138498}, {"id": "bRj5r9xr56CvwL7-RmB2dw", "alias": "panda-express-phoenix-13", "name": "Panda Express", "image_url": "https://s3-media2.fl.yelpcdn.com/bphoto/5wyGgl3XJhyzaro-QQdm9w/o.jpg", "is_closed": false, "url": "https://www.yelp.com/biz/panda-express-phoenix-13?adjust_creative=vyhy616UjsMTA_hrWyg_5w&utm_campaign=yelp_api_v3&utm_medium=api_v3_business_search&utm_source=vyhy616UjsMTA_hrWyg_5w", "review_count": 57, "categories": [{"alias": "hotdogs", "title": "Fast Food"}, {"alias": "chinese", "title": "Chinese"}], "rating": 1.5, "coordinates": {"latitude": 33.494499206543, "longitude": -112.172142028809}, "transactions": ["pickup", "delivery"], "price": "$", "location": {"address1": "5229 W Indian School Rd", "address2": "", "address3": "", "city": "Phoenix", "zip_code": "85031", "country": "US", "state": "AZ", "display_address": ["5229 W Indian School Rd", "Phoenix, AZ 85031"]}, "phone": "+16238737887", "display_phone": "(623) 873-7887", "distance": 10955.971100749777}, {"id": "cjoDufPFhYZtlvuTG4Ewig", "alias": "yogis-grill-chandler", "name": "Yogis Grill", "image_url": "https://s3-media3.fl.yelpcdn.com/bphoto/So-4Lk8X0ig_dQZwHu65Gw/o.jpg", "is_closed": false, "url": "https://www.yelp.com/biz/yogis-grill-chandler?adjust_creative=vyhy616UjsMTA_hrWyg_5w&utm_campaign=yelp_api_v3&utm_medium=api_v3_business_search&utm_source=vyhy616UjsMTA_hrWyg_5w", "review_count": 81, "categories": [{"alias": "japanese", "title": "Japanese"}], "rating": 3.5, "coordinates": {"latitude": 33.31954, "longitude": -111.89745}, "transactions": ["pickup", "delivery"], "price": "$", "location": {"address1": "3235 W Ray Rd", "address2": "Ste 5", "address3": "", "city": "Chandler", "zip_code": "85226", "country": "US", "state": "AZ", "display_address": ["3235 W Ray Rd", "Ste 5", "Chandler, AZ 85226"]}, "phone": "+14808555594", "display_phone": "(480) 855-5594", "distance": 21221.072260465928}, {"id": "AxnHVf04TyMCJM-0JLX8gQ", "alias": "pho-lotus-gilbert", "name": "Pho Lotus", "image_url": "https://s3-media3.fl.yelpcdn.com/bphoto/6CVdNYh6UrfsFKax5Fjfsw/o.jpg", "is_closed": false, "url": "https://www.yelp.com/biz/pho-lotus-gilbert?adjust_creative=vyhy616UjsMTA_hrWyg_5w&utm_campaign=yelp_api_v3&utm_medium=api_v3_business_search&utm_source=vyhy616UjsMTA_hrWyg_5w", "review_count": 122, "categories": [{"alias": "vietnamese", "title": "Vietnamese"}], "rating": 3.5, "coordinates": {"latitude": 33.3652572122426, "longitude": -111.787772923708}, "transactions": ["pickup", "delivery"], "price": "$", "location": {"address1": "853 N Gilbert Rd", "address2": "Ste 107", "address3": null, "city": "Gilbert", "zip_code": "85234", "country": "US", "state": "AZ", "display_address": ["853 N Gilbert Rd", "Ste 107", "Gilbert, AZ 85234"]}, "phone": "+14803664999", "display_phone": "(480) 366-4999", "distance": 27672.557647775324}, {"id": "-fZ4jE_7FKos0MQvMqoj5Q", "alias": "culinary-dropout-gilbert-4", "name": "Culinary Dropout", "image_url": "https://s3-media1.fl.yelpcdn.com/bphoto/iyHOAcN6sM6zun4nQW-PfA/o.jpg", "is_closed": false, "url": "https://www.yelp.com/biz/culinary-dropout-gilbert-4?adjust_creative=vyhy616UjsMTA_hrWyg_5w&utm_campaign=yelp_api_v3&utm_medium=api_v3_business_search&utm_source=vyhy616UjsMTA_hrWyg_5w", "review_count": 588, "categories": [{"alias": "newamerican", "title": "American (New)"}], "rating": 4.0, "coordinates": {"latitude": 33.3569301, "longitude": -111.7895751}, "transactions": [], "price": "$$", "location": {"address1": "383 N Gilbert Rd", "address2": "", "address3": null, "city": "Gilbert", "zip_code": "85234", "country": "US", "state": "AZ", "display_address": ["383 N Gilbert Rd", "Gilbert, AZ 85234"]}, "phone": "+14804183980", "display_phone": "(480) 418-3980", "distance": 27862.451947246707}, {"id": "-voRkfS42YKYsrJ9DV0FxQ", "alias": "panda-express-phoenix-11", "name": "Panda Express", "image_url": "https://s3-media1.fl.yelpcdn.com/bphoto/gUmHVCg5S-9oDoQXpQ-xIw/o.jpg", "is_closed": false, "url": "https://www.yelp.com/biz/panda-express-phoenix-11?adjust_creative=vyhy616UjsMTA_hrWyg_5w&utm_campaign=yelp_api_v3&utm_medium=api_v3_business_search&utm_source=vyhy616UjsMTA_hrWyg_5w", "review_count": 57, "categories": [{"alias": "chinese", "title": "Chinese"}, {"alias": "hotdogs", "title": "Fast Food"}], "rating": 2.5, "coordinates": {"latitude": 33.378393, "longitude": -112.028684}, "transactions": ["pickup", "delivery"], "price": "$", "location": {"address1": "2434 E Baseline Rd", "address2": "Ste 101", "address3": "", "city": "Phoenix", "zip_code": "85042", "country": "US", "state": "AZ", "display_address": ["2434 E Baseline Rd", "Ste 101", "Phoenix, AZ 85042"]}, "phone": "+16022431811", "display_phone": "(602) 243-1811", "distance": 8349.373035658824}, {"id": "5diHqpk_JSC4p8tIo4APow", "alias": "the-cheesecake-factory-scottsdale", "name": "The Cheesecake Factory", "image_url": "https://s3-media1.fl.yelpcdn.com/bphoto/IEu7xcaDkTLiRh78-N6V8Q/o.jpg", "is_closed": false, "url": "https://www.yelp.com/biz/the-cheesecake-factory-scottsdale?adjust_creative=vyhy616UjsMTA_hrWyg_5w&utm_campaign=yelp_api_v3&utm_medium=api_v3_business_search&utm_source=vyhy616UjsMTA_hrWyg_5w", "review_count": 472, "categories": [{"alias": "tradamerican", "title": "American (Traditional)"}, {"alias": "desserts", "title": "Desserts"}], "rating": 3.5, "coordinates": {"latitude": 33.6249928125, "longitude": -111.926282633}, "transactions": ["restaurant_reservation"], "price": "$$", "location": {"address1": "15230 N Scottsdale Rd", "address2": "", "address3": "", "city": "Scottsdale", "zip_code": "85254", "country": "US", "state": "AZ", "display_address": ["15230 N Scottsdale Rd", "Scottsdale, AZ 85254"]}, "phone": "+14806070083", "display_phone": "(480) 607-0083", "distance": 24047.929445517115}, {"id": "jyTtTFa169XYSD5KRMQsHg", "alias": "boba-tree-lin-tea-house-mesa-2", "name": "Boba Tree Lin Tea House", "image_url": "https://s3-media3.fl.yelpcdn.com/bphoto/v8Wp1oTJ7XMzaVePcpHGkg/o.jpg", "is_closed": false, "url": "https://www.yelp.com/biz/boba-tree-lin-tea-house-mesa-2?adjust_creative=vyhy616UjsMTA_hrWyg_5w&utm_campaign=yelp_api_v3&utm_medium=api_v3_business_search&utm_source=vyhy616UjsMTA_hrWyg_5w", "review_count": 219, "categories": [{"alias": "coffee", "title": "Coffee & Tea"}, {"alias": "bubbletea", "title": "Bubble Tea"}, {"alias": "desserts", "title": "Desserts"}], "rating": 4.0, "coordinates": {"latitude": 33.393626, "longitude": -111.873136879454}, "transactions": ["delivery"], "price": "$", "location": {"address1": "1139 S Dobson Rd", "address2": "Ste 101", "address3": null, "city": "Mesa", "zip_code": "85202", "country": "US", "state": "AZ", "display_address": ["1139 S Dobson Rd", "Ste 101", "Mesa, AZ 85202"]}, "phone": "+14808342244", "display_phone": "(480) 834-2244", "distance": 19158.0155524382}, {"id": "AlninJFRoy8h3jwxddJeZQ", "alias": "red-rock-buffet-fort-mcdowell", "name": "Red Rock Buffet", "image_url": "https://s3-media4.fl.yelpcdn.com/bphoto/cNtdWpUO9gUWxTFX9stNZg/o.jpg", "is_closed": false, "url": "https://www.yelp.com/biz/red-rock-buffet-fort-mcdowell?adjust_creative=vyhy616UjsMTA_hrWyg_5w&utm_campaign=yelp_api_v3&utm_medium=api_v3_business_search&utm_source=vyhy616UjsMTA_hrWyg_5w", "review_count": 68, "categories": [{"alias": "buffets", "title": "Buffets"}], "rating": 2.5, "coordinates": {"latitude": 33.5829654, "longitude": -111.6789447}, "transactions": [], "price": "$$", "location": {"address1": "10424 N Fort McDowell Rd", "address2": "", "address3": "", "city": "Fort McDowell", "zip_code": "85264", "country": "US", "state": "AZ", "display_address": ["10424 N Fort McDowell Rd", "Fort McDowell, AZ 85264"]}, "phone": "+18008433678", "display_phone": "(800) 843-3678", "distance": 39143.31192636381}, {"id": "Wrd9LAbc8IOoAS5H6uw9sw", "alias": "delhi-palace-cuisine-of-india-tempe", "name": "Delhi Palace Cuisine of India", "image_url": "https://s3-media1.fl.yelpcdn.com/bphoto/sZBjnonZDcIciKQI5N2LAg/o.jpg", "is_closed": false, "url": "https://www.yelp.com/biz/delhi-palace-cuisine-of-india-tempe?adjust_creative=vyhy616UjsMTA_hrWyg_5w&utm_campaign=yelp_api_v3&utm_medium=api_v3_business_search&utm_source=vyhy616UjsMTA_hrWyg_5w", "review_count": 265, "categories": [{"alias": "indpak", "title": "Indian"}, {"alias": "buffets", "title": "Buffets"}], "rating": 3.5, "coordinates": {"latitude": 33.42136, "longitude": -111.92481}, "transactions": ["pickup", "delivery"], "price": "$$", "location": {"address1": "933 E University Dr", "address2": "Ste 103", "address3": "", "city": "Tempe", "zip_code": "85281", "country": "US", "state": "AZ", "display_address": ["933 E University Dr", "Ste 103", "Tempe, AZ 85281"]}, "phone": "+14809212200", "display_phone": "(480) 921-2200", "distance": 13753.62220265325}, {"id": "XJbTtaUgBCXZhhWt1_rYqA", "alias": "pacific-seafood-buffet-chandler", "name": "Pacific Seafood Buffet", "image_url": "https://s3-media1.fl.yelpcdn.com/bphoto/FDEWWxyxSUeOuW7apDP7_Q/o.jpg", "is_closed": false, "url": "https://www.yelp.com/biz/pacific-seafood-buffet-chandler?adjust_creative=vyhy616UjsMTA_hrWyg_5w&utm_campaign=yelp_api_v3&utm_medium=api_v3_business_search&utm_source=vyhy616UjsMTA_hrWyg_5w", "review_count": 387, "categories": [{"alias": "buffets", "title": "Buffets"}, {"alias": "seafood", "title": "Seafood"}], "rating": 3.0, "coordinates": {"latitude": 33.351583, "longitude": -111.842255}, "transactions": ["delivery"], "price": "$$", "location": {"address1": "3110 N Arizona Ave", "address2": "", "address3": "", "city": "Chandler", "zip_code": "85225", "country": "US", "state": "AZ", "display_address": ["3110 N Arizona Ave", "Chandler, AZ 85225"]}, "phone": "+14808925898", "display_phone": "(480) 892-5898", "distance": 23570.546812022567}, {"id": "0ebavvJVXAzKKQ8C9cOt6g", "alias": "chopstick-express-tempe", "name": "Chopstick Express", "image_url": "https://s3-media2.fl.yelpcdn.com/bphoto/4EPjG__5UsDMaYsjEDcAlA/o.jpg", "is_closed": false, "url": "https://www.yelp.com/biz/chopstick-express-tempe?adjust_creative=vyhy616UjsMTA_hrWyg_5w&utm_campaign=yelp_api_v3&utm_medium=api_v3_business_search&utm_source=vyhy616UjsMTA_hrWyg_5w", "review_count": 173, "categories": [{"alias": "chinese", "title": "Chinese"}], "rating": 3.0, "coordinates": {"latitude": 33.3637049049139, "longitude": -111.927494555712}, "transactions": ["pickup", "delivery"], "price": "$", "location": {"address1": "939 E Guadalupe Rd", "address2": "Ste 1", "address3": "", "city": "Tempe", "zip_code": "85283", "country": "US", "state": "AZ", "display_address": ["939 E Guadalupe Rd", "Ste 1", "Tempe, AZ 85283"]}, "phone": "+14808316685", "display_phone": "(480) 831-6685", "distance": 16062.648841952096}, {"id": "0J-QM0fIxBNNiSK_n19y9g", "alias": "golden-rice-express-glendale", "name": "Golden Rice Express", "image_url": "https://s3-media4.fl.yelpcdn.com/bphoto/cLkuznM24POw9__C0ihJUQ/o.jpg", "is_closed": false, "url": "https://www.yelp.com/biz/golden-rice-express-glendale?adjust_creative=vyhy616UjsMTA_hrWyg_5w&utm_campaign=yelp_api_v3&utm_medium=api_v3_business_search&utm_source=vyhy616UjsMTA_hrWyg_5w", "review_count": 76, "categories": [{"alias": "chinese", "title": "Chinese"}, {"alias": "japanese", "title": "Japanese"}], "rating": 3.0, "coordinates": {"latitude": 33.61058, "longitude": -112.18535}, "transactions": ["pickup", "delivery"], "price": "$", "location": {"address1": "5835 W Thunderbird Rd", "address2": "", "address3": "", "city": "Glendale", "zip_code": "85306", "country": "US", "state": "AZ", "display_address": ["5835 W Thunderbird Rd", "Glendale, AZ 85306"]}, "phone": "+16025472132", "display_phone": "(602) 547-2132", "distance": 21186.075978864756}, {"id": "dQZOCI_IIxrUKPnRa56yog", "alias": "jimichaels-restaurant-sun-city", "name": "Jimichael's Restaurant", "image_url": "https://s3-media4.fl.yelpcdn.com/bphoto/iLjnjiwE0a1FP_sQKB_6zQ/o.jpg", "is_closed": false, "url": "https://www.yelp.com/biz/jimichaels-restaurant-sun-city?adjust_creative=vyhy616UjsMTA_hrWyg_5w&utm_campaign=yelp_api_v3&utm_medium=api_v3_business_search&utm_source=vyhy616UjsMTA_hrWyg_5w", "review_count": 60, "categories": [{"alias": "tradamerican", "title": "American (Traditional)"}], "rating": 3.5, "coordinates": {"latitude": 33.60359, "longitude": -112.28094}, "transactions": ["delivery"], "price": "$", "location": {"address1": "13039 N 103rd Ave", "address2": "", "address3": "", "city": "Sun City", "zip_code": "85351", "country": "US", "state": "AZ", "display_address": ["13039 N 103rd Ave", "Sun City, AZ 85351"]}, "phone": "+16235831555", "display_phone": "(623) 583-1555", "distance": 26318.85936306762}, {"id": "KH9XgG2nt0G6bk8-NKkQQQ", "alias": "eastwind-sushi-and-grill-chandler", "name": "Eastwind Sushi And Grill", "image_url": "https://s3-media1.fl.yelpcdn.com/bphoto/ZV9eG7tCBrSsMXoaxmn6mw/o.jpg", "is_closed": false, "url": "https://www.yelp.com/biz/eastwind-sushi-and-grill-chandler?adjust_creative=vyhy616UjsMTA_hrWyg_5w&utm_campaign=yelp_api_v3&utm_medium=api_v3_business_search&utm_source=vyhy616UjsMTA_hrWyg_5w", "review_count": 227, "categories": [{"alias": "japanese", "title": "Japanese"}, {"alias": "sushi", "title": "Sushi Bars"}], "rating": 4.0, "coordinates": {"latitude": 33.3047502, "longitude": -111.8423068}, "transactions": ["delivery"], "price": "$$", "location": {"address1": "58 W Buffalo St", "address2": "", "address3": "", "city": "Chandler", "zip_code": "85225", "country": "US", "state": "AZ", "display_address": ["58 W Buffalo St", "Chandler, AZ 85225"]}, "phone": "+14808557451", "display_phone": "(480) 855-7451", "distance": 26290.95021907043}, {"id": "v2tjswIV3e0c8o7_7MwYmg", "alias": "mellow-mushroom-phoenix-2", "name": "Mellow Mushroom", "image_url": "https://s3-media4.fl.yelpcdn.com/bphoto/lwngPNctQ78H5xhuWv6_PQ/o.jpg", "is_closed": false, "url": "https://www.yelp.com/biz/mellow-mushroom-phoenix-2?adjust_creative=vyhy616UjsMTA_hrWyg_5w&utm_campaign=yelp_api_v3&utm_medium=api_v3_business_search&utm_source=vyhy616UjsMTA_hrWyg_5w", "review_count": 435, "categories": [{"alias": "pizza", "title": "Pizza"}, {"alias": "bars", "title": "Bars"}, {"alias": "sandwiches", "title": "Sandwiches"}], "rating": 3.5, "coordinates": {"latitude": 33.67607, "longitude": -111.96566}, "transactions": ["pickup", "delivery"], "price": "$$", "location": {"address1": "5350 E High St", "address2": "", "address3": "", "city": "Phoenix", "zip_code": "85054", "country": "US", "state": "AZ", "display_address": ["5350 E High St", "Phoenix, AZ 85054"]}, "phone": "+14808890999", "display_phone": "(480) 889-0999", "distance": 27479.229360586884}, {"id": "Gi5h_zKjnNLao1MzdyzSAQ", "alias": "angelas-kitchen-surprise", "name": "Angela's Kitchen", "image_url": "https://s3-media4.fl.yelpcdn.com/bphoto/Vspb_OsppET_4hAhSt86iA/o.jpg", "is_closed": false, "url": "https://www.yelp.com/biz/angelas-kitchen-surprise?adjust_creative=vyhy616UjsMTA_hrWyg_5w&utm_campaign=yelp_api_v3&utm_medium=api_v3_business_search&utm_source=vyhy616UjsMTA_hrWyg_5w", "review_count": 105, "categories": [{"alias": "newamerican", "title": "American (New)"}], "rating": 3.0, "coordinates": {"latitude": 33.6624028460297, "longitude": -112.4052114}, "transactions": ["delivery"], "price": "$$", "location": {"address1": "19900 N Remington Dr", "address2": "", "address3": "", "city": "Surprise", "zip_code": "85374", "country": "US", "state": "AZ", "display_address": ["19900 N Remington Dr", "Surprise, AZ 85374"]}, "phone": "+16233996514", "display_phone": "(623) 399-6514", "distance": 39347.60680212687}, {"id": "HwjhWHbNp56t-dRiv3-wPA", "alias": "phoenicia-cafe-tempe-3", "name": "Phoenicia Cafe", "image_url": "https://s3-media2.fl.yelpcdn.com/bphoto/1ht7dd6YDORyvow63GNkbQ/o.jpg", "is_closed": false, "url": "https://www.yelp.com/biz/phoenicia-cafe-tempe-3?adjust_creative=vyhy616UjsMTA_hrWyg_5w&utm_campaign=yelp_api_v3&utm_medium=api_v3_business_search&utm_source=vyhy616UjsMTA_hrWyg_5w", "review_count": 242, "categories": [{"alias": "mideastern", "title": "Middle Eastern"}, {"alias": "mediterranean", "title": "Mediterranean"}, {"alias": "halal", "title": "Halal"}], "rating": 4.0, "coordinates": {"latitude": 33.42355, "longitude": -111.93684}, "transactions": ["delivery"], "price": "$", "location": {"address1": "616 S Forest Ave", "address2": null, "address3": "", "city": "Tempe", "zip_code": "85281", "country": "US", "state": "AZ", "display_address": ["616 S Forest Ave", "Tempe, AZ 85281"]}, "phone": "+14809678009", "display_phone": "(480) 967-8009", "distance": 12598.579527405003}, {"id": "0gXYLVPNWz0WT8wXQVpS0g", "alias": "the-herb-box-scottsdale-5", "name": "The Herb Box", "image_url": "https://s3-media2.fl.yelpcdn.com/bphoto/BViC8jy_UWI0ka-EnXhg0Q/o.jpg", "is_closed": false, "url": "https://www.yelp.com/biz/the-herb-box-scottsdale-5?adjust_creative=vyhy616UjsMTA_hrWyg_5w&utm_campaign=yelp_api_v3&utm_medium=api_v3_business_search&utm_source=vyhy616UjsMTA_hrWyg_5w", "review_count": 943, "categories": [{"alias": "newamerican", "title": "American (New)"}, {"alias": "coffee", "title": "Coffee & Tea"}, {"alias": "breakfast_brunch", "title": "Breakfast & Brunch"}], "rating": 4.0, "coordinates": {"latitude": 33.49755, "longitude": -111.92949}, "transactions": ["delivery"], "price": "$$", "location": {"address1": "7051 E 5th Ave", "address2": "Ste J", "address3": "Old Town Scottsdale", "city": "Scottsdale", "zip_code": "85251", "country": "US", "state": "AZ", "display_address": ["7051 E 5th Ave", "Ste J", "Old Town Scottsdale", "Scottsdale, AZ 85251"]}, "phone": "+14802896160", "display_phone": "(480) 289-6160", "distance": 14319.826095516437}, {"id": "QvEoE_oGwHPXvw5IylllNg", "alias": "new-china-mesa", "name": "New China", "image_url": "https://s3-media1.fl.yelpcdn.com/bphoto/-uDdJc_EnPbXESYhc1JrAQ/o.jpg", "is_closed": false, "url": "https://www.yelp.com/biz/new-china-mesa?adjust_creative=vyhy616UjsMTA_hrWyg_5w&utm_campaign=yelp_api_v3&utm_medium=api_v3_business_search&utm_source=vyhy616UjsMTA_hrWyg_5w", "review_count": 86, "categories": [{"alias": "chinese", "title": "Chinese"}], "rating": 2.5, "coordinates": {"latitude": 33.4363769927389, "longitude": -111.720919267953}, "transactions": ["pickup", "delivery"], "price": "$", "location": {"address1": "1130 N Higley Rd", "address2": "Ste 7-102", "address3": "Northpoint Village Shopping Center", "city": "Mesa", "zip_code": "85205", "country": "US", "state": "AZ", "display_address": ["1130 N Higley Rd", "Ste 7-102", "Northpoint Village Shopping Center", "Mesa, AZ 85205"]}, "phone": "+14802189888", "display_phone": "(480) 218-9888", "distance": 32419.317654493505}, {"id": "-_5dPMqd2-dZh8xSSmw3Ag", "alias": "panda-express-glendale-5", "name": "Panda Express", "image_url": "https://s3-media3.fl.yelpcdn.com/bphoto/RyNE-oAgz2QiT6R_tmtZsw/o.jpg", "is_closed": false, "url": "https://www.yelp.com/biz/panda-express-glendale-5?adjust_creative=vyhy616UjsMTA_hrWyg_5w&utm_campaign=yelp_api_v3&utm_medium=api_v3_business_search&utm_source=vyhy616UjsMTA_hrWyg_5w", "review_count": 36, "categories": [{"alias": "chinese", "title": "Chinese"}, {"alias": "hotdogs", "title": "Fast Food"}], "rating": 2.5, "coordinates": {"latitude": 33.5238051, "longitude": -112.1518583}, "transactions": ["pickup", "delivery"], "price": "$", "location": {"address1": "4309 W Bethany Home Rd", "address2": "", "address3": "", "city": "Glendale", "zip_code": "85301", "country": "US", "state": "AZ", "display_address": ["4309 W Bethany Home Rd", "Glendale, AZ 85301"]}, "phone": "+16234358882", "display_phone": "(623) 435-8882", "distance": 11503.345614932681}, {"id": "gpiRpdG-8ccLlmPet0Vp0g", "alias": "far-east-asian-fire-tempe", "name": "Far East Asian Fire", "image_url": "https://s3-media1.fl.yelpcdn.com/bphoto/RYEDhfysR0lrWRgGiqj7OA/o.jpg", "is_closed": false, "url": "https://www.yelp.com/biz/far-east-asian-fire-tempe?adjust_creative=vyhy616UjsMTA_hrWyg_5w&utm_campaign=yelp_api_v3&utm_medium=api_v3_business_search&utm_source=vyhy616UjsMTA_hrWyg_5w", "review_count": 41, "categories": [{"alias": "asianfusion", "title": "Asian Fusion"}, {"alias": "chickenshop", "title": "Chicken Shop"}], "rating": 1.5, "coordinates": {"latitude": 33.379734, "longitude": -111.966972}, "transactions": ["delivery"], "price": "$", "location": {"address1": "5004 S Arizona Mills Cir", "address2": "", "address3": "", "city": "Tempe", "zip_code": "85282", "country": "US", "state": "AZ", "display_address": ["5004 S Arizona Mills Cir", "Tempe, AZ 85282"]}, "phone": "+16026353778", "display_phone": "(602) 635-3778", "distance": 12018.139378648455}, {"id": "XqSN1PtZkJ6QorOUa9AAdA", "alias": "alto-ristorante-e-bar-scottsdale", "name": "Alto Ristorante e Bar", "image_url": "https://s3-media3.fl.yelpcdn.com/bphoto/SyCb_LSgZ0mZQoZB8SD8jA/o.jpg", "is_closed": false, "url": "https://www.yelp.com/biz/alto-ristorante-e-bar-scottsdale?adjust_creative=vyhy616UjsMTA_hrWyg_5w&utm_campaign=yelp_api_v3&utm_medium=api_v3_business_search&utm_source=vyhy616UjsMTA_hrWyg_5w", "review_count": 152, "categories": [{"alias": "italian", "title": "Italian"}], "rating": 4.0, "coordinates": {"latitude": 33.5670375, "longitude": -111.9184649}, "transactions": ["delivery"], "price": "$$$", "location": {"address1": "7500 E Doubletree Ranch Rd", "address2": "", "address3": "", "city": "Scottsdale", "zip_code": "85258", "country": "US", "state": "AZ", "display_address": ["7500 E Doubletree Ranch Rd", "Scottsdale, AZ 85258"]}, "phone": "+14804441234", "display_phone": "(480) 444-1234", "distance": 19542.039676563123}], "total": 1100, "region": {"center": {"longitude": -112.07015991210938, "latitude": 33.445022841808324}}}