{"businesses": [{"id": "6afEAoSQwQzva8boYz2tcA", "alias": "new-asia-bistro-weston", "name": "New Asia Bistro", "image_url": "https://s3-media3.fl.yelpcdn.com/bphoto/YPLEfqBoPtegfbgj4r1jtA/o.jpg", "is_closed": false, "url": "https://www.yelp.com/biz/new-asia-bistro-weston?adjust_creative=vyhy616UjsMTA_hrWyg_5w&utm_campaign=yelp_api_v3&utm_medium=api_v3_business_search&utm_source=vyhy616UjsMTA_hrWyg_5w", "review_count": 20, "categories": [{"alias": "sushi", "title": "Sushi Bars"}, {"alias": "asianfusion", "title": "Asian Fusion"}, {"alias": "ramen", "title": "Ramen"}], "rating": 4.5, "coordinates": {"latitude": 26.120856004145235, "longitude": -80.36267600240895}, "transactions": ["delivery", "pickup"], "location": {"address1": "141 Weston Rd", "address2": null, "address3": "", "city": "Weston", "zip_code": "33327", "country": "US", "state": "FL", "display_address": ["141 Weston Rd", "Weston, FL 33327"]}, "phone": "+17542215138", "display_phone": "(754) 221-5138", "distance": 8815.098688102324}, {"id": "TjbGvsTl__GzoNqYXFG-LQ", "alias": "masan-asian-grill-weston-2", "name": "Masan Asian Grill", "image_url": "https://s3-media2.fl.yelpcdn.com/bphoto/LwBKq-12_la6Iaat7dhtlw/o.jpg", "is_closed": false, "url": "https://www.yelp.com/biz/masan-asian-grill-weston-2?adjust_creative=vyhy616UjsMTA_hrWyg_5w&utm_campaign=yelp_api_v3&utm_medium=api_v3_business_search&utm_source=vyhy616UjsMTA_hrWyg_5w", "review_count": 298, "categories": [{"alias": "asianfusion", "title": "Asian Fusion"}, {"alias": "chinese", "title": "Chinese"}, {"alias": "soup", "title": "Soup"}], "rating": 4.0, "coordinates": {"latitude": 26.0943421846963, "longitude": -80.3691436513122}, "transactions": ["delivery", "pickup"], "price": "$$", "location": {"address1": "1924 Weston Rd", "address2": null, "address3": "", "city": "Weston", "zip_code": "33326", "country": "US", "state": "FL", "display_address": ["1924 Weston Rd", "Weston, FL 33326"]}, "phone": "+19548884689", "display_phone": "(954) 888-4689", "distance": 9517.3335306503}, {"id": "LGyUzSHwf1qauIa9JzMA1Q", "alias": "riceup-asian-kitchen-weston", "name": "RiceUp Asian Kitchen", "image_url": "https://s3-media2.fl.yelpcdn.com/bphoto/QXkRH-uALt4gR7-DxE7ZuA/o.jpg", "is_closed": false, "url": "https://www.yelp.com/biz/riceup-asian-kitchen-weston?adjust_creative=vyhy616UjsMTA_hrWyg_5w&utm_campaign=yelp_api_v3&utm_medium=api_v3_business_search&utm_source=vyhy616UjsMTA_hrWyg_5w", "review_count": 217, "categories": [{"alias": "japanese", "title": "Japanese"}, {"alias": "asianfusion", "title": "Asian Fusion"}, {"alias": "chinese", "title": "Chinese"}], "rating": 3.5, "coordinates": {"latitude": 26.1164831, "longitude": -80.3767285}, "transactions": ["delivery", "pickup"], "price": "$$", "location": {"address1": "16642 Saddle Club Rd", "address2": null, "address3": "", "city": "Weston", "zip_code": "33326", "country": "US", "state": "FL", "display_address": ["16642 Saddle Club Rd", "Weston, FL 33326"]}, "phone": "+19543893288", "display_phone": "(954) 389-3288", "distance": 7794.36926140152}, {"id": "r5s3njxdEihniVzMkA9HYQ", "alias": "sovereign-poke-boba-asian-kitchen-plantation-2", "name": "Sovereign - Poke, Boba, Asian Kitchen", "image_url": "https://s3-media2.fl.yelpcdn.com/bphoto/W79GCMXcieW3AlOCu8dQ-w/o.jpg", "is_closed": false, "url": "https://www.yelp.com/biz/sovereign-poke-boba-asian-kitchen-plantation-2?adjust_creative=vyhy616UjsMTA_hrWyg_5w&utm_campaign=yelp_api_v3&utm_medium=api_v3_business_search&utm_source=vyhy616UjsMTA_hrWyg_5w", "review_count": 515, "categories": [{"alias": "poke", "title": "Poke"}, {"alias": "bubbletea", "title": "Bubble Tea"}, {"alias": "panasian", "title": "Pan Asian"}], "rating": 4.5, "coordinates": {"latitude": 26.1219131, "longitude": -80.2781841}, "transactions": ["delivery", "pickup"], "price": "$$", "location": {"address1": "9723 W Broward Blvd", "address2": null, "address3": null, "city": "Plantation", "zip_code": "33324", "country": "US", "state": "FL", "display_address": ["9723 W Broward Blvd", "Plantation, FL 33324"]}, "phone": "+19544742888", "display_phone": "(954) 474-2888", "distance": 17056.827873493778}, {"id": "_Yf9RilHXgLuJbZ1wE6PYQ", "alias": "takato-fort-lauderdale", "name": "TAKATO", "image_url": "https://s3-media2.fl.yelpcdn.com/bphoto/dfSBzMzlyFLfC01Lnt9fog/o.jpg", "is_closed": false, "url": "https://www.yelp.com/biz/takato-fort-lauderdale?adjust_creative=vyhy616UjsMTA_hrWyg_5w&utm_campaign=yelp_api_v3&utm_medium=api_v3_business_search&utm_source=vyhy616UjsMTA_hrWyg_5w", "review_count": 212, "categories": [{"alias": "japanese", "title": "Japanese"}, {"alias": "korean", "title": "Korean"}, {"alias": "sushi", "title": "Sushi Bars"}], "rating": 4.5, "coordinates": {"latitude": 26.130824, "longitude": -80.104096}, "transactions": ["delivery"], "location": {"address1": "551 N Fort Lauderdale Beach Blvd", "address2": null, "address3": "", "city": "Fort Lauderdale", "zip_code": "33304", "country": "US", "state": "FL", "display_address": ["551 N Fort Lauderdale Beach Blvd", "Fort Lauderdale, FL 33304"]}, "phone": "+19544145160", "display_phone": "(954) 414-5160", "distance": 34302.60089788231}, {"id": "pSOmOiH21UVwIcBrh6OXow", "alias": "skyfin-asian-bistro-boca-raton", "name": "Skyfin Asian Bistro", "image_url": "https://s3-media3.fl.yelpcdn.com/bphoto/xi9pICOoMdKBxZ3oWVlx-g/o.jpg", "is_closed": false, "url": "https://www.yelp.com/biz/skyfin-asian-bistro-boca-raton?adjust_creative=vyhy616UjsMTA_hrWyg_5w&utm_campaign=yelp_api_v3&utm_medium=api_v3_business_search&utm_source=vyhy616UjsMTA_hrWyg_5w", "review_count": 30, "categories": [{"alias": "sushi", "title": "Sushi Bars"}, {"alias": "panasian", "title": "Pan Asian"}], "rating": 5.0, "coordinates": {"latitude": 26.368882843872626, "longitude": -80.17386358307598}, "transactions": ["delivery", "pickup"], "location": {"address1": "8221 Glades Rd", "address2": "Ste 5 & 6", "address3": "", "city": "Boca Raton", "zip_code": "33434", "country": "US", "state": "FL", "display_address": ["8221 Glades Rd", "Ste 5 & 6", "Boca Raton, FL 33434"]}, "phone": "+15615561688", "display_phone": "(561) 556-1688", "distance": 37061.68750786622}, {"id": "MWFz0fUu5E62ua_vyzR5ZA", "alias": "myung-ga-tofu-and-barbecue-weston", "name": "Myung Ga Tofu & Barbecue", "image_url": "https://s3-media1.fl.yelpcdn.com/bphoto/tnj9zMez2RuNyRlu3tsxgg/o.jpg", "is_closed": false, "url": "https://www.yelp.com/biz/myung-ga-tofu-and-barbecue-weston?adjust_creative=vyhy616UjsMTA_hrWyg_5w&utm_campaign=yelp_api_v3&utm_medium=api_v3_business_search&utm_source=vyhy616UjsMTA_hrWyg_5w", "review_count": 277, "categories": [{"alias": "korean", "title": "Korean"}, {"alias": "bbq", "title": "Barbeque"}], "rating": 4.0, "coordinates": {"latitude": 26.0942142106888, "longitude": -80.369427742745}, "transactions": ["delivery", "pickup"], "price": "$$", "location": {"address1": "1944 Weston Rd", "address2": "", "address3": "", "city": "Weston", "zip_code": "33326", "country": "US", "state": "FL", "display_address": ["1944 Weston Rd", "Weston, FL 33326"]}, "phone": "+19543497337", "display_phone": "(954) 349-7337", "distance": 9502.225171560232}, {"id": "XX0SYuWnXmfvI1dy3NjbrA", "alias": "pho-79-davie-4", "name": "Pho 79", "image_url": "https://s3-media2.fl.yelpcdn.com/bphoto/sVVHfYpMguDvMV7ARjzQHQ/o.jpg", "is_closed": false, "url": "https://www.yelp.com/biz/pho-79-davie-4?adjust_creative=vyhy616UjsMTA_hrWyg_5w&utm_campaign=yelp_api_v3&utm_medium=api_v3_business_search&utm_source=vyhy616UjsMTA_hrWyg_5w", "review_count": 692, "categories": [{"alias": "vietnamese", "title": "Vietnamese"}], "rating": 4.0, "coordinates": {"latitude": 26.046807, "longitude": -80.233022}, "transactions": ["delivery"], "price": "$", "location": {"address1": "6451 Stirling Rd", "address2": null, "address3": "", "city": "Davie", "zip_code": "33314", "country": "US", "state": "FL", "display_address": ["6451 Stirling Rd", "Davie, FL 33314"]}, "phone": "+19547979700", "display_phone": "(954) 797-9700", "distance": 23940.227089306205}, {"id": "G6p93zY0IaKklnY5aBIATA", "alias": "sakura-ramen-southwest-ranches", "name": "Sakura Ramen", "image_url": "https://s3-media1.fl.yelpcdn.com/bphoto/lTo9W_nW6Ly-Rh9eWoFHmg/o.jpg", "is_closed": false, "url": "https://www.yelp.com/biz/sakura-ramen-southwest-ranches?adjust_creative=vyhy616UjsMTA_hrWyg_5w&utm_campaign=yelp_api_v3&utm_medium=api_v3_business_search&utm_source=vyhy616UjsMTA_hrWyg_5w", "review_count": 82, "categories": [{"alias": "ramen", "title": "Ramen"}, {"alias": "asianfusion", "title": "Asian Fusion"}, {"alias": "bubbletea", "title": "Bubble Tea"}], "rating": 4.5, "coordinates": {"latitude": 26.0304518, "longitude": -80.3578115}, "transactions": ["delivery", "pickup"], "location": {"address1": "15771 Sheridan St", "address2": null, "address3": "", "city": "Southwest Ranches", "zip_code": "33331", "country": "US", "state": "FL", "display_address": ["15771 Sheridan St", "Southwest Ranches, FL 33331"]}, "phone": "+19543687600", "display_phone": "(954) 368-7600", "distance": 15404.34741618689}, {"id": "RtSSaob0mGdKNDydYmTSIQ", "alias": "casa-sensei-fort-lauderdale-2", "name": "Casa Sensei", "image_url": "https://s3-media1.fl.yelpcdn.com/bphoto/AzzNjwsHcCDTqAlGAJcCBg/o.jpg", "is_closed": false, "url": "https://www.yelp.com/biz/casa-sensei-fort-lauderdale-2?adjust_creative=vyhy616UjsMTA_hrWyg_5w&utm_campaign=yelp_api_v3&utm_medium=api_v3_business_search&utm_source=vyhy616UjsMTA_hrWyg_5w", "review_count": 740, "categories": [{"alias": "asianfusion", "title": "Asian Fusion"}, {"alias": "sushi", "title": "Sushi Bars"}, {"alias": "bars", "title": "Bars"}], "rating": 4.0, "coordinates": {"latitude": 26.118951, "longitude": -80.131073}, "transactions": ["delivery"], "price": "$$", "location": {"address1": "1200 E Las Olas Blvd", "address2": "", "address3": "", "city": "Fort Lauderdale", "zip_code": "33301", "country": "US", "state": "FL", "display_address": ["1200 E Las Olas Blvd", "Fort Lauderdale, FL 33301"]}, "phone": "+19545304176", "display_phone": "(954) 530-4176", "distance": 31692.7304269445}, {"id": "rN8NAF7FiW9TH_i04mUp_Q", "alias": "shimuja-southwest-ranches", "name": "Shimuja", "image_url": "https://s3-media1.fl.yelpcdn.com/bphoto/RvH1F2xnpvuNQbeLAOJHLg/o.jpg", "is_closed": false, "url": "https://www.yelp.com/biz/shimuja-southwest-ranches?adjust_creative=vyhy616UjsMTA_hrWyg_5w&utm_campaign=yelp_api_v3&utm_medium=api_v3_business_search&utm_source=vyhy616UjsMTA_hrWyg_5w", "review_count": 451, "categories": [{"alias": "ramen", "title": "Ramen"}], "rating": 4.5, "coordinates": {"latitude": 26.05927488, "longitude": -80.3479556}, "transactions": ["delivery", "pickup"], "price": "$$", "location": {"address1": "4921 SW 148th Ave", "address2": "", "address3": null, "city": "Southwest Ranches", "zip_code": "33331", "country": "US", "state": "FL", "display_address": ["4921 SW 148th Ave", "Southwest Ranches, FL 33331"]}, "phone": "+17542008941", "display_phone": "(754) 200-8941", "distance": 13628.483362399435}, {"id": "_zJ6rrzDhHi1s_maPHePHA", "alias": "wahbi-sabi-japanese-and-korean-restaurant-pembroke-pines", "name": "Wahbi-Sabi Japanese & Korean Restaurant", "image_url": "https://s3-media3.fl.yelpcdn.com/bphoto/KGQybiwP9ooVGlo_vTseSg/o.jpg", "is_closed": false, "url": "https://www.yelp.com/biz/wahbi-sabi-japanese-and-korean-restaurant-pembroke-pines?adjust_creative=vyhy616UjsMTA_hrWyg_5w&utm_campaign=yelp_api_v3&utm_medium=api_v3_business_search&utm_source=vyhy616UjsMTA_hrWyg_5w", "review_count": 22, "categories": [{"alias": "asianfusion", "title": "Asian Fusion"}], "rating": 4.5, "coordinates": {"latitude": 26.0080801397991, "longitude": -80.2768270298839}, "transactions": ["delivery", "pickup"], "location": {"address1": "10032 Pines Blvd", "address2": "", "address3": null, "city": "Pembroke Pines", "zip_code": "33024", "country": "US", "state": "FL", "display_address": ["10032 Pines Blvd", "Pembroke Pines, FL 33024"]}, "phone": "+17544008085", "display_phone": "(754) 400-8085", "distance": 22716.543464511466}, {"id": "raRm3RiTlQ9FBd_tUEjEDg", "alias": "sapporo-sushi-and-asian-kitchen-fort-lauderdale-2", "name": "Sapporo Sushi & Asian Kitchen", "image_url": "https://s3-media1.fl.yelpcdn.com/bphoto/07277xuBnZBIzGZ3DUoI_Q/o.jpg", "is_closed": false, "url": "https://www.yelp.com/biz/sapporo-sushi-and-asian-kitchen-fort-lauderdale-2?adjust_creative=vyhy616UjsMTA_hrWyg_5w&utm_campaign=yelp_api_v3&utm_medium=api_v3_business_search&utm_source=vyhy616UjsMTA_hrWyg_5w", "review_count": 6, "categories": [{"alias": "sushi", "title": "Sushi Bars"}, {"alias": "panasian", "title": "Pan Asian"}, {"alias": "thai", "title": "Thai"}], "rating": 4.5, "coordinates": {"latitude": 26.1749, "longitude": -80.1197622571748}, "transactions": [], "location": {"address1": "3811 N Federal Hwy", "address2": "", "address3": null, "city": "Fort Lauderdale", "zip_code": "33308", "country": "US", "state": "FL", "display_address": ["3811 N Federal Hwy", "Fort Lauderdale, FL 33308"]}, "phone": "+19545644422", "display_phone": "(954) 564-4422", "distance": 32887.86578034621}, {"id": "gb3cOCmPVSlVfxde1wJsRA", "alias": "the-namu-coral-springs", "name": "The Namu", "image_url": "https://s3-media4.fl.yelpcdn.com/bphoto/poOe3IfGKXbPCyz3ne7YaQ/o.jpg", "is_closed": false, "url": "https://www.yelp.com/biz/the-namu-coral-springs?adjust_creative=vyhy616UjsMTA_hrWyg_5w&utm_campaign=yelp_api_v3&utm_medium=api_v3_business_search&utm_source=vyhy616UjsMTA_hrWyg_5w", "review_count": 342, "categories": [{"alias": "korean", "title": "Korean"}, {"alias": "izakaya", "title": "Izakaya"}, {"alias": "asianfusion", "title": "Asian Fusion"}], "rating": 4.5, "coordinates": {"latitude": 26.2600994486184, "longitude": -80.2632341284668}, "transactions": ["delivery", "pickup"], "price": "$$", "location": {"address1": "10317 Royal Palm Blvd", "address2": "", "address3": null, "city": "Coral Springs", "zip_code": "33065", "country": "US", "state": "FL", "display_address": ["10317 Royal Palm Blvd", "Coral Springs, FL 33065"]}, "phone": "+17542296772", "display_phone": "(754) 229-6772", "distance": 22503.99438529961}, {"id": "HX9xxF24LhYNzcXvVxuRnQ", "alias": "dumpling-king-north-miami-beach", "name": "Dumpling King", "image_url": "https://s3-media3.fl.yelpcdn.com/bphoto/VB0Ogs-Ocyd6j-rANT0ySA/o.jpg", "is_closed": false, "url": "https://www.yelp.com/biz/dumpling-king-north-miami-beach?adjust_creative=vyhy616UjsMTA_hrWyg_5w&utm_campaign=yelp_api_v3&utm_medium=api_v3_business_search&utm_source=vyhy616UjsMTA_hrWyg_5w", "review_count": 754, "categories": [{"alias": "chinese", "title": "Chinese"}, {"alias": "bubbletea", "title": "Bubble Tea"}], "rating": 4.0, "coordinates": {"latitude": 25.9286638709426, "longitude": -80.1961721963188}, "transactions": ["delivery"], "price": "$", "location": {"address1": "237 NE 167th St", "address2": "", "address3": "", "city": "North Miami Beach", "zip_code": "33162", "country": "US", "state": "FL", "display_address": ["237 NE 167th St", "North Miami Beach, FL 33162"]}, "phone": "+13056544008", "display_phone": "(305) 654-4008", "distance": 34629.64431406431}, {"id": "6QNJ4W0f7kqyD4Hc2ebvbA", "alias": "bites-asian-bistro-plantation", "name": "Bites Asian Bistro", "image_url": "https://s3-media1.fl.yelpcdn.com/bphoto/LMNFbEgfzjiVsypdgb04sw/o.jpg", "is_closed": false, "url": "https://www.yelp.com/biz/bites-asian-bistro-plantation?adjust_creative=vyhy616UjsMTA_hrWyg_5w&utm_campaign=yelp_api_v3&utm_medium=api_v3_business_search&utm_source=vyhy616UjsMTA_hrWyg_5w", "review_count": 149, "categories": [{"alias": "sushi", "title": "Sushi Bars"}, {"alias": "thai", "title": "Thai"}], "rating": 5.0, "coordinates": {"latitude": 26.149013, "longitude": -80.255291}, "transactions": ["delivery"], "price": "$$", "location": {"address1": "1860 N University Dr", "address2": null, "address3": "", "city": "Plantation", "zip_code": "33322", "country": "US", "state": "FL", "display_address": ["1860 N University Dr", "Plantation, FL 33322"]}, "phone": "+19543147797", "display_phone": "(954) 314-7797", "distance": 19185.20432769677}, {"id": "3pWDP6GoWHDAiJbX5hEnlQ", "alias": "only-thai-fort-lauderdale", "name": "Only Thai", "image_url": "https://s3-media1.fl.yelpcdn.com/bphoto/Tjq9ca_t5TeTUzfItfnWMQ/o.jpg", "is_closed": false, "url": "https://www.yelp.com/biz/only-thai-fort-lauderdale?adjust_creative=vyhy616UjsMTA_hrWyg_5w&utm_campaign=yelp_api_v3&utm_medium=api_v3_business_search&utm_source=vyhy616UjsMTA_hrWyg_5w", "review_count": 33, "categories": [{"alias": "thai", "title": "Thai"}], "rating": 4.5, "coordinates": {"latitude": 26.166775, "longitude": -80.119066}, "transactions": [], "location": {"address1": "2100 E Oakland Park Blvd", "address2": "", "address3": null, "city": "Fort Lauderdale", "zip_code": "33306", "country": "US", "state": "FL", "display_address": ["2100 E Oakland Park Blvd", "Fort Lauderdale, FL 33306"]}, "phone": "+19549085578", "display_phone": "(954) 908-5578", "distance": 32875.47565834537}, {"id": "reATVci6ZzxHVAknYHKQDA", "alias": "kubo-asian-fusion-street-food-and-sushi-fort-lauderdale-3", "name": "KUBO Asian Fusion Street Food and Sushi", "image_url": "https://s3-media2.fl.yelpcdn.com/bphoto/vYyST-zZuI9SdgiyT51gLA/o.jpg", "is_closed": false, "url": "https://www.yelp.com/biz/kubo-asian-fusion-street-food-and-sushi-fort-lauderdale-3?adjust_creative=vyhy616UjsMTA_hrWyg_5w&utm_campaign=yelp_api_v3&utm_medium=api_v3_business_search&utm_source=vyhy616UjsMTA_hrWyg_5w", "review_count": 382, "categories": [{"alias": "sushi", "title": "Sushi Bars"}, {"alias": "thai", "title": "Thai"}, {"alias": "asianfusion", "title": "Asian Fusion"}], "rating": 4.5, "coordinates": {"latitude": 26.100968, "longitude": -80.1355496}, "transactions": ["delivery", "pickup"], "price": "$$", "location": {"address1": "745 SE 17th St", "address2": "", "address3": null, "city": "Fort Lauderdale", "zip_code": "33316", "country": "US", "state": "FL", "display_address": ["745 SE 17th St", "Fort Lauderdale, FL 33316"]}, "phone": "+19545339017", "display_phone": "(954) 533-9017", "distance": 31485.721911657965}, {"id": "EVGPTVYEU65_tvMEBRPIYg", "alias": "good-chef-restaurant-miami", "name": "Good Chef Restaurant", "image_url": "https://s3-media3.fl.yelpcdn.com/bphoto/GzqYb-QhbPWfJGB1vseLWQ/o.jpg", "is_closed": false, "url": "https://www.yelp.com/biz/good-chef-restaurant-miami?adjust_creative=vyhy616UjsMTA_hrWyg_5w&utm_campaign=yelp_api_v3&utm_medium=api_v3_business_search&utm_source=vyhy616UjsMTA_hrWyg_5w", "review_count": 34, "categories": [{"alias": "asianfusion", "title": "Asian Fusion"}, {"alias": "bubbletea", "title": "Bubble Tea"}, {"alias": "ramen", "title": "Ramen"}], "rating": 4.5, "coordinates": {"latitude": 25.767745, "longitude": -80.36805}, "transactions": ["delivery", "pickup"], "location": {"address1": "113 S W 107th Ave", "address2": null, "address3": null, "city": "Miami", "zip_code": "33174", "country": "US", "state": "FL", "display_address": ["113 S W 107th Ave", "Miami, FL 33174"]}, "phone": "+17867632008", "display_phone": "(786) 763-2008", "distance": 42499.071265320395}, {"id": "Naw_gYEPGrjdcXUpZVbuOA", "alias": "107-taste-plantation-plantation-2", "name": "107 Taste Plantation", "image_url": "https://s3-media2.fl.yelpcdn.com/bphoto/UDvuoS5kdkLIu7E58IitBA/o.jpg", "is_closed": false, "url": "https://www.yelp.com/biz/107-taste-plantation-plantation-2?adjust_creative=vyhy616UjsMTA_hrWyg_5w&utm_campaign=yelp_api_v3&utm_medium=api_v3_business_search&utm_source=vyhy616UjsMTA_hrWyg_5w", "review_count": 41, "categories": [{"alias": "asianfusion", "title": "Asian Fusion"}, {"alias": "ramen", "title": "Ramen"}, {"alias": "bubbletea", "title": "Bubble Tea"}], "rating": 4.5, "coordinates": {"latitude": 26.117781, "longitude": -80.254754}, "transactions": ["delivery"], "location": {"address1": "8000 W Broward Blvd", "address2": "Ste 1328", "address3": "", "city": "Plantation", "zip_code": "33388", "country": "US", "state": "FL", "display_address": ["8000 W Broward Blvd", "Ste 1328", "Plantation, FL 33388"]}, "phone": "+19544746822", "display_phone": "(954) 474-6822", "distance": 19433.088960898658}, {"id": "qT74i_kD27zLEB6zDVS8HQ", "alias": "yum-korea-weston-2", "name": "Yum Korea", "image_url": "https://s3-media2.fl.yelpcdn.com/bphoto/-5Mb00ozA7pBKwoMXAHTGg/o.jpg", "is_closed": false, "url": "https://www.yelp.com/biz/yum-korea-weston-2?adjust_creative=vyhy616UjsMTA_hrWyg_5w&utm_campaign=yelp_api_v3&utm_medium=api_v3_business_search&utm_source=vyhy616UjsMTA_hrWyg_5w", "review_count": 86, "categories": [{"alias": "korean", "title": "Korean"}, {"alias": "bubbletea", "title": "Bubble Tea"}, {"alias": "poke", "title": "Poke"}], "rating": 4.0, "coordinates": {"latitude": 26.09794, "longitude": -80.38101}, "transactions": ["delivery", "pickup"], "price": "$$", "location": {"address1": "1669 Market St", "address2": null, "address3": "", "city": "Weston", "zip_code": "33326", "country": "US", "state": "FL", "display_address": ["1669 Market St", "Weston, FL 33326"]}, "phone": "+19549005213", "display_phone": "(954) 900-5213", "distance": 8298.34407725951}, {"id": "hK8f_sLwv3FwMiYv5QovMQ", "alias": "thai-garlic-and-sushi-fort-lauderdale", "name": "Thai Garlic & Sushi", "image_url": "https://s3-media2.fl.yelpcdn.com/bphoto/4SL9wXTrlgh5UE7XyFKlAQ/o.jpg", "is_closed": false, "url": "https://www.yelp.com/biz/thai-garlic-and-sushi-fort-lauderdale?adjust_creative=vyhy616UjsMTA_hrWyg_5w&utm_campaign=yelp_api_v3&utm_medium=api_v3_business_search&utm_source=vyhy616UjsMTA_hrWyg_5w", "review_count": 153, "categories": [{"alias": "thai", "title": "Thai"}, {"alias": "sushi", "title": "Sushi Bars"}], "rating": 4.0, "coordinates": {"latitude": 26.1218077, "longitude": -80.3613397}, "transactions": ["delivery", "pickup"], "price": "$$", "location": {"address1": "116 Weston Rd", "address2": null, "address3": "", "city": "Fort Lauderdale", "zip_code": "33326", "country": "US", "state": "FL", "display_address": ["116 Weston Rd", "Fort Lauderdale, FL 33326"]}, "phone": "+19543848840", "display_phone": "(954) 384-8840", "distance": 8955.679764616774}, {"id": "XliPSqJLF6W8KeNpCF5VhA", "alias": "ke-uh-weston", "name": "Ke-uH", "image_url": "https://s3-media1.fl.yelpcdn.com/bphoto/CtZ3e_a4WMlzylp26_6Vwg/o.jpg", "is_closed": false, "url": "https://www.yelp.com/biz/ke-uh-weston?adjust_creative=vyhy616UjsMTA_hrWyg_5w&utm_campaign=yelp_api_v3&utm_medium=api_v3_business_search&utm_source=vyhy616UjsMTA_hrWyg_5w", "review_count": 299, "categories": [{"alias": "sushi", "title": "Sushi Bars"}, {"alias": "japanese", "title": "Japanese"}], "rating": 4.0, "coordinates": {"latitude": 26.0909651, "longitude": -80.371518}, "transactions": ["delivery", "restaurant_reservation", "pickup"], "price": "$$", "location": {"address1": "2278 Weston Rd", "address2": "", "address3": null, "city": "Weston", "zip_code": "33326", "country": "US", "state": "FL", "display_address": ["2278 Weston Rd", "Weston, FL 33326"]}, "phone": "+19549002278", "display_phone": "(954) 900-2278", "distance": 9583.702623147998}, {"id": "sptlPDrZ3KYur4dPN9IuLQ", "alias": "ceviche-arigato-weston-3", "name": "Ceviche Arigato", "image_url": "https://s3-media1.fl.yelpcdn.com/bphoto/b91KWFMRyxunT-maIDWofw/o.jpg", "is_closed": false, "url": "https://www.yelp.com/biz/ceviche-arigato-weston-3?adjust_creative=vyhy616UjsMTA_hrWyg_5w&utm_campaign=yelp_api_v3&utm_medium=api_v3_business_search&utm_source=vyhy616UjsMTA_hrWyg_5w", "review_count": 414, "categories": [{"alias": "peruvian", "title": "Peruvian"}, {"alias": "japanese", "title": "Japanese"}, {"alias": "seafood", "title": "Seafood"}], "rating": 4.0, "coordinates": {"latitude": 26.11752477, "longitude": -80.39141264}, "transactions": ["delivery", "pickup"], "price": "$$", "location": {"address1": "288 Indian Trace", "address2": null, "address3": "", "city": "Weston", "zip_code": "33326", "country": "US", "state": "FL", "display_address": ["288 Indian Trace", "Weston, FL 33326"]}, "phone": "+19543855585", "display_phone": "(954) 385-5585", "distance": 6276.718438628109}, {"id": "Jh-zjXcSvyusiUpDvp6VKQ", "alias": "545-banh-mi-cafe-davie-4", "name": "545\u00b0 Banh Mi Cafe", "image_url": "https://s3-media3.fl.yelpcdn.com/bphoto/Myg_dDYDBO80OZYfwNiT7A/o.jpg", "is_closed": false, "url": "https://www.yelp.com/biz/545-banh-mi-cafe-davie-4?adjust_creative=vyhy616UjsMTA_hrWyg_5w&utm_campaign=yelp_api_v3&utm_medium=api_v3_business_search&utm_source=vyhy616UjsMTA_hrWyg_5w", "review_count": 678, "categories": [{"alias": "vietnamese", "title": "Vietnamese"}, {"alias": "juicebars", "title": "Juice Bars & Smoothies"}, {"alias": "sandwiches", "title": "Sandwiches"}], "rating": 4.5, "coordinates": {"latitude": 26.0461601, "longitude": -80.2324228}, "transactions": ["delivery"], "price": "$", "location": {"address1": "6461 Stirling Rd", "address2": null, "address3": "", "city": "Davie", "zip_code": "33314", "country": "US", "state": "FL", "display_address": ["6461 Stirling Rd", "Davie, FL 33314"]}, "phone": "+19545815048", "display_phone": "(954) 581-5048", "distance": 23944.399053316607}, {"id": "ekURsNNa9gxXfQCvqSROYQ", "alias": "wontons-on-wheels-pembroke-pines", "name": "Wontons On Wheels", "image_url": "https://s3-media1.fl.yelpcdn.com/bphoto/aIoJ8npuOvQ_N3Fbhrww3A/o.jpg", "is_closed": false, "url": "https://www.yelp.com/biz/wontons-on-wheels-pembroke-pines?adjust_creative=vyhy616UjsMTA_hrWyg_5w&utm_campaign=yelp_api_v3&utm_medium=api_v3_business_search&utm_source=vyhy616UjsMTA_hrWyg_5w", "review_count": 48, "categories": [{"alias": "foodtrucks", "title": "Food Trucks"}, {"alias": "asianfusion", "title": "Asian Fusion"}], "rating": 4.5, "coordinates": {"latitude": 26.0160133, "longitude": -80.4299573}, "transactions": [], "location": {"address1": "20911 Johnson St", "address2": "Ste 122", "address3": "", "city": "Pembroke Pines", "zip_code": "33029", "country": "US", "state": "FL", "display_address": ["20911 Johnson St", "Ste 122", "Pembroke Pines, FL 33029"]}, "phone": "+19543256191", "display_phone": "(954) 325-6191", "distance": 14252.849191465912}, {"id": "UmeKgVNjRcBXcRfmHsHNtQ", "alias": "kin-asian-street-food-pompano-beach", "name": "Kin Asian Street Food", "image_url": "https://s3-media1.fl.yelpcdn.com/bphoto/HD4NqEPCwavlVuyXuFM6rQ/o.jpg", "is_closed": false, "url": "https://www.yelp.com/biz/kin-asian-street-food-pompano-beach?adjust_creative=vyhy616UjsMTA_hrWyg_5w&utm_campaign=yelp_api_v3&utm_medium=api_v3_business_search&utm_source=vyhy616UjsMTA_hrWyg_5w", "review_count": 488, "categories": [{"alias": "japanese", "title": "Japanese"}, {"alias": "thai", "title": "Thai"}, {"alias": "korean", "title": "Korean"}], "rating": 4.5, "coordinates": {"latitude": 26.2227309, "longitude": -80.1254049}, "transactions": ["delivery", "pickup"], "price": "$$", "location": {"address1": "143 SW 6th St", "address2": "", "address3": "", "city": "Pompano Beach", "zip_code": "33060", "country": "US", "state": "FL", "display_address": ["143 SW 6th St", "Pompano Beach, FL 33060"]}, "phone": "+19545324567", "display_phone": "(954) 532-4567", "distance": 33307.11410105963}, {"id": "tjWK__4f6JgocsYwJSuUXw", "alias": "riceup-asian-kitchen-pembroke-pines", "name": "Riceup Asian Kitchen", "image_url": "https://s3-media2.fl.yelpcdn.com/bphoto/z06mNjKxn5mehJ3kgmCeqQ/o.jpg", "is_closed": false, "url": "https://www.yelp.com/biz/riceup-asian-kitchen-pembroke-pines?adjust_creative=vyhy616UjsMTA_hrWyg_5w&utm_campaign=yelp_api_v3&utm_medium=api_v3_business_search&utm_source=vyhy616UjsMTA_hrWyg_5w", "review_count": 44, "categories": [{"alias": "chinese", "title": "Chinese"}, {"alias": "sushi", "title": "Sushi Bars"}, {"alias": "asianfusion", "title": "Asian Fusion"}], "rating": 4.5, "coordinates": {"latitude": 26.024767, "longitude": -80.250368}, "transactions": ["delivery", "pickup"], "location": {"address1": "1748 N University Dr", "address2": null, "address3": "", "city": "Pembroke Pines", "zip_code": "33024", "country": "US", "state": "FL", "display_address": ["1748 N University Dr", "Pembroke Pines, FL 33024"]}, "phone": "+19543929898", "display_phone": "(954) 392-9898", "distance": 23678.639488240107}, {"id": "SZtx_zQsVwcmJi5zxWlrKg", "alias": "etaru-hallandale-beach-2", "name": "ETARU", "image_url": "https://s3-media2.fl.yelpcdn.com/bphoto/BEjTPvDXw_FZlou0-NS9xA/o.jpg", "is_closed": false, "url": "https://www.yelp.com/biz/etaru-hallandale-beach-2?adjust_creative=vyhy616UjsMTA_hrWyg_5w&utm_campaign=yelp_api_v3&utm_medium=api_v3_business_search&utm_source=vyhy616UjsMTA_hrWyg_5w", "review_count": 343, "categories": [{"alias": "japanese", "title": "Japanese"}, {"alias": "cocktailbars", "title": "Cocktail Bars"}], "rating": 4.0, "coordinates": {"latitude": 25.98648, "longitude": -80.117847}, "transactions": ["delivery", "pickup"], "price": "$$$$", "location": {"address1": "111 S Surf Rd", "address2": null, "address3": "", "city": "Hallandale Beach", "zip_code": "33009", "country": "US", "state": "FL", "display_address": ["111 S Surf Rd", "Hallandale Beach, FL 33009"]}, "phone": "+19542713222", "display_phone": "(954) 271-3222", "distance": 37218.192495788935}, {"id": "2ec1aEtSYPL3rKTuweSxYA", "alias": "107-taste-miami-lakes-miami-lakes-2", "name": "107 Taste - Miami Lakes", "image_url": "https://s3-media4.fl.yelpcdn.com/bphoto/kG5qDc4B43eY367rIfXo4A/o.jpg", "is_closed": false, "url": "https://www.yelp.com/biz/107-taste-miami-lakes-miami-lakes-2?adjust_creative=vyhy616UjsMTA_hrWyg_5w&utm_campaign=yelp_api_v3&utm_medium=api_v3_business_search&utm_source=vyhy616UjsMTA_hrWyg_5w", "review_count": 355, "categories": [{"alias": "asianfusion", "title": "Asian Fusion"}, {"alias": "ramen", "title": "Ramen"}, {"alias": "panasian", "title": "Pan Asian"}], "rating": 4.5, "coordinates": {"latitude": 25.9133462, "longitude": -80.3097048}, "transactions": ["delivery"], "price": "$$", "location": {"address1": "6705 Main St", "address2": null, "address3": "", "city": "Miami Lakes", "zip_code": "33014", "country": "US", "state": "FL", "display_address": ["6705 Main St", "Miami Lakes, FL 33014"]}, "phone": "+17865588146", "display_phone": "(786) 558-8146", "distance": 29032.05933265023}, {"id": "MfkZSdJ0w4-SOLJiEyHU5A", "alias": "kyu-miami", "name": "KYU", "image_url": "https://s3-media4.fl.yelpcdn.com/bphoto/oKAywutjeE68WBxEQQolFw/o.jpg", "is_closed": false, "url": "https://www.yelp.com/biz/kyu-miami?adjust_creative=vyhy616UjsMTA_hrWyg_5w&utm_campaign=yelp_api_v3&utm_medium=api_v3_business_search&utm_source=vyhy616UjsMTA_hrWyg_5w", "review_count": 1502, "categories": [{"alias": "asianfusion", "title": "Asian Fusion"}], "rating": 4.5, "coordinates": {"latitude": 25.80089, "longitude": -80.20017}, "transactions": ["delivery", "pickup"], "price": "$$$", "location": {"address1": "251 NW 25th St", "address2": null, "address3": "", "city": "Miami", "zip_code": "33127", "country": "US", "state": "FL", "display_address": ["251 NW 25th St", "Miami, FL 33127"]}, "phone": "+17865770150", "display_phone": "(786) 577-0150", "distance": 45383.6706427647}, {"id": "KwhyWppdalvEeuDjUG87MA", "alias": "asian-gardens-hialeah", "name": "Asian Gardens", "image_url": "https://s3-media4.fl.yelpcdn.com/bphoto/akCdEHBYLfoBi_mrJbcd5Q/o.jpg", "is_closed": false, "url": "https://www.yelp.com/biz/asian-gardens-hialeah?adjust_creative=vyhy616UjsMTA_hrWyg_5w&utm_campaign=yelp_api_v3&utm_medium=api_v3_business_search&utm_source=vyhy616UjsMTA_hrWyg_5w", "review_count": 287, "categories": [{"alias": "chinese", "title": "Chinese"}, {"alias": "sushi", "title": "Sushi Bars"}, {"alias": "japanese", "title": "Japanese"}], "rating": 4.5, "coordinates": {"latitude": 25.88476, "longitude": -80.33268}, "transactions": ["delivery"], "price": "$", "location": {"address1": "2451 W 68th St", "address2": "Ste 4", "address3": "", "city": "Hialeah", "zip_code": "33016", "country": "US", "state": "FL", "display_address": ["2451 W 68th St", "Ste 4", "Hialeah, FL 33016"]}, "phone": "+13055583933", "display_phone": "(305) 558-3933", "distance": 30928.04676685697}, {"id": "w_HZmBCiTTEjyWhFW3pWSg", "alias": "firi-bistro-asian-cuisine-pompano-beach-8", "name": "Firi Bistro Asian Cuisine", "image_url": "https://s3-media1.fl.yelpcdn.com/bphoto/pUjg_yo1EsnnHCok7J-gKQ/o.jpg", "is_closed": false, "url": "https://www.yelp.com/biz/firi-bistro-asian-cuisine-pompano-beach-8?adjust_creative=vyhy616UjsMTA_hrWyg_5w&utm_campaign=yelp_api_v3&utm_medium=api_v3_business_search&utm_source=vyhy616UjsMTA_hrWyg_5w", "review_count": 174, "categories": [{"alias": "chinese", "title": "Chinese"}, {"alias": "panasian", "title": "Pan Asian"}, {"alias": "asianfusion", "title": "Asian Fusion"}], "rating": 4.5, "coordinates": {"latitude": 26.2229564, "longitude": -80.1267356}, "transactions": ["delivery", "pickup"], "price": "$$", "location": {"address1": "225 SW 6th St", "address2": "", "address3": null, "city": "Pompano Beach", "zip_code": "33060", "country": "US", "state": "FL", "display_address": ["225 SW 6th St", "Pompano Beach, FL 33060"]}, "phone": "+19549605489", "display_phone": "(954) 960-5489", "distance": 33201.58324653855}, {"id": "cuSsc_OXJK_iGHko9OQCQA", "alias": "sushi-yama-kvs-boca-raton-2", "name": "Sushi Yama KVS", "image_url": "https://s3-media2.fl.yelpcdn.com/bphoto/BPVd6WPoBo5xegqIeBvIkw/o.jpg", "is_closed": false, "url": "https://www.yelp.com/biz/sushi-yama-kvs-boca-raton-2?adjust_creative=vyhy616UjsMTA_hrWyg_5w&utm_campaign=yelp_api_v3&utm_medium=api_v3_business_search&utm_source=vyhy616UjsMTA_hrWyg_5w", "review_count": 2, "categories": [{"alias": "asianfusion", "title": "Asian Fusion"}, {"alias": "sushi", "title": "Sushi Bars"}, {"alias": "japanese", "title": "Japanese"}], "rating": 5.0, "coordinates": {"latitude": 26.36919, "longitude": -80.2008}, "transactions": ["delivery", "pickup"], "location": {"address1": "9845 Glades Rd", "address2": null, "address3": "", "city": "Boca Raton", "zip_code": "33434", "country": "US", "state": "FL", "display_address": ["9845 Glades Rd", "Boca Raton, FL 33434"]}, "phone": "+15614652586", "display_phone": "(561) 465-2586", "distance": 35156.76395561998}, {"id": "M-fkYEUiajPrMEED2MJTWQ", "alias": "amazing-thai-and-japanese-pembroke-pines-2", "name": "Amazing Thai & Japanese", "image_url": "https://s3-media1.fl.yelpcdn.com/bphoto/dI-KO0Iv3VQ-H4NkrboV9Q/o.jpg", "is_closed": false, "url": "https://www.yelp.com/biz/amazing-thai-and-japanese-pembroke-pines-2?adjust_creative=vyhy616UjsMTA_hrWyg_5w&utm_campaign=yelp_api_v3&utm_medium=api_v3_business_search&utm_source=vyhy616UjsMTA_hrWyg_5w", "review_count": 121, "categories": [{"alias": "panasian", "title": "Pan Asian"}], "rating": 3.5, "coordinates": {"latitude": 26.009908, "longitude": -80.393483}, "transactions": [], "price": "$$", "location": {"address1": "18411 Pines Blvd", "address2": null, "address3": null, "city": "Pembroke Pines", "zip_code": "33029", "country": "US", "state": "FL", "display_address": ["18411 Pines Blvd", "Pembroke Pines, FL 33029"]}, "phone": "+19544328883", "display_phone": "(954) 432-8883", "distance": 15774.546246068501}, {"id": "bv4Ok1HeJ09NHZzwTtij0A", "alias": "temple-street-eatery-fort-lauderdale", "name": "Temple Street Eatery", "image_url": "https://s3-media2.fl.yelpcdn.com/bphoto/xzx26hY3B31YcwsAwIZsEQ/o.jpg", "is_closed": false, "url": "https://www.yelp.com/biz/temple-street-eatery-fort-lauderdale?adjust_creative=vyhy616UjsMTA_hrWyg_5w&utm_campaign=yelp_api_v3&utm_medium=api_v3_business_search&utm_source=vyhy616UjsMTA_hrWyg_5w", "review_count": 673, "categories": [{"alias": "asianfusion", "title": "Asian Fusion"}, {"alias": "newamerican", "title": "American (New)"}, {"alias": "comfortfood", "title": "Comfort Food"}], "rating": 4.0, "coordinates": {"latitude": 26.1263443293, "longitude": -80.1366865754002}, "transactions": ["delivery"], "price": "$$", "location": {"address1": "416 N Federal Hwy", "address2": "", "address3": "", "city": "Fort Lauderdale", "zip_code": "33301", "country": "US", "state": "FL", "display_address": ["416 N Federal Hwy", "Fort Lauderdale, FL 33301"]}, "phone": "+17547010976", "display_phone": "(754) 701-0976", "distance": 31072.926718293358}, {"id": "m3_hbRLen_WJ3snMvGRHpg", "alias": "gopho-davie", "name": "GoPho", "image_url": "https://s3-media2.fl.yelpcdn.com/bphoto/2gduZE81QWKla4wynDKAUA/o.jpg", "is_closed": false, "url": "https://www.yelp.com/biz/gopho-davie?adjust_creative=vyhy616UjsMTA_hrWyg_5w&utm_campaign=yelp_api_v3&utm_medium=api_v3_business_search&utm_source=vyhy616UjsMTA_hrWyg_5w", "review_count": 63, "categories": [{"alias": "vietnamese", "title": "Vietnamese"}, {"alias": "sandwiches", "title": "Sandwiches"}, {"alias": "noodles", "title": "Noodles"}], "rating": 4.0, "coordinates": {"latitude": 26.094222352463532, "longitude": -80.24944926825377}, "transactions": [], "location": {"address1": "2262 S University Dr", "address2": null, "address3": "", "city": "Davie", "zip_code": "33324", "country": "US", "state": "FL", "display_address": ["2262 S University Dr", "Davie, FL 33324"]}, "phone": "+19543676044", "display_phone": "(954) 367-6044", "distance": 20499.819247003797}, {"id": "GBFM_niGZK3Tbu84ep5Pag", "alias": "bento-asian-kitchen-sushi-davie-4", "name": "Bento Asian Kitchen + Sushi", "image_url": "https://s3-media4.fl.yelpcdn.com/bphoto/MCVQ1rT4LQgXY9F0tiU__g/o.jpg", "is_closed": false, "url": "https://www.yelp.com/biz/bento-asian-kitchen-sushi-davie-4?adjust_creative=vyhy616UjsMTA_hrWyg_5w&utm_campaign=yelp_api_v3&utm_medium=api_v3_business_search&utm_source=vyhy616UjsMTA_hrWyg_5w", "review_count": 579, "categories": [{"alias": "sushi", "title": "Sushi Bars"}, {"alias": "asianfusion", "title": "Asian Fusion"}, {"alias": "chinese", "title": "Chinese"}], "rating": 4.0, "coordinates": {"latitude": 26.094129, "longitude": -80.249574}, "transactions": ["delivery", "pickup"], "price": "$$", "location": {"address1": "2260 S University Dr", "address2": "", "address3": null, "city": "Davie", "zip_code": "33324", "country": "US", "state": "FL", "display_address": ["2260 S University Dr", "Davie, FL 33324"]}, "phone": "+17542008375", "display_phone": "(754) 200-8375", "distance": 20490.58558077214}, {"id": "EfWluaKa17uYuoQ_Jq0oWg", "alias": "embarcadero-41-sunrise", "name": "Embarcadero 41", "image_url": "https://s3-media1.fl.yelpcdn.com/bphoto/UOXwBXmpG2fzv0fz4pYQzw/o.jpg", "is_closed": false, "url": "https://www.yelp.com/biz/embarcadero-41-sunrise?adjust_creative=vyhy616UjsMTA_hrWyg_5w&utm_campaign=yelp_api_v3&utm_medium=api_v3_business_search&utm_source=vyhy616UjsMTA_hrWyg_5w", "review_count": 63, "categories": [{"alias": "peruvian", "title": "Peruvian"}, {"alias": "seafood", "title": "Seafood"}], "rating": 4.5, "coordinates": {"latitude": 26.123424, "longitude": -80.33077467}, "transactions": ["delivery"], "location": {"address1": "189 NW 136th Ave", "address2": "", "address3": null, "city": "Sunrise", "zip_code": "33325", "country": "US", "state": "FL", "display_address": ["189 NW 136th Ave", "Sunrise, FL 33325"]}, "phone": "+19543683452", "display_phone": "(954) 368-3452", "distance": 11842.38900144832}, {"id": "IOQaPN-l9VwV6bpHWGbk6g", "alias": "imasa-sushi-davie", "name": "Imasa Sushi", "image_url": "https://s3-media4.fl.yelpcdn.com/bphoto/moALub6R4XUR7jM7gikdXA/o.jpg", "is_closed": false, "url": "https://www.yelp.com/biz/imasa-sushi-davie?adjust_creative=vyhy616UjsMTA_hrWyg_5w&utm_campaign=yelp_api_v3&utm_medium=api_v3_business_search&utm_source=vyhy616UjsMTA_hrWyg_5w", "review_count": 227, "categories": [{"alias": "sushi", "title": "Sushi Bars"}, {"alias": "japanese", "title": "Japanese"}, {"alias": "asianfusion", "title": "Asian Fusion"}], "rating": 4.5, "coordinates": {"latitude": 26.0447099, "longitude": -80.25903}, "transactions": ["delivery"], "price": "$$", "location": {"address1": "8570 Stirling Rd", "address2": null, "address3": "", "city": "Davie", "zip_code": "33024", "country": "US", "state": "FL", "display_address": ["8570 Stirling Rd", "Davie, FL 33024"]}, "phone": "+19547431909", "display_phone": "(954) 743-1909", "distance": 21770.4327946903}, {"id": "jNsuBckmOyl8G1HP85zXQg", "alias": "krakatoa-indonesian-cuisine-hollywood-2", "name": "Krakatoa Indonesian Cuisine", "image_url": "https://s3-media4.fl.yelpcdn.com/bphoto/7vDwJ6a7seDvlW5UuZGEVw/o.jpg", "is_closed": false, "url": "https://www.yelp.com/biz/krakatoa-indonesian-cuisine-hollywood-2?adjust_creative=vyhy616UjsMTA_hrWyg_5w&utm_campaign=yelp_api_v3&utm_medium=api_v3_business_search&utm_source=vyhy616UjsMTA_hrWyg_5w", "review_count": 144, "categories": [{"alias": "indonesian", "title": "Indonesian"}], "rating": 5.0, "coordinates": {"latitude": 26.01114, "longitude": -80.14549}, "transactions": ["delivery", "pickup"], "price": "$$", "location": {"address1": "1910 Hollywood Blvd", "address2": null, "address3": "", "city": "Hollywood", "zip_code": "33020", "country": "US", "state": "FL", "display_address": ["1910 Hollywood Blvd", "Hollywood, FL 33020"]}, "phone": "+17542210914", "display_phone": "(754) 221-0914", "distance": 33540.91713959172}, {"id": "GkaIOHp35kjBYbC_sHazRQ", "alias": "mainland-china-bistro-coral-springs-3", "name": "Mainland China Bistro", "image_url": "https://s3-media4.fl.yelpcdn.com/bphoto/Hx71U5GxBv4zIxjSZOAuGQ/o.jpg", "is_closed": false, "url": "https://www.yelp.com/biz/mainland-china-bistro-coral-springs-3?adjust_creative=vyhy616UjsMTA_hrWyg_5w&utm_campaign=yelp_api_v3&utm_medium=api_v3_business_search&utm_source=vyhy616UjsMTA_hrWyg_5w", "review_count": 476, "categories": [{"alias": "chinese", "title": "Chinese"}], "rating": 3.5, "coordinates": {"latitude": 26.2608290317206, "longitude": -80.2493018041286}, "transactions": ["delivery", "pickup"], "price": "$$", "location": {"address1": "2445 N University Dr", "address2": "", "address3": null, "city": "Coral Springs", "zip_code": "33065", "country": "US", "state": "FL", "display_address": ["2445 N University Dr", "Coral Springs, FL 33065"]}, "phone": "+19545268888", "display_phone": "(954) 526-8888", "distance": 23697.076416737586}, {"id": "lbDr1EymyZdyKvr0_3VdVg", "alias": "in-ramen-dania-beach", "name": "In Ramen", "image_url": "https://s3-media2.fl.yelpcdn.com/bphoto/j8E6L6r8PRYW9m8KuNtfAA/o.jpg", "is_closed": false, "url": "https://www.yelp.com/biz/in-ramen-dania-beach?adjust_creative=vyhy616UjsMTA_hrWyg_5w&utm_campaign=yelp_api_v3&utm_medium=api_v3_business_search&utm_source=vyhy616UjsMTA_hrWyg_5w", "review_count": 60, "categories": [{"alias": "ramen", "title": "Ramen"}, {"alias": "noodles", "title": "Noodles"}], "rating": 4.5, "coordinates": {"latitude": 26.0515077, "longitude": -80.1599349}, "transactions": [], "location": {"address1": "19 S Pointe Dr", "address2": null, "address3": "", "city": "Dania Beach", "zip_code": "33004", "country": "US", "state": "FL", "display_address": ["19 S Pointe Dr", "Dania Beach, FL 33004"]}, "phone": "+19545804299", "display_phone": "(954) 580-4299", "distance": 30458.97318719524}, {"id": "da7xVcYcrX-PpoF_qFwTCQ", "alias": "korea-restaurant-fort-lauderdale", "name": "Korea Restaurant", "image_url": "https://s3-media3.fl.yelpcdn.com/bphoto/x7bqTtI8Yy1EiHKhndJadw/o.jpg", "is_closed": false, "url": "https://www.yelp.com/biz/korea-restaurant-fort-lauderdale?adjust_creative=vyhy616UjsMTA_hrWyg_5w&utm_campaign=yelp_api_v3&utm_medium=api_v3_business_search&utm_source=vyhy616UjsMTA_hrWyg_5w", "review_count": 26, "categories": [{"alias": "korean", "title": "Korean"}, {"alias": "bbq", "title": "Barbeque"}, {"alias": "asianfusion", "title": "Asian Fusion"}], "rating": 5.0, "coordinates": {"latitude": 26.16678, "longitude": -80.263133}, "transactions": ["delivery", "pickup"], "location": {"address1": "8438 W Oakland Park Blvd", "address2": null, "address3": "", "city": "Fort Lauderdale", "zip_code": "33351", "country": "US", "state": "FL", "display_address": ["8438 W Oakland Park Blvd", "Fort Lauderdale, FL 33351"]}, "phone": "+17547797130", "display_phone": "(754) 779-7130", "distance": 18573.500666193675}, {"id": "QH9SvFBF70DyWd_xqXXy7A", "alias": "red-ginger-aboard-oceania-marina-miami", "name": "Red Ginger aboard Oceania Marina", "image_url": "https://s3-media2.fl.yelpcdn.com/bphoto/WYvIGDTpIY3-dIaov_VNPQ/o.jpg", "is_closed": false, "url": "https://www.yelp.com/biz/red-ginger-aboard-oceania-marina-miami?adjust_creative=vyhy616UjsMTA_hrWyg_5w&utm_campaign=yelp_api_v3&utm_medium=api_v3_business_search&utm_source=vyhy616UjsMTA_hrWyg_5w", "review_count": 6, "categories": [{"alias": "asianfusion", "title": "Asian Fusion"}], "rating": 5.0, "coordinates": {"latitude": 25.8032741546631, "longitude": -80.3315277099609}, "transactions": [], "location": {"address1": "8300 NW 33rd St", "address2": "", "address3": "", "city": "Miami", "zip_code": "33122", "country": "US", "state": "FL", "display_address": ["8300 NW 33rd St", "Miami, FL 33122"]}, "phone": "+13055142300", "display_phone": "(305) 514-2300", "distance": 39430.903370296815}, {"id": "tI6DNFkWPjrVvjKUvaPzVw", "alias": "phat-boy-sushi-and-kitchen-coral-springs-coral-springs-3", "name": "Phat Boy Sushi & Kitchen - Coral Springs", "image_url": "https://s3-media3.fl.yelpcdn.com/bphoto/o2grtYW-AM6OLaHH2CTz0g/o.jpg", "is_closed": false, "url": "https://www.yelp.com/biz/phat-boy-sushi-and-kitchen-coral-springs-coral-springs-3?adjust_creative=vyhy616UjsMTA_hrWyg_5w&utm_campaign=yelp_api_v3&utm_medium=api_v3_business_search&utm_source=vyhy616UjsMTA_hrWyg_5w", "review_count": 165, "categories": [{"alias": "japanese", "title": "Japanese"}, {"alias": "sushi", "title": "Sushi Bars"}, {"alias": "asianfusion", "title": "Asian Fusion"}], "rating": 4.5, "coordinates": {"latitude": 26.263447, "longitude": -80.250806}, "transactions": ["delivery", "pickup"], "location": {"address1": "2702 N University Dr", "address2": null, "address3": "", "city": "Coral Springs", "zip_code": "33065", "country": "US", "state": "FL", "display_address": ["2702 N University Dr", "Coral Springs, FL 33065"]}, "phone": "+19543608456", "display_phone": "(954) 360-8456", "distance": 23732.125350246384}, {"id": "cb0GMXY9P3kmFTr8am3qAQ", "alias": "shiitake-asian-bistro-delray-beach", "name": "Shiitake Asian Bistro", "image_url": "https://s3-media3.fl.yelpcdn.com/bphoto/WsaA_7v8snQ3ygKlORQNxQ/o.jpg", "is_closed": false, "url": "https://www.yelp.com/biz/shiitake-asian-bistro-delray-beach?adjust_creative=vyhy616UjsMTA_hrWyg_5w&utm_campaign=yelp_api_v3&utm_medium=api_v3_business_search&utm_source=vyhy616UjsMTA_hrWyg_5w", "review_count": 66, "categories": [{"alias": "thai", "title": "Thai"}], "rating": 4.5, "coordinates": {"latitude": 26.437627693976, "longitude": -80.1204517326818}, "transactions": ["delivery", "pickup"], "price": "$$", "location": {"address1": "4900 Linton Blvd", "address2": "Ste 14", "address3": null, "city": "Delray Beach", "zip_code": "33445", "country": "US", "state": "FL", "display_address": ["4900 Linton Blvd", "Ste 14", "Delray Beach, FL 33445"]}, "phone": "+15618655538", "display_phone": "(561) 865-5538", "distance": 46194.19469394548}, {"id": "XtDB3ZWSQ9_WMR5NsYdbeA", "alias": "hawkers-asian-street-food-delray-beach-3", "name": "Hawkers Asian Street Food", "image_url": "https://s3-media1.fl.yelpcdn.com/bphoto/iKnQvQtg8I8Y4ry3SnAsKg/o.jpg", "is_closed": false, "url": "https://www.yelp.com/biz/hawkers-asian-street-food-delray-beach-3?adjust_creative=vyhy616UjsMTA_hrWyg_5w&utm_campaign=yelp_api_v3&utm_medium=api_v3_business_search&utm_source=vyhy616UjsMTA_hrWyg_5w", "review_count": 254, "categories": [{"alias": "asianfusion", "title": "Asian Fusion"}], "rating": 4.5, "coordinates": {"latitude": 26.46119, "longitude": -80.06625}, "transactions": ["delivery"], "location": {"address1": "640 E Atlantic Ave", "address2": null, "address3": "", "city": "Delray Beach", "zip_code": "33483", "country": "US", "state": "FL", "display_address": ["640 E Atlantic Ave", "Delray Beach, FL 33483"]}, "phone": "+15614854111", "display_phone": "(561) 485-4111", "distance": 51916.64890140885}, {"id": "rzhPAjB6n5cs2hV3Pm5_CQ", "alias": "gobistro-hollywood-2", "name": "GoBistro", "image_url": "https://s3-media2.fl.yelpcdn.com/bphoto/9GIzPeZrvxbDnDFyOgdQRA/o.jpg", "is_closed": false, "url": "https://www.yelp.com/biz/gobistro-hollywood-2?adjust_creative=vyhy616UjsMTA_hrWyg_5w&utm_campaign=yelp_api_v3&utm_medium=api_v3_business_search&utm_source=vyhy616UjsMTA_hrWyg_5w", "review_count": 1480, "categories": [{"alias": "sushi", "title": "Sushi Bars"}, {"alias": "ramen", "title": "Ramen"}], "rating": 4.5, "coordinates": {"latitude": 26.0115781, "longitude": -80.1486201}, "transactions": ["delivery"], "price": "$$", "location": {"address1": "2035 Hollywood Blvd", "address2": null, "address3": "", "city": "Hollywood", "zip_code": "33020", "country": "US", "state": "FL", "display_address": ["2035 Hollywood Blvd", "Hollywood, FL 33020"]}, "phone": "+17542632826", "display_phone": "(754) 263-2826", "distance": 33247.05143869947}, {"id": "UWWUttYjh1-N1A-DXuQ3oQ", "alias": "taikin-asian-cuisine-miami", "name": "Taikin Asian Cuisine", "image_url": "https://s3-media1.fl.yelpcdn.com/bphoto/RkYZZLONKeyrMDT591qU3Q/o.jpg", "is_closed": false, "url": "https://www.yelp.com/biz/taikin-asian-cuisine-miami?adjust_creative=vyhy616UjsMTA_hrWyg_5w&utm_campaign=yelp_api_v3&utm_medium=api_v3_business_search&utm_source=vyhy616UjsMTA_hrWyg_5w", "review_count": 308, "categories": [{"alias": "asianfusion", "title": "Asian Fusion"}, {"alias": "sushi", "title": "Sushi Bars"}, {"alias": "japanese", "title": "Japanese"}], "rating": 4.0, "coordinates": {"latitude": 25.8416730528005, "longitude": -80.3666130496067}, "transactions": ["delivery", "pickup"], "price": "$$", "location": {"address1": "7450 NW 104th Ave", "address2": "Ste C101", "address3": null, "city": "Miami", "zip_code": "33178", "country": "US", "state": "FL", "display_address": ["7450 NW 104th Ave", "Ste C101", "Miami, FL 33178"]}, "phone": "+18448245468", "display_phone": "(844) 824-5468", "distance": 34490.04201965357}], "total": 1400, "region": {"center": {"longitude": -80.4473876953125, "latitude": 26.143232714455042}}}