{"businesses": [{"id": "EVGPTVYEU65_tvMEBRPIYg", "alias": "good-chef-restaurant-miami", "name": "Good Chef Restaurant", "image_url": "https://s3-media3.fl.yelpcdn.com/bphoto/GzqYb-QhbPWfJGB1vseLWQ/o.jpg", "is_closed": false, "url": "https://www.yelp.com/biz/good-chef-restaurant-miami?adjust_creative=vyhy616UjsMTA_hrWyg_5w&utm_campaign=yelp_api_v3&utm_medium=api_v3_business_search&utm_source=vyhy616UjsMTA_hrWyg_5w", "review_count": 34, "categories": [{"alias": "asianfusion", "title": "Asian Fusion"}, {"alias": "bubbletea", "title": "Bubble Tea"}, {"alias": "ramen", "title": "Ramen"}], "rating": 4.5, "coordinates": {"latitude": 25.767745, "longitude": -80.36805}, "transactions": ["delivery", "pickup"], "location": {"address1": "113 S W 107th Ave", "address2": null, "address3": null, "city": "Miami", "zip_code": "33174", "country": "US", "state": "FL", "display_address": ["113 S W 107th Ave", "Miami, FL 33174"]}, "phone": "+17867632008", "display_phone": "(786) 763-2008", "distance": 8179.604746031143}, {"id": "XXk0WJoXomMPlXsISgnXUQ", "alias": "107-taste-miami-11", "name": "107 Taste", "image_url": "https://s3-media1.fl.yelpcdn.com/bphoto/5_MLlLOFekXyBVi55v0sEA/o.jpg", "is_closed": false, "url": "https://www.yelp.com/biz/107-taste-miami-11?adjust_creative=vyhy616UjsMTA_hrWyg_5w&utm_campaign=yelp_api_v3&utm_medium=api_v3_business_search&utm_source=vyhy616UjsMTA_hrWyg_5w", "review_count": 860, "categories": [{"alias": "ramen", "title": "Ramen"}, {"alias": "panasian", "title": "Pan Asian"}], "rating": 4.5, "coordinates": {"latitude": 25.7527, "longitude": -80.367311}, "transactions": ["delivery", "pickup"], "price": "$$", "location": {"address1": "1679 SW 107th Ave", "address2": "", "address3": "", "city": "Miami", "zip_code": "33165", "country": "US", "state": "FL", "display_address": ["1679 SW 107th Ave", "Miami, FL 33165"]}, "phone": "+17867176378", "display_phone": "(786) 717-6378", "distance": 7934.444772072226}, {"id": "01FDp4ng4vuKBYTTwqSCeQ", "alias": "fuchai-miami-2", "name": "Fuchai", "image_url": "https://s3-media3.fl.yelpcdn.com/bphoto/VJbiS1MWSKL39YPj8vjAhA/o.jpg", "is_closed": false, "url": "https://www.yelp.com/biz/fuchai-miami-2?adjust_creative=vyhy616UjsMTA_hrWyg_5w&utm_campaign=yelp_api_v3&utm_medium=api_v3_business_search&utm_source=vyhy616UjsMTA_hrWyg_5w", "review_count": 249, "categories": [{"alias": "korean", "title": "Korean"}, {"alias": "asianfusion", "title": "Asian Fusion"}], "rating": 4.5, "coordinates": {"latitude": 25.8010114, "longitude": -80.1910924}, "transactions": ["delivery", "pickup"], "price": "$$", "location": {"address1": "2506 NE 2nd Ave", "address2": "", "address3": null, "city": "Miami", "zip_code": "33137", "country": "US", "state": "FL", "display_address": ["2506 NE 2nd Ave", "Miami, FL 33137"]}, "phone": "+17866550888", "display_phone": "(786) 655-0888", "distance": 11087.837212411807}, {"id": "PUN_di3c9KDaPY6kEa924w", "alias": "kon-chau-restaurant-miami", "name": "Kon Chau Restaurant", "image_url": "https://s3-media2.fl.yelpcdn.com/bphoto/DpiaAQc4vc_dcR-sp6Rykg/o.jpg", "is_closed": false, "url": "https://www.yelp.com/biz/kon-chau-restaurant-miami?adjust_creative=vyhy616UjsMTA_hrWyg_5w&utm_campaign=yelp_api_v3&utm_medium=api_v3_business_search&utm_source=vyhy616UjsMTA_hrWyg_5w", "review_count": 723, "categories": [{"alias": "dimsum", "title": "Dim Sum"}], "rating": 4.0, "coordinates": {"latitude": 25.7324881946529, "longitude": -80.3311729431153}, "transactions": [], "price": "$$", "location": {"address1": "8376 SW 40th St", "address2": "", "address3": "", "city": "Miami", "zip_code": "33155", "country": "US", "state": "FL", "display_address": ["8376 SW 40th St", "Miami, FL 33155"]}, "phone": "+13055537799", "display_phone": "(305) 553-7799", "distance": 4868.46632057766}, {"id": "sAqV3GmjGLn0w5qUpZpvvQ", "alias": "ichimi-gables-coral-gables-2", "name": "Ichimi - Gables", "image_url": "https://s3-media4.fl.yelpcdn.com/bphoto/EQ4OKiNBeTPDyBO9rnhqiw/o.jpg", "is_closed": false, "url": "https://www.yelp.com/biz/ichimi-gables-coral-gables-2?adjust_creative=vyhy616UjsMTA_hrWyg_5w&utm_campaign=yelp_api_v3&utm_medium=api_v3_business_search&utm_source=vyhy616UjsMTA_hrWyg_5w", "review_count": 1125, "categories": [{"alias": "ramen", "title": "Ramen"}, {"alias": "asianfusion", "title": "Asian Fusion"}, {"alias": "izakaya", "title": "Izakaya"}], "rating": 4.5, "coordinates": {"latitude": 25.7499753752716, "longitude": -80.2608069693115}, "transactions": ["delivery", "pickup"], "price": "$$", "location": {"address1": "2330 Salzedo St", "address2": "", "address3": "", "city": "Coral Gables", "zip_code": "33134", "country": "US", "state": "FL", "display_address": ["2330 Salzedo St", "Coral Gables, FL 33134"]}, "phone": "+13059607016", "display_phone": "(305) 960-7016", "distance": 2749.4500244061833}, {"id": "frZU4Uqonbj8CIb93NQqGw", "alias": "enya-asian-bistro-miami", "name": "Enya Asian Bistro", "image_url": "https://s3-media1.fl.yelpcdn.com/bphoto/aSQ8B0y2CtfSCGSSOyczHg/o.jpg", "is_closed": false, "url": "https://www.yelp.com/biz/enya-asian-bistro-miami?adjust_creative=vyhy616UjsMTA_hrWyg_5w&utm_campaign=yelp_api_v3&utm_medium=api_v3_business_search&utm_source=vyhy616UjsMTA_hrWyg_5w", "review_count": 103, "categories": [{"alias": "asianfusion", "title": "Asian Fusion"}, {"alias": "sushi", "title": "Sushi Bars"}, {"alias": "noodles", "title": "Noodles"}], "rating": 4.5, "coordinates": {"latitude": 25.740993, "longitude": -80.238167}, "transactions": ["delivery", "pickup"], "price": "$$", "location": {"address1": "2774 SW 27th Ave", "address2": null, "address3": "", "city": "Miami", "zip_code": "33133", "country": "US", "state": "FL", "display_address": ["2774 SW 27th Ave", "Miami, FL 33133"]}, "phone": "+13052005309", "display_phone": "(305) 200-5309", "distance": 5167.859751009017}, {"id": "oWLJNm3IIWsHyX4okWwbZg", "alias": "red-shallot-doral", "name": "Red Shallot", "image_url": "https://s3-media2.fl.yelpcdn.com/bphoto/1D9O4BtSksiZyhgCgw7BVQ/o.jpg", "is_closed": false, "url": "https://www.yelp.com/biz/red-shallot-doral?adjust_creative=vyhy616UjsMTA_hrWyg_5w&utm_campaign=yelp_api_v3&utm_medium=api_v3_business_search&utm_source=vyhy616UjsMTA_hrWyg_5w", "review_count": 295, "categories": [{"alias": "chinese", "title": "Chinese"}, {"alias": "asianfusion", "title": "Asian Fusion"}, {"alias": "taiwanese", "title": "Taiwanese"}], "rating": 5.0, "coordinates": {"latitude": 25.79623, "longitude": -80.34329}, "transactions": ["delivery", "pickup"], "price": "$", "location": {"address1": "9032 NW 25th St", "address2": null, "address3": "", "city": "Doral", "zip_code": "33172", "country": "US", "state": "FL", "display_address": ["9032 NW 25th St", "Doral, FL 33172"]}, "phone": "+13054772513", "display_phone": "(305) 477-2513", "distance": 7340.714538437271}, {"id": "eo2W_Hakq3SVGUsUSBHvGw", "alias": "1-800-lucky-miami-2", "name": "1-800-Lucky", "image_url": "https://s3-media3.fl.yelpcdn.com/bphoto/gLTSIODfanXoT04Wrdf5-w/o.jpg", "is_closed": false, "url": "https://www.yelp.com/biz/1-800-lucky-miami-2?adjust_creative=vyhy616UjsMTA_hrWyg_5w&utm_campaign=yelp_api_v3&utm_medium=api_v3_business_search&utm_source=vyhy616UjsMTA_hrWyg_5w", "review_count": 1278, "categories": [{"alias": "asianfusion", "title": "Asian Fusion"}], "rating": 4.0, "coordinates": {"latitude": 25.79931, "longitude": -80.198}, "transactions": ["delivery"], "price": "$$", "location": {"address1": "143 NW 23rd St", "address2": null, "address3": "", "city": "Miami", "zip_code": "33127", "country": "US", "state": "FL", "display_address": ["143 NW 23rd St", "Miami, FL 33127"]}, "phone": "+13057689826", "display_phone": "(305) 768-9826", "distance": 10408.597899497685}, {"id": "wUgicT0LJbrHnav4d8SwSA", "alias": "gyu-kaku-japanese-bbq-miami", "name": "Gyu-Kaku Japanese BBQ", "image_url": "https://s3-media4.fl.yelpcdn.com/bphoto/5JRoFySu4ZaokigO8xMXFw/o.jpg", "is_closed": false, "url": "https://www.yelp.com/biz/gyu-kaku-japanese-bbq-miami?adjust_creative=vyhy616UjsMTA_hrWyg_5w&utm_campaign=yelp_api_v3&utm_medium=api_v3_business_search&utm_source=vyhy616UjsMTA_hrWyg_5w", "review_count": 1391, "categories": [{"alias": "japanese", "title": "Japanese"}, {"alias": "bbq", "title": "Barbeque"}, {"alias": "asianfusion", "title": "Asian Fusion"}], "rating": 4.0, "coordinates": {"latitude": 25.7614869910215, "longitude": -80.1943418392868}, "transactions": ["delivery"], "price": "$$", "location": {"address1": "34 SW 13th St", "address2": "Unit R1", "address3": "", "city": "Miami", "zip_code": "33130", "country": "US", "state": "FL", "display_address": ["34 SW 13th St", "Unit R1", "Miami, FL 33130"]}, "phone": "+13054008915", "display_phone": "(305) 400-8915", "distance": 9438.27640785988}, {"id": "hv9LbFn6RXu0Zsd560vOvQ", "alias": "bali-caf\u00e9-miami-2", "name": "Bali Caf\u00e9", "image_url": "https://s3-media3.fl.yelpcdn.com/bphoto/of3CLbLLOFGFIKjFBEhEFA/o.jpg", "is_closed": false, "url": "https://www.yelp.com/biz/bali-caf%C3%A9-miami-2?adjust_creative=vyhy616UjsMTA_hrWyg_5w&utm_campaign=yelp_api_v3&utm_medium=api_v3_business_search&utm_source=vyhy616UjsMTA_hrWyg_5w", "review_count": 403, "categories": [{"alias": "sushi", "title": "Sushi Bars"}, {"alias": "indonesian", "title": "Indonesian"}, {"alias": "asianfusion", "title": "Asian Fusion"}], "rating": 4.5, "coordinates": {"latitude": 25.77545, "longitude": -80.190207}, "transactions": ["delivery", "pickup"], "price": "$$", "location": {"address1": "109 NE 2nd Ave", "address2": "", "address3": "", "city": "Miami", "zip_code": "33132", "country": "US", "state": "FL", "display_address": ["109 NE 2nd Ave", "Miami, FL 33132"]}, "phone": "+13053585751", "display_phone": "(305) 358-5751", "distance": 10121.385548753831}, {"id": "MfkZSdJ0w4-SOLJiEyHU5A", "alias": "kyu-miami", "name": "KYU", "image_url": "https://s3-media4.fl.yelpcdn.com/bphoto/oKAywutjeE68WBxEQQolFw/o.jpg", "is_closed": false, "url": "https://www.yelp.com/biz/kyu-miami?adjust_creative=vyhy616UjsMTA_hrWyg_5w&utm_campaign=yelp_api_v3&utm_medium=api_v3_business_search&utm_source=vyhy616UjsMTA_hrWyg_5w", "review_count": 1502, "categories": [{"alias": "asianfusion", "title": "Asian Fusion"}], "rating": 4.5, "coordinates": {"latitude": 25.80089, "longitude": -80.20017}, "transactions": ["delivery", "pickup"], "price": "$$$", "location": {"address1": "251 NW 25th St", "address2": null, "address3": "", "city": "Miami", "zip_code": "33127", "country": "US", "state": "FL", "display_address": ["251 NW 25th St", "Miami, FL 33127"]}, "phone": "+17865770150", "display_phone": "(786) 577-0150", "distance": 10298.448766738977}, {"id": "QAPNSxiFhcNSdmjM0dD8Tw", "alias": "lung-yai-thai-tapas-miami", "name": "Lung Yai Thai Tapas", "image_url": "https://s3-media1.fl.yelpcdn.com/bphoto/SWOB22m9Xv24GBEtDIfonw/o.jpg", "is_closed": false, "url": "https://www.yelp.com/biz/lung-yai-thai-tapas-miami?adjust_creative=vyhy616UjsMTA_hrWyg_5w&utm_campaign=yelp_api_v3&utm_medium=api_v3_business_search&utm_source=vyhy616UjsMTA_hrWyg_5w", "review_count": 1373, "categories": [{"alias": "tapasmallplates", "title": "Tapas/Small Plates"}, {"alias": "thai", "title": "Thai"}], "rating": 4.0, "coordinates": {"latitude": 25.76595, "longitude": -80.22329}, "transactions": ["delivery", "pickup"], "price": "$$", "location": {"address1": "1731 SW 8th St", "address2": null, "address3": "", "city": "Miami", "zip_code": "33135", "country": "US", "state": "FL", "display_address": ["1731 SW 8th St", "Miami, FL 33135"]}, "phone": "+17863346262", "display_phone": "(786) 334-6262", "distance": 6650.786966720626}, {"id": "sL2Uby5eKnRjki2Etw7OUw", "alias": "malakor-thai-isaan-coral-gables-2", "name": "Malakor Thai Isaan", "image_url": "https://s3-media1.fl.yelpcdn.com/bphoto/Ba2KJ7Zwvjo9Eexf76um2g/o.jpg", "is_closed": false, "url": "https://www.yelp.com/biz/malakor-thai-isaan-coral-gables-2?adjust_creative=vyhy616UjsMTA_hrWyg_5w&utm_campaign=yelp_api_v3&utm_medium=api_v3_business_search&utm_source=vyhy616UjsMTA_hrWyg_5w", "review_count": 136, "categories": [{"alias": "thai", "title": "Thai"}], "rating": 4.5, "coordinates": {"latitude": 25.749582674401, "longitude": -80.2561680415269}, "transactions": ["delivery"], "price": "$$", "location": {"address1": "90 Miracle Mile", "address2": "", "address3": null, "city": "Coral Gables", "zip_code": "33134", "country": "US", "state": "FL", "display_address": ["90 Miracle Mile", "Coral Gables, FL 33134"]}, "phone": "+17865584862", "display_phone": "(786) 558-4862", "distance": 3216.0286609096647}, {"id": "i-fgz6ZbZ4D1uqeKa76xmw", "alias": "pho-79-miami", "name": "Pho 79", "image_url": "https://s3-media3.fl.yelpcdn.com/bphoto/jf0U_dSXdg92IflSCJ6gFg/o.jpg", "is_closed": false, "url": "https://www.yelp.com/biz/pho-79-miami?adjust_creative=vyhy616UjsMTA_hrWyg_5w&utm_campaign=yelp_api_v3&utm_medium=api_v3_business_search&utm_source=vyhy616UjsMTA_hrWyg_5w", "review_count": 721, "categories": [{"alias": "vietnamese", "title": "Vietnamese"}, {"alias": "noodles", "title": "Noodles"}, {"alias": "bubbletea", "title": "Bubble Tea"}], "rating": 4.0, "coordinates": {"latitude": 25.756192, "longitude": -80.366591}, "transactions": ["delivery"], "price": "$$", "location": {"address1": "1415 SW 107th Ave", "address2": "", "address3": null, "city": "Miami", "zip_code": "33174", "country": "US", "state": "FL", "display_address": ["1415 SW 107th Ave", "Miami, FL 33174"]}, "phone": "+13056037222", "display_phone": "(305) 603-7222", "distance": 7871.508488557721}, {"id": "nBIxqLEenuVRXQRTNiL3WA", "alias": "cajun-boil-miami-12", "name": "Cajun Boil", "image_url": "https://s3-media2.fl.yelpcdn.com/bphoto/83SturycmdbTNlZCOZnRVQ/o.jpg", "is_closed": false, "url": "https://www.yelp.com/biz/cajun-boil-miami-12?adjust_creative=vyhy616UjsMTA_hrWyg_5w&utm_campaign=yelp_api_v3&utm_medium=api_v3_business_search&utm_source=vyhy616UjsMTA_hrWyg_5w", "review_count": 604, "categories": [{"alias": "cajun", "title": "Cajun/Creole"}, {"alias": "seafood", "title": "Seafood"}, {"alias": "asianfusion", "title": "Asian Fusion"}], "rating": 4.5, "coordinates": {"latitude": 25.768374, "longitude": -80.360208}, "transactions": ["delivery"], "price": "$$", "location": {"address1": "10162 W Flagler St", "address2": null, "address3": "", "city": "Miami", "zip_code": "33174", "country": "US", "state": "FL", "display_address": ["10162 W Flagler St", "Miami, FL 33174"]}, "phone": "+17863322641", "display_phone": "(786) 332-2641", "distance": 7428.504860136401}, {"id": "jkYClGyThHsbBF5_avkf9w", "alias": "canton-palace-chinese-restaurant-miami", "name": "Canton Palace Chinese Restaurant", "image_url": "https://s3-media4.fl.yelpcdn.com/bphoto/kmhcLKmePG1hCnxTUlNkMw/o.jpg", "is_closed": false, "url": "https://www.yelp.com/biz/canton-palace-chinese-restaurant-miami?adjust_creative=vyhy616UjsMTA_hrWyg_5w&utm_campaign=yelp_api_v3&utm_medium=api_v3_business_search&utm_source=vyhy616UjsMTA_hrWyg_5w", "review_count": 163, "categories": [{"alias": "dimsum", "title": "Dim Sum"}, {"alias": "cantonese", "title": "Cantonese"}], "rating": 4.0, "coordinates": {"latitude": 25.76146, "longitude": -80.3259099}, "transactions": ["delivery", "pickup"], "price": "$$", "location": {"address1": "7980 SW 8th St", "address2": "", "address3": "", "city": "Miami", "zip_code": "33144", "country": "US", "state": "FL", "display_address": ["7980 SW 8th St", "Miami, FL 33144"]}, "phone": "+13052649444", "display_phone": "(305) 264-9444", "distance": 3910.283812354401}, {"id": "wsJQm_iSAj2jLeK9jaCQdg", "alias": "hi-pot-miami-2", "name": "Hi Pot", "image_url": "https://s3-media2.fl.yelpcdn.com/bphoto/xQgDF9jwCa76PIkwWwMd6Q/o.jpg", "is_closed": false, "url": "https://www.yelp.com/biz/hi-pot-miami-2?adjust_creative=vyhy616UjsMTA_hrWyg_5w&utm_campaign=yelp_api_v3&utm_medium=api_v3_business_search&utm_source=vyhy616UjsMTA_hrWyg_5w", "review_count": 168, "categories": [{"alias": "taiwanese", "title": "Taiwanese"}, {"alias": "hotpot", "title": "Hot Pot"}, {"alias": "ramen", "title": "Ramen"}], "rating": 4.5, "coordinates": {"latitude": 25.752836, "longitude": -80.367636}, "transactions": ["delivery", "pickup"], "price": "$$", "location": {"address1": "1665 SW 107th Ave", "address2": null, "address3": "", "city": "Miami", "zip_code": "33165", "country": "US", "state": "FL", "display_address": ["1665 SW 107th Ave", "Miami, FL 33165"]}, "phone": "+17868038618", "display_phone": "(786) 803-8618", "distance": 7966.992177570533}, {"id": "iipIhhoYyDsXBB8zZFrKgw", "alias": "sushi-cafe-and-shilla-korean-bbq-miami", "name": "Sushi Cafe & Shilla Korean BBQ", "image_url": "https://s3-media3.fl.yelpcdn.com/bphoto/OKNIQwr_2oJO161xyq4sHQ/o.jpg", "is_closed": false, "url": "https://www.yelp.com/biz/sushi-cafe-and-shilla-korean-bbq-miami?adjust_creative=vyhy616UjsMTA_hrWyg_5w&utm_campaign=yelp_api_v3&utm_medium=api_v3_business_search&utm_source=vyhy616UjsMTA_hrWyg_5w", "review_count": 521, "categories": [{"alias": "japanese", "title": "Japanese"}, {"alias": "sushi", "title": "Sushi Bars"}, {"alias": "korean", "title": "Korean"}], "rating": 4.0, "coordinates": {"latitude": 25.7728010678068, "longitude": -80.3250411048311}, "transactions": ["delivery", "pickup"], "price": "$$", "location": {"address1": "7917 NW 2nd St", "address2": "", "address3": "", "city": "Miami", "zip_code": "33126", "country": "US", "state": "FL", "display_address": ["7917 NW 2nd St", "Miami, FL 33126"]}, "phone": "+13052614266", "display_phone": "(305) 261-4266", "distance": 4320.284782371523}, {"id": "kOLTkKW8zZB88ibRvxCDYQ", "alias": "tran-an-miami-3", "name": "Tran An", "image_url": "https://s3-media1.fl.yelpcdn.com/bphoto/yo_y-vbRJ57GWFlwd7JguA/o.jpg", "is_closed": false, "url": "https://www.yelp.com/biz/tran-an-miami-3?adjust_creative=vyhy616UjsMTA_hrWyg_5w&utm_campaign=yelp_api_v3&utm_medium=api_v3_business_search&utm_source=vyhy616UjsMTA_hrWyg_5w", "review_count": 69, "categories": [{"alias": "vietnamese", "title": "Vietnamese"}], "rating": 4.0, "coordinates": {"latitude": 25.8500015, "longitude": -80.1924194}, "transactions": [], "location": {"address1": "215 NE 82nd St", "address2": null, "address3": "", "city": "Miami", "zip_code": "33138", "country": "US", "state": "FL", "display_address": ["215 NE 82nd St", "Miami, FL 33138"]}, "phone": "+13059055006", "display_phone": "(305) 905-5006", "distance": 14447.925830656483}, {"id": "ofbV1RUU8RM_ApuFfuszRQ", "alias": "cook-cook-hotpot-buffet-south-miami", "name": "Cook Cook Hotpot Buffet", "image_url": "https://s3-media1.fl.yelpcdn.com/bphoto/IRi7m7-UONR4lkCVekzvTg/o.jpg", "is_closed": false, "url": "https://www.yelp.com/biz/cook-cook-hotpot-buffet-south-miami?adjust_creative=vyhy616UjsMTA_hrWyg_5w&utm_campaign=yelp_api_v3&utm_medium=api_v3_business_search&utm_source=vyhy616UjsMTA_hrWyg_5w", "review_count": 25, "categories": [{"alias": "buffets", "title": "Buffets"}], "rating": 4.5, "coordinates": {"latitude": 25.699726, "longitude": -80.293834}, "transactions": [], "location": {"address1": "6212 S Dixie Hwy", "address2": "", "address3": null, "city": "South Miami", "zip_code": "33143", "country": "US", "state": "FL", "display_address": ["6212 S Dixie Hwy", "South Miami, FL 33143"]}, "phone": "+13056487288", "display_phone": "(305) 648-7288", "distance": 5924.455725423056}, {"id": "mUtLXhIisW64wWsRTQRPpw", "alias": "kuffo-miami", "name": "Kuffo", "image_url": "https://s3-media2.fl.yelpcdn.com/bphoto/vIiaAqmxiPmkLg4R2vGxew/o.jpg", "is_closed": false, "url": "https://www.yelp.com/biz/kuffo-miami?adjust_creative=vyhy616UjsMTA_hrWyg_5w&utm_campaign=yelp_api_v3&utm_medium=api_v3_business_search&utm_source=vyhy616UjsMTA_hrWyg_5w", "review_count": 49, "categories": [{"alias": "soup", "title": "Soup"}, {"alias": "asianfusion", "title": "Asian Fusion"}, {"alias": "sandwiches", "title": "Sandwiches"}], "rating": 5.0, "coordinates": {"latitude": 25.630116, "longitude": -80.426847}, "transactions": ["delivery", "pickup"], "location": {"address1": "14433 Country Walk Dr", "address2": null, "address3": null, "city": "Miami", "zip_code": "33186", "country": "US", "state": "FL", "display_address": ["14433 Country Walk Dr", "Miami, FL 33186"]}, "phone": "+17864185183", "display_phone": "(786) 418-5183", "distance": 19476.086089977336}, {"id": "Yzz_gAcCupmgSIn6KStovw", "alias": "ohho-noodles-market-coral-gables", "name": "Ohho Noodles Market", "image_url": "https://s3-media4.fl.yelpcdn.com/bphoto/XXNwole6Br80Awld0_RSrQ/o.jpg", "is_closed": false, "url": "https://www.yelp.com/biz/ohho-noodles-market-coral-gables?adjust_creative=vyhy616UjsMTA_hrWyg_5w&utm_campaign=yelp_api_v3&utm_medium=api_v3_business_search&utm_source=vyhy616UjsMTA_hrWyg_5w", "review_count": 351, "categories": [{"alias": "ramen", "title": "Ramen"}, {"alias": "chinese", "title": "Chinese"}, {"alias": "noodles", "title": "Noodles"}], "rating": 4.0, "coordinates": {"latitude": 25.71672337, "longitude": -80.27378209}, "transactions": ["delivery"], "price": "$$", "location": {"address1": "1100 S Dixie Hwy", "address2": "", "address3": "", "city": "Coral Gables", "zip_code": "33146", "country": "US", "state": "FL", "display_address": ["1100 S Dixie Hwy", "Coral Gables, FL 33146"]}, "phone": "+13056635881", "display_phone": "(305) 663-5881", "distance": 4254.872995086032}, {"id": "RIlXSnTu5z_e30s8JtXwpA", "alias": "lan-pan-asian-cafe-miami-3", "name": "Lan Pan Asian Cafe", "image_url": "https://s3-media3.fl.yelpcdn.com/bphoto/rl2YwkBcXi4_BW1joP2_4g/o.jpg", "is_closed": false, "url": "https://www.yelp.com/biz/lan-pan-asian-cafe-miami-3?adjust_creative=vyhy616UjsMTA_hrWyg_5w&utm_campaign=yelp_api_v3&utm_medium=api_v3_business_search&utm_source=vyhy616UjsMTA_hrWyg_5w", "review_count": 445, "categories": [{"alias": "panasian", "title": "Pan Asian"}, {"alias": "bubbletea", "title": "Bubble Tea"}, {"alias": "sushi", "title": "Sushi Bars"}], "rating": 4.0, "coordinates": {"latitude": 25.6927979, "longitude": -80.3039098}, "transactions": ["delivery", "pickup"], "price": "$$", "location": {"address1": "8332 S Dixie Hwy", "address2": "", "address3": "", "city": "Miami", "zip_code": "33143", "country": "US", "state": "FL", "display_address": ["8332 S Dixie Hwy", "Miami, FL 33143"]}, "phone": "+13056618141", "display_phone": "(305) 661-8141", "distance": 6858.437566219197}, {"id": "O4gh_gZPp1zW9QtC1aMHWw", "alias": "house-of-food-porn-miami-3", "name": "House of Food Porn", "image_url": "https://s3-media2.fl.yelpcdn.com/bphoto/jgJKBKR6W0ipCkXwKZz5DA/o.jpg", "is_closed": false, "url": "https://www.yelp.com/biz/house-of-food-porn-miami-3?adjust_creative=vyhy616UjsMTA_hrWyg_5w&utm_campaign=yelp_api_v3&utm_medium=api_v3_business_search&utm_source=vyhy616UjsMTA_hrWyg_5w", "review_count": 92, "categories": [{"alias": "sushi", "title": "Sushi Bars"}, {"alias": "asianfusion", "title": "Asian Fusion"}, {"alias": "wine_bars", "title": "Wine Bars"}], "rating": 5.0, "coordinates": {"latitude": 25.8326319884545, "longitude": -80.200107379434}, "transactions": [], "location": {"address1": "197 NW 62nd St", "address2": null, "address3": "", "city": "Miami", "zip_code": "33150", "country": "US", "state": "FL", "display_address": ["197 NW 62nd St", "Miami, FL 33150"]}, "phone": "+13057880137", "display_phone": "(305) 788-0137", "distance": 12517.12293994628}, {"id": "MtQ6McBBPA0oxULlO2CQng", "alias": "laki-bowls-miami", "name": "Laki Bowls", "image_url": "https://s3-media3.fl.yelpcdn.com/bphoto/srfjo4LHhv2pwuLKij4UMQ/o.jpg", "is_closed": false, "url": "https://www.yelp.com/biz/laki-bowls-miami?adjust_creative=vyhy616UjsMTA_hrWyg_5w&utm_campaign=yelp_api_v3&utm_medium=api_v3_business_search&utm_source=vyhy616UjsMTA_hrWyg_5w", "review_count": 2, "categories": [{"alias": "asianfusion", "title": "Asian Fusion"}, {"alias": "poke", "title": "Poke"}, {"alias": "hawaiian", "title": "Hawaiian"}], "rating": 5.0, "coordinates": {"latitude": 25.7518, "longitude": -80.25845}, "transactions": ["delivery", "pickup"], "location": {"address1": "2207 Ponce De Leon Blvd", "address2": null, "address3": "", "city": "Miami", "zip_code": "33134", "country": "US", "state": "FL", "display_address": ["2207 Ponce De Leon Blvd", "Miami, FL 33134"]}, "phone": "+17867037010", "display_phone": "(786) 703-7010", "distance": 2972.796865723389}, {"id": "IGdmWO4xUXHjP6gb0oZFcQ", "alias": "pho-tastic-miami", "name": "Pho Tastic", "image_url": "https://s3-media3.fl.yelpcdn.com/bphoto/xiAw15vHGTgNIswxLcikgg/o.jpg", "is_closed": false, "url": "https://www.yelp.com/biz/pho-tastic-miami?adjust_creative=vyhy616UjsMTA_hrWyg_5w&utm_campaign=yelp_api_v3&utm_medium=api_v3_business_search&utm_source=vyhy616UjsMTA_hrWyg_5w", "review_count": 116, "categories": [{"alias": "vietnamese", "title": "Vietnamese"}, {"alias": "bubbletea", "title": "Bubble Tea"}, {"alias": "juicebars", "title": "Juice Bars & Smoothies"}], "rating": 5.0, "coordinates": {"latitude": 25.68241, "longitude": -80.46375}, "transactions": [], "location": {"address1": "16772 SW 88th St", "address2": "", "address3": null, "city": "Miami", "zip_code": "33196", "country": "US", "state": "FL", "display_address": ["16772 SW 88th St", "Miami, FL 33196"]}, "phone": "+13054008464", "display_phone": "(305) 400-8464", "distance": 19252.196493370833}, {"id": "QqdtuSDJQaEVZo9EkYhX5A", "alias": "finka-table-and-tap-miami", "name": "FINKA Table & Tap", "image_url": "https://s3-media1.fl.yelpcdn.com/bphoto/v4bNQ0MC4eoEDH8XRBD43A/o.jpg", "is_closed": false, "url": "https://www.yelp.com/biz/finka-table-and-tap-miami?adjust_creative=vyhy616UjsMTA_hrWyg_5w&utm_campaign=yelp_api_v3&utm_medium=api_v3_business_search&utm_source=vyhy616UjsMTA_hrWyg_5w", "review_count": 2624, "categories": [{"alias": "asianfusion", "title": "Asian Fusion"}, {"alias": "cuban", "title": "Cuban"}, {"alias": "cocktailbars", "title": "Cocktail Bars"}], "rating": 4.5, "coordinates": {"latitude": 25.7426710712095, "longitude": -80.431843609787}, "transactions": ["delivery", "pickup"], "price": "$$", "location": {"address1": "14690 SW 26th St", "address2": "", "address3": "", "city": "Miami", "zip_code": "33175", "country": "US", "state": "FL", "display_address": ["14690 SW 26th St", "Miami, FL 33175"]}, "phone": "+13052278818", "display_phone": "(305) 227-8818", "distance": 14441.61765013115}, {"id": "UWWUttYjh1-N1A-DXuQ3oQ", "alias": "taikin-asian-cuisine-miami", "name": "Taikin Asian Cuisine", "image_url": "https://s3-media1.fl.yelpcdn.com/bphoto/RkYZZLONKeyrMDT591qU3Q/o.jpg", "is_closed": false, "url": "https://www.yelp.com/biz/taikin-asian-cuisine-miami?adjust_creative=vyhy616UjsMTA_hrWyg_5w&utm_campaign=yelp_api_v3&utm_medium=api_v3_business_search&utm_source=vyhy616UjsMTA_hrWyg_5w", "review_count": 309, "categories": [{"alias": "asianfusion", "title": "Asian Fusion"}, {"alias": "sushi", "title": "Sushi Bars"}, {"alias": "japanese", "title": "Japanese"}], "rating": 4.0, "coordinates": {"latitude": 25.8416730528005, "longitude": -80.3666130496067}, "transactions": ["delivery", "pickup"], "price": "$$", "location": {"address1": "7450 NW 104th Ave", "address2": "Ste C101", "address3": null, "city": "Miami", "zip_code": "33178", "country": "US", "state": "FL", "display_address": ["7450 NW 104th Ave", "Ste C101", "Miami, FL 33178"]}, "phone": "+18448245468", "display_phone": "(844) 824-5468", "distance": 12631.890533796528}, {"id": "1EJ40yHer69KAMqcoRO2Lw", "alias": "minty-z-miami", "name": "Minty Z", "image_url": "https://s3-media2.fl.yelpcdn.com/bphoto/D7aodMheWlaS3Ye6iED2-Q/o.jpg", "is_closed": false, "url": "https://www.yelp.com/biz/minty-z-miami?adjust_creative=vyhy616UjsMTA_hrWyg_5w&utm_campaign=yelp_api_v3&utm_medium=api_v3_business_search&utm_source=vyhy616UjsMTA_hrWyg_5w", "review_count": 83, "categories": [{"alias": "dimsum", "title": "Dim Sum"}, {"alias": "vegan", "title": "Vegan"}, {"alias": "asianfusion", "title": "Asian Fusion"}], "rating": 5.0, "coordinates": {"latitude": 25.72777973084882, "longitude": -80.2454521}, "transactions": ["delivery", "pickup"], "location": {"address1": "3206 Grand Ave", "address2": null, "address3": "", "city": "Miami", "zip_code": "33133", "country": "US", "state": "FL", "display_address": ["3206 Grand Ave", "Miami, FL 33133"]}, "phone": "+17864097151", "display_phone": "(786) 409-7151", "distance": 5093.789341549417}, {"id": "QH9SvFBF70DyWd_xqXXy7A", "alias": "red-ginger-aboard-oceania-marina-miami", "name": "Red Ginger aboard Oceania Marina", "image_url": "https://s3-media2.fl.yelpcdn.com/bphoto/WYvIGDTpIY3-dIaov_VNPQ/o.jpg", "is_closed": false, "url": "https://www.yelp.com/biz/red-ginger-aboard-oceania-marina-miami?adjust_creative=vyhy616UjsMTA_hrWyg_5w&utm_campaign=yelp_api_v3&utm_medium=api_v3_business_search&utm_source=vyhy616UjsMTA_hrWyg_5w", "review_count": 6, "categories": [{"alias": "asianfusion", "title": "Asian Fusion"}], "rating": 5.0, "coordinates": {"latitude": 25.8032741546631, "longitude": -80.3315277099609}, "transactions": [], "location": {"address1": "8300 NW 33rd St", "address2": "", "address3": "", "city": "Miami", "zip_code": "33122", "country": "US", "state": "FL", "display_address": ["8300 NW 33rd St", "Miami, FL 33122"]}, "phone": "+13055142300", "display_phone": "(305) 514-2300", "distance": 7189.001827148785}, {"id": "Bff-WM9encGd1bi81gqRZg", "alias": "green-plate-sushi-and-kitchen-doral", "name": "Green Plate Sushi & Kitchen", "image_url": "https://s3-media3.fl.yelpcdn.com/bphoto/0wEvHFvdpHvrHY-2CG72KA/o.jpg", "is_closed": false, "url": "https://www.yelp.com/biz/green-plate-sushi-and-kitchen-doral?adjust_creative=vyhy616UjsMTA_hrWyg_5w&utm_campaign=yelp_api_v3&utm_medium=api_v3_business_search&utm_source=vyhy616UjsMTA_hrWyg_5w", "review_count": 512, "categories": [{"alias": "asianfusion", "title": "Asian Fusion"}, {"alias": "chinese", "title": "Chinese"}, {"alias": "sushi", "title": "Sushi Bars"}], "rating": 4.0, "coordinates": {"latitude": 25.81216, "longitude": -80.35694}, "transactions": ["delivery", "pickup"], "price": "$$", "location": {"address1": "9901 NW 41st St", "address2": "", "address3": "", "city": "Doral", "zip_code": "33178", "country": "US", "state": "FL", "display_address": ["9901 NW 41st St", "Doral, FL 33178"]}, "phone": "+13055138518", "display_phone": "(305) 513-8518", "distance": 9552.390253310758}, {"id": "PCcO6zulzjwdHMKUMGiMww", "alias": "doral-thai-restaurant-miami", "name": "Doral Thai Restaurant", "image_url": "https://s3-media2.fl.yelpcdn.com/bphoto/AMVQPvImnbaMADCHfVcBYA/o.jpg", "is_closed": false, "url": "https://www.yelp.com/biz/doral-thai-restaurant-miami?adjust_creative=vyhy616UjsMTA_hrWyg_5w&utm_campaign=yelp_api_v3&utm_medium=api_v3_business_search&utm_source=vyhy616UjsMTA_hrWyg_5w", "review_count": 215, "categories": [{"alias": "thai", "title": "Thai"}, {"alias": "desserts", "title": "Desserts"}, {"alias": "coffee", "title": "Coffee & Tea"}], "rating": 4.0, "coordinates": {"latitude": 25.7979519446344, "longitude": -80.3247750345185}, "transactions": ["delivery", "pickup"], "price": "$$", "location": {"address1": "2613 NW 79th Ave", "address2": "", "address3": "", "city": "Miami", "zip_code": "33122", "country": "US", "state": "FL", "display_address": ["2613 NW 79th Ave", "Miami, FL 33122"]}, "phone": "+13054188311", "display_phone": "(305) 418-8311", "distance": 6225.35731817176}, {"id": "n6xaLebNjh8sYiYh89gdEQ", "alias": "komodo-miami-2", "name": "Komodo", "image_url": "https://s3-media1.fl.yelpcdn.com/bphoto/or0k_uoHJn06Kz6BA4XeZw/o.jpg", "is_closed": false, "url": "https://www.yelp.com/biz/komodo-miami-2?adjust_creative=vyhy616UjsMTA_hrWyg_5w&utm_campaign=yelp_api_v3&utm_medium=api_v3_business_search&utm_source=vyhy616UjsMTA_hrWyg_5w", "review_count": 1338, "categories": [{"alias": "asianfusion", "title": "Asian Fusion"}, {"alias": "lounges", "title": "Lounges"}, {"alias": "cocktailbars", "title": "Cocktail Bars"}], "rating": 4.0, "coordinates": {"latitude": 25.7653468682438, "longitude": -80.1906713264588}, "transactions": ["delivery"], "price": "$$$", "location": {"address1": "801 Brickell Ave", "address2": null, "address3": "", "city": "Miami", "zip_code": "33131", "country": "US", "state": "FL", "display_address": ["801 Brickell Ave", "Miami, FL 33131"]}, "phone": "+13055342211", "display_phone": "(305) 534-2211", "distance": 9855.602666807674}, {"id": "EvZOPWLb38M0gTzTN9Z1sg", "alias": "soju-miami-miami-3", "name": "Soju Miami", "image_url": "https://s3-media3.fl.yelpcdn.com/bphoto/FEIYKC9tId8Lbpx8vuEn-Q/o.jpg", "is_closed": false, "url": "https://www.yelp.com/biz/soju-miami-miami-3?adjust_creative=vyhy616UjsMTA_hrWyg_5w&utm_campaign=yelp_api_v3&utm_medium=api_v3_business_search&utm_source=vyhy616UjsMTA_hrWyg_5w", "review_count": 94, "categories": [{"alias": "korean", "title": "Korean"}, {"alias": "bbq", "title": "Barbeque"}], "rating": 4.5, "coordinates": {"latitude": 25.79989, "longitude": -80.20093}, "transactions": ["restaurant_reservation", "delivery", "pickup"], "price": "$$", "location": {"address1": "322 NW 24th St", "address2": null, "address3": "", "city": "Miami", "zip_code": "33127", "country": "US", "state": "FL", "display_address": ["322 NW 24th St", "Miami, FL 33127"]}, "phone": "+17862387929", "display_phone": "(786) 238-7929", "distance": 10181.488852835428}, {"id": "6LbVL8LOVJGpytjzi4OkNw", "alias": "atchanas-homegrown-thai-miami-2", "name": "Atchana's Homegrown Thai", "image_url": "https://s3-media4.fl.yelpcdn.com/bphoto/cXcpxNCg-70gZDi73DH0Dw/o.jpg", "is_closed": false, "url": "https://www.yelp.com/biz/atchanas-homegrown-thai-miami-2?adjust_creative=vyhy616UjsMTA_hrWyg_5w&utm_campaign=yelp_api_v3&utm_medium=api_v3_business_search&utm_source=vyhy616UjsMTA_hrWyg_5w", "review_count": 212, "categories": [{"alias": "thai", "title": "Thai"}], "rating": 4.5, "coordinates": {"latitude": 25.7278220860767, "longitude": -80.2451561763883}, "transactions": ["delivery"], "price": "$$", "location": {"address1": "3194 Commodore Plz", "address2": "", "address3": null, "city": "Miami", "zip_code": "33133", "country": "US", "state": "FL", "display_address": ["3194 Commodore Plz", "Miami, FL 33133"]}, "phone": "+13057740404", "display_phone": "(305) 774-0404", "distance": 5116.108656123775}, {"id": "84aGApYGrbE5ENCeerPA-w", "alias": "dragonfly-izakaya-and-fish-market-doral", "name": "Dragonfly Izakaya & Fish Market", "image_url": "https://s3-media4.fl.yelpcdn.com/bphoto/f1KeLi_OhwwVXZvIOGXM3w/o.jpg", "is_closed": false, "url": "https://www.yelp.com/biz/dragonfly-izakaya-and-fish-market-doral?adjust_creative=vyhy616UjsMTA_hrWyg_5w&utm_campaign=yelp_api_v3&utm_medium=api_v3_business_search&utm_source=vyhy616UjsMTA_hrWyg_5w", "review_count": 804, "categories": [{"alias": "asianfusion", "title": "Asian Fusion"}, {"alias": "gastropubs", "title": "Gastropubs"}], "rating": 4.5, "coordinates": {"latitude": 25.819604, "longitude": -80.337252}, "transactions": ["delivery", "pickup"], "price": "$$", "location": {"address1": "5241 NW 87th Ave", "address2": null, "address3": "", "city": "Doral", "zip_code": "33178", "country": "US", "state": "FL", "display_address": ["5241 NW 87th Ave", "Doral, FL 33178"]}, "phone": "+13052227447", "display_phone": "(305) 222-7447", "distance": 8915.588329691856}, {"id": "8QWVt0nIXOwAz4srNLBmmQ", "alias": "rock-a-bangkok-miami", "name": "Rock A Bangkok", "image_url": "https://s3-media4.fl.yelpcdn.com/bphoto/tNchf40i7vgrjA7zKNLeXg/o.jpg", "is_closed": false, "url": "https://www.yelp.com/biz/rock-a-bangkok-miami?adjust_creative=vyhy616UjsMTA_hrWyg_5w&utm_campaign=yelp_api_v3&utm_medium=api_v3_business_search&utm_source=vyhy616UjsMTA_hrWyg_5w", "review_count": 376, "categories": [{"alias": "thai", "title": "Thai"}], "rating": 4.5, "coordinates": {"latitude": 25.6844364179994, "longitude": -80.4178750816147}, "transactions": ["delivery"], "price": "$$", "location": {"address1": "13718 SW 88th St", "address2": "", "address3": "", "city": "Miami", "zip_code": "33186", "country": "US", "state": "FL", "display_address": ["13718 SW 88th St", "Miami, FL 33186"]}, "phone": "+13053800344", "display_phone": "(305) 380-0344", "distance": 15058.701257454542}, {"id": "UFhaHpDSPtheFDUyu2yIHw", "alias": "hutong-miami", "name": "Hutong", "image_url": "https://s3-media4.fl.yelpcdn.com/bphoto/Pu-Rv9NWMtU-MKMYTWfmgg/o.jpg", "is_closed": false, "url": "https://www.yelp.com/biz/hutong-miami?adjust_creative=vyhy616UjsMTA_hrWyg_5w&utm_campaign=yelp_api_v3&utm_medium=api_v3_business_search&utm_source=vyhy616UjsMTA_hrWyg_5w", "review_count": 156, "categories": [{"alias": "chinese", "title": "Chinese"}, {"alias": "cocktailbars", "title": "Cocktail Bars"}, {"alias": "seafood", "title": "Seafood"}], "rating": 3.5, "coordinates": {"latitude": 25.76763, "longitude": -80.19094}, "transactions": ["delivery"], "price": "$$$", "location": {"address1": "600 Brickell Ave", "address2": null, "address3": "", "city": "Miami", "zip_code": "33131", "country": "US", "state": "FL", "display_address": ["600 Brickell Ave", "Miami, FL 33131"]}, "phone": "+17863880805", "display_phone": "(786) 388-0805", "distance": 9856.085795573323}, {"id": "Po_6niCFaj-TvZSZbgbIoA", "alias": "asian-thai-kitchen-2-miami-3", "name": "Asian Thai Kitchen 2", "image_url": "https://s3-media3.fl.yelpcdn.com/bphoto/HT-N7g469JKEOKo2jix-Sg/o.jpg", "is_closed": false, "url": "https://www.yelp.com/biz/asian-thai-kitchen-2-miami-3?adjust_creative=vyhy616UjsMTA_hrWyg_5w&utm_campaign=yelp_api_v3&utm_medium=api_v3_business_search&utm_source=vyhy616UjsMTA_hrWyg_5w", "review_count": 263, "categories": [{"alias": "thai", "title": "Thai"}, {"alias": "noodles", "title": "Noodles"}, {"alias": "asianfusion", "title": "Asian Fusion"}], "rating": 4.0, "coordinates": {"latitude": 25.7657153, "longitude": -80.228079}, "transactions": ["delivery", "pickup"], "price": "$$", "location": {"address1": "1981 SW 8th St", "address2": "", "address3": "", "city": "Miami", "zip_code": "33135", "country": "US", "state": "FL", "display_address": ["1981 SW 8th St", "Miami, FL 33135"]}, "phone": "+13056462999", "display_phone": "(305) 646-2999", "distance": 6179.820328937748}, {"id": "RtSSaob0mGdKNDydYmTSIQ", "alias": "casa-sensei-fort-lauderdale-2", "name": "Casa Sensei", "image_url": "https://s3-media1.fl.yelpcdn.com/bphoto/AzzNjwsHcCDTqAlGAJcCBg/o.jpg", "is_closed": false, "url": "https://www.yelp.com/biz/casa-sensei-fort-lauderdale-2?adjust_creative=vyhy616UjsMTA_hrWyg_5w&utm_campaign=yelp_api_v3&utm_medium=api_v3_business_search&utm_source=vyhy616UjsMTA_hrWyg_5w", "review_count": 740, "categories": [{"alias": "asianfusion", "title": "Asian Fusion"}, {"alias": "sushi", "title": "Sushi Bars"}, {"alias": "bars", "title": "Bars"}], "rating": 4.0, "coordinates": {"latitude": 26.118951, "longitude": -80.131073}, "transactions": ["delivery"], "price": "$$", "location": {"address1": "1200 E Las Olas Blvd", "address2": "", "address3": "", "city": "Fort Lauderdale", "zip_code": "33301", "country": "US", "state": "FL", "display_address": ["1200 E Las Olas Blvd", "Fort Lauderdale, FL 33301"]}, "phone": "+19545304176", "display_phone": "(954) 530-4176", "distance": 43641.31191435665}, {"id": "CG27dIUxEmMclCA9MBoqDA", "alias": "phuc-yea-miami-2", "name": "Phuc Yea", "image_url": "https://s3-media4.fl.yelpcdn.com/bphoto/AuzZXstHCIbeL_lVwoR4LQ/o.jpg", "is_closed": false, "url": "https://www.yelp.com/biz/phuc-yea-miami-2?adjust_creative=vyhy616UjsMTA_hrWyg_5w&utm_campaign=yelp_api_v3&utm_medium=api_v3_business_search&utm_source=vyhy616UjsMTA_hrWyg_5w", "review_count": 558, "categories": [{"alias": "vietnamese", "title": "Vietnamese"}, {"alias": "asianfusion", "title": "Asian Fusion"}, {"alias": "cocktailbars", "title": "Cocktail Bars"}], "rating": 3.5, "coordinates": {"latitude": 25.840456, "longitude": -80.184568}, "transactions": ["pickup"], "price": "$$", "location": {"address1": "7100 Biscayne Blvd", "address2": "Ste 100", "address3": "", "city": "Miami", "zip_code": "33138", "country": "US", "state": "FL", "display_address": ["7100 Biscayne Blvd", "Ste 100", "Miami, FL 33138"]}, "phone": "+13056023710", "display_phone": "(305) 602-3710", "distance": 14230.442412951365}, {"id": "tUAMuaJpSZpZYgXBj_-g9g", "alias": "kae-sushi-coral-gables", "name": "Kae Sushi", "image_url": "https://s3-media3.fl.yelpcdn.com/bphoto/qNUZljZg2DNkKFOPHx_V7w/o.jpg", "is_closed": false, "url": "https://www.yelp.com/biz/kae-sushi-coral-gables?adjust_creative=vyhy616UjsMTA_hrWyg_5w&utm_campaign=yelp_api_v3&utm_medium=api_v3_business_search&utm_source=vyhy616UjsMTA_hrWyg_5w", "review_count": 433, "categories": [{"alias": "sushi", "title": "Sushi Bars"}, {"alias": "asianfusion", "title": "Asian Fusion"}], "rating": 4.0, "coordinates": {"latitude": 25.7513440641505, "longitude": -80.2578856050968}, "transactions": ["delivery", "pickup"], "price": "$$", "location": {"address1": "143 Giralda Ave", "address2": "", "address3": "", "city": "Coral Gables", "zip_code": "33134", "country": "US", "state": "FL", "display_address": ["143 Giralda Ave", "Coral Gables, FL 33134"]}, "phone": "+13058145872", "display_phone": "(305) 814-5872", "distance": 3028.6595540596695}, {"id": "Hpf4xBvE4CECwDUTTzkOQQ", "alias": "blackbrick-chinese-and-dim-sum-miami", "name": "Blackbrick Chinese & Dim Sum", "image_url": "https://s3-media3.fl.yelpcdn.com/bphoto/F9mzREWwaxZ8ynVV_z-LhQ/o.jpg", "is_closed": false, "url": "https://www.yelp.com/biz/blackbrick-chinese-and-dim-sum-miami?adjust_creative=vyhy616UjsMTA_hrWyg_5w&utm_campaign=yelp_api_v3&utm_medium=api_v3_business_search&utm_source=vyhy616UjsMTA_hrWyg_5w", "review_count": 551, "categories": [{"alias": "chinese", "title": "Chinese"}], "rating": 3.5, "coordinates": {"latitude": 25.8094535860585, "longitude": -80.1924000221596}, "transactions": ["delivery", "pickup"], "price": "$$", "location": {"address1": "3451 NE 1st Ave", "address2": "Ste 103", "address3": "", "city": "Miami", "zip_code": "33137", "country": "US", "state": "FL", "display_address": ["3451 NE 1st Ave", "Ste 103", "Miami, FL 33137"]}, "phone": "+13055738886", "display_phone": "(305) 573-8886", "distance": 11469.077400404542}, {"id": "Y6E0G3ATW4597V4jl1uxyA", "alias": "zuma-miami-2", "name": "Zuma", "image_url": "https://s3-media3.fl.yelpcdn.com/bphoto/ofpiCS0EDt1-kGNsk3AegA/o.jpg", "is_closed": false, "url": "https://www.yelp.com/biz/zuma-miami-2?adjust_creative=vyhy616UjsMTA_hrWyg_5w&utm_campaign=yelp_api_v3&utm_medium=api_v3_business_search&utm_source=vyhy616UjsMTA_hrWyg_5w", "review_count": 1376, "categories": [{"alias": "japanese", "title": "Japanese"}, {"alias": "sushi", "title": "Sushi Bars"}], "rating": 4.0, "coordinates": {"latitude": 25.7705248376992, "longitude": -80.189613327384}, "transactions": ["delivery", "pickup"], "price": "$$$$", "location": {"address1": "270 Biscayne Blvd Way", "address2": "", "address3": "", "city": "Miami", "zip_code": "33131", "country": "US", "state": "FL", "display_address": ["270 Biscayne Blvd Way", "Miami, FL 33131"]}, "phone": "+13055770277", "display_phone": "(305) 577-0277", "distance": 10057.392873847659}, {"id": "YCIcD8zaluU7i9AfsoJplQ", "alias": "matsuri-coral-terrace", "name": "Matsuri", "image_url": "https://s3-media3.fl.yelpcdn.com/bphoto/9C4eGQUPwD0IvE3pJj6x_g/o.jpg", "is_closed": false, "url": "https://www.yelp.com/biz/matsuri-coral-terrace?adjust_creative=vyhy616UjsMTA_hrWyg_5w&utm_campaign=yelp_api_v3&utm_medium=api_v3_business_search&utm_source=vyhy616UjsMTA_hrWyg_5w", "review_count": 636, "categories": [{"alias": "japanese", "title": "Japanese"}, {"alias": "sushi", "title": "Sushi Bars"}], "rating": 4.0, "coordinates": {"latitude": 25.734722326687, "longitude": -80.2879967867714}, "transactions": ["delivery"], "price": "$$", "location": {"address1": "5759 Bird Rd", "address2": "", "address3": "", "city": "Coral Terrace", "zip_code": "33155", "country": "US", "state": "FL", "display_address": ["5759 Bird Rd", "Coral Terrace, FL 33155"]}, "phone": "+13056631615", "display_phone": "(305) 663-1615", "distance": 2005.0183941605205}, {"id": "SgyBbAIF07AvbruNTsrYlw", "alias": "jamrock-cuisine-miami-3", "name": "Jamrock Cuisine", "image_url": "https://s3-media1.fl.yelpcdn.com/bphoto/DwhzR3pkvI7vPaDPU3xaZw/o.jpg", "is_closed": false, "url": "https://www.yelp.com/biz/jamrock-cuisine-miami-3?adjust_creative=vyhy616UjsMTA_hrWyg_5w&utm_campaign=yelp_api_v3&utm_medium=api_v3_business_search&utm_source=vyhy616UjsMTA_hrWyg_5w", "review_count": 156, "categories": [{"alias": "caribbean", "title": "Caribbean"}, {"alias": "chinese", "title": "Chinese"}, {"alias": "asianfusion", "title": "Asian Fusion"}], "rating": 5.0, "coordinates": {"latitude": 25.6845522989498, "longitude": -80.3985356472214}, "transactions": ["pickup"], "price": "$", "location": {"address1": "12560 SW 88th St", "address2": "", "address3": "", "city": "Miami", "zip_code": "33186", "country": "US", "state": "FL", "display_address": ["12560 SW 88th St", "Miami, FL 33186"]}, "phone": "+13055987625", "display_phone": "(305) 598-7625", "distance": 13414.211361160324}, {"id": "mO_jC4t19hyDLV646Pj3kQ", "alias": "hakkasan-miami-miami-beach", "name": "Hakkasan - Miami", "image_url": "https://s3-media4.fl.yelpcdn.com/bphoto/bB6X2zL1x9XC1r565_RsFA/o.jpg", "is_closed": false, "url": "https://www.yelp.com/biz/hakkasan-miami-miami-beach?adjust_creative=vyhy616UjsMTA_hrWyg_5w&utm_campaign=yelp_api_v3&utm_medium=api_v3_business_search&utm_source=vyhy616UjsMTA_hrWyg_5w", "review_count": 814, "categories": [{"alias": "dimsum", "title": "Dim Sum"}, {"alias": "cantonese", "title": "Cantonese"}], "rating": 4.0, "coordinates": {"latitude": 25.817791, "longitude": -80.122166}, "transactions": ["delivery"], "price": "$$$", "location": {"address1": "4441 Collins Ave", "address2": "", "address3": "", "city": "Miami Beach", "zip_code": "33140", "country": "US", "state": "FL", "display_address": ["4441 Collins Ave", "Miami Beach, FL 33140"]}, "phone": "+18773267412", "display_phone": "(877) 326-7412", "distance": 18118.27705891831}, {"id": "irrRkTb7J-j47CzLXZripQ", "alias": "maido-japanese-restaurant-doral", "name": "Maido Japanese Restaurant", "image_url": "https://s3-media2.fl.yelpcdn.com/bphoto/Y6yFjO-dM0lqyEXD6u60KQ/o.jpg", "is_closed": false, "url": "https://www.yelp.com/biz/maido-japanese-restaurant-doral?adjust_creative=vyhy616UjsMTA_hrWyg_5w&utm_campaign=yelp_api_v3&utm_medium=api_v3_business_search&utm_source=vyhy616UjsMTA_hrWyg_5w", "review_count": 258, "categories": [{"alias": "japanese", "title": "Japanese"}], "rating": 4.5, "coordinates": {"latitude": 25.8128147296148, "longitude": -80.3686702251434}, "transactions": ["delivery"], "price": "$$", "location": {"address1": "4267 NW 107th Ave", "address2": "", "address3": "", "city": "Doral", "zip_code": "33178", "country": "US", "state": "FL", "display_address": ["4267 NW 107th Ave", "Doral, FL 33178"]}, "phone": "+13055924002", "display_phone": "(305) 592-4002", "distance": 10473.923801976545}, {"id": "3HdDrsF5OSHgI3IQQuJeZg", "alias": "changs-chinese-restaurant-miami-2", "name": "Changs Chinese Restaurant", "image_url": "https://s3-media3.fl.yelpcdn.com/bphoto/vPxEWWTEv_l_cgIHbaTFxg/o.jpg", "is_closed": false, "url": "https://www.yelp.com/biz/changs-chinese-restaurant-miami-2?adjust_creative=vyhy616UjsMTA_hrWyg_5w&utm_campaign=yelp_api_v3&utm_medium=api_v3_business_search&utm_source=vyhy616UjsMTA_hrWyg_5w", "review_count": 91, "categories": [{"alias": "chinese", "title": "Chinese"}], "rating": 4.0, "coordinates": {"latitude": 25.75626767, "longitude": -80.36748633}, "transactions": ["delivery", "pickup"], "price": "$$", "location": {"address1": "1311 SW 107th Ave", "address2": "", "address3": "", "city": "Miami", "zip_code": "33174", "country": "US", "state": "FL", "display_address": ["1311 SW 107th Ave", "Miami, FL 33174"]}, "phone": "+13052218104", "display_phone": "(305) 221-8104", "distance": 7957.524924014306}, {"id": "AMWTqzyQujPiYrzR5rumfQ", "alias": "aklan-buffet-and-sushi-miami", "name": "Aklan Buffet And Sushi", "image_url": "https://s3-media1.fl.yelpcdn.com/bphoto/ltcKHvouQrNB1UvzM85AUQ/o.jpg", "is_closed": false, "url": "https://www.yelp.com/biz/aklan-buffet-and-sushi-miami?adjust_creative=vyhy616UjsMTA_hrWyg_5w&utm_campaign=yelp_api_v3&utm_medium=api_v3_business_search&utm_source=vyhy616UjsMTA_hrWyg_5w", "review_count": 22, "categories": [{"alias": "filipino", "title": "Filipino"}, {"alias": "asianfusion", "title": "Asian Fusion"}, {"alias": "japanese", "title": "Japanese"}], "rating": 4.5, "coordinates": {"latitude": 25.7750751, "longitude": -80.1888996}, "transactions": ["delivery", "pickup"], "location": {"address1": "272 NE 1st St", "address2": "", "address3": "", "city": "Miami", "zip_code": "33132", "country": "US", "state": "FL", "display_address": ["272 NE 1st St", "Miami, FL 33132"]}, "phone": "+17862507133", "display_phone": "(786) 250-7133", "distance": 10237.850761965921}], "total": 849, "region": {"center": {"longitude": -80.2880859375, "latitude": 25.752753731496888}}}