{"businesses": [{"id": "0NWAuhxUfQoajRCqOO8d4A", "alias": "a-dong-restaurant-des-moines", "name": "A Dong Restaurant", "image_url": "https://s3-media2.fl.yelpcdn.com/bphoto/uFhu7oDVFe593SbObtDrGw/o.jpg", "is_closed": false, "url": "https://www.yelp.com/biz/a-dong-restaurant-des-moines?adjust_creative=vyhy616UjsMTA_hrWyg_5w&utm_campaign=yelp_api_v3&utm_medium=api_v3_business_search&utm_source=vyhy616UjsMTA_hrWyg_5w", "review_count": 273, "categories": [{"alias": "vegetarian", "title": "Vegetarian"}, {"alias": "vietnamese", "title": "Vietnamese"}], "rating": 4.0, "coordinates": {"latitude": 41.587411, "longitude": -93.637465}, "transactions": ["pickup", "delivery"], "price": "$$", "location": {"address1": "1511 High St", "address2": "", "address3": "", "city": "Des Moines", "zip_code": "50309", "country": "US", "state": "IA", "display_address": ["1511 High St", "Des Moines, IA 50309"]}, "phone": "+15152845632", "display_phone": "(515) 284-5632", "distance": 523.8646644777829}, {"id": "4quDztuWlvl2_sQyGVcebQ", "alias": "lucky-lotus-des-moines", "name": "Lucky Lotus", "image_url": "https://s3-media4.fl.yelpcdn.com/bphoto/SWK3wU0xTQ-K1bSoaMQ-6Q/o.jpg", "is_closed": false, "url": "https://www.yelp.com/biz/lucky-lotus-des-moines?adjust_creative=vyhy616UjsMTA_hrWyg_5w&utm_campaign=yelp_api_v3&utm_medium=api_v3_business_search&utm_source=vyhy616UjsMTA_hrWyg_5w", "review_count": 59, "categories": [{"alias": "thai", "title": "Thai"}, {"alias": "laotian", "title": "Laotian"}, {"alias": "vietnamese", "title": "Vietnamese"}], "rating": 4.5, "coordinates": {"latitude": 41.585896, "longitude": -93.653967}, "transactions": [], "price": "$$", "location": {"address1": "2721 Ingersoll Ave", "address2": "", "address3": null, "city": "Des Moines", "zip_code": "50312", "country": "US", "state": "IA", "display_address": ["2721 Ingersoll Ave", "Des Moines, IA 50312"]}, "phone": "+15152628488", "display_phone": "(515) 262-8488", "distance": 1700.8192918572302}, {"id": "pgl7fSM3q8642sGkdSiY4w", "alias": "rolling-wok-des-moines", "name": "Rolling Wok", "image_url": "https://s3-media2.fl.yelpcdn.com/bphoto/ablFmxEBlxXsziEvtNx0Yg/o.jpg", "is_closed": false, "url": "https://www.yelp.com/biz/rolling-wok-des-moines?adjust_creative=vyhy616UjsMTA_hrWyg_5w&utm_campaign=yelp_api_v3&utm_medium=api_v3_business_search&utm_source=vyhy616UjsMTA_hrWyg_5w", "review_count": 90, "categories": [{"alias": "chinese", "title": "Chinese"}, {"alias": "vietnamese", "title": "Vietnamese"}, {"alias": "thai", "title": "Thai"}], "rating": 4.5, "coordinates": {"latitude": 41.594577, "longitude": -93.59378}, "transactions": ["delivery"], "price": "$", "location": {"address1": "1534 E Grand Ave", "address2": "", "address3": "", "city": "Des Moines", "zip_code": "50309", "country": "US", "state": "IA", "display_address": ["1534 E Grand Ave", "Des Moines, IA 50309"]}, "phone": "+15152663787", "display_phone": "(515) 266-3787", "distance": 3451.929770840265}, {"id": "DtCRaviGZRsWxuOJa7uddw", "alias": "papaya-asian-street-food-clive", "name": "Papaya Asian Street Food", "image_url": "https://s3-media2.fl.yelpcdn.com/bphoto/otH6NVmobmXbZNrE_nO87Q/o.jpg", "is_closed": false, "url": "https://www.yelp.com/biz/papaya-asian-street-food-clive?adjust_creative=vyhy616UjsMTA_hrWyg_5w&utm_campaign=yelp_api_v3&utm_medium=api_v3_business_search&utm_source=vyhy616UjsMTA_hrWyg_5w", "review_count": 13, "categories": [{"alias": "asianfusion", "title": "Asian Fusion"}], "rating": 4.0, "coordinates": {"latitude": 41.60171, "longitude": -93.793523}, "transactions": ["pickup", "delivery"], "location": {"address1": "1255 NW 128th St", "address2": null, "address3": "", "city": "Clive", "zip_code": "50325", "country": "US", "state": "IA", "display_address": ["1255 NW 128th St", "Clive, IA 50325"]}, "phone": "+15152211175", "display_phone": "(515) 221-1175", "distance": 13222.260283131702}, {"id": "ikiCYNjXhbCmo3Fhtm9BQA", "alias": "les-chinese-bar-b-que-des-moines", "name": "Le's Chinese Bar-B-Que", "image_url": "https://s3-media3.fl.yelpcdn.com/bphoto/tjooU-_NHyFfdjmWRA_sUw/o.jpg", "is_closed": false, "url": "https://www.yelp.com/biz/les-chinese-bar-b-que-des-moines?adjust_creative=vyhy616UjsMTA_hrWyg_5w&utm_campaign=yelp_api_v3&utm_medium=api_v3_business_search&utm_source=vyhy616UjsMTA_hrWyg_5w", "review_count": 67, "categories": [{"alias": "chinese", "title": "Chinese"}], "rating": 4.5, "coordinates": {"latitude": 41.6079597, "longitude": -93.620018}, "transactions": ["delivery"], "price": "$", "location": {"address1": "1600 2nd Ave", "address2": "", "address3": "", "city": "Des Moines", "zip_code": "50314", "country": "US", "state": "IA", "display_address": ["1600 2nd Ave", "Des Moines, IA 50314"]}, "phone": "+15152446111", "display_phone": "(515) 244-6111", "distance": 2189.892073655884}, {"id": "qdkq4ZE1kcC8NMmxC3-GUg", "alias": "aroy-dee-des-moines", "name": "Aroy-Dee", "image_url": "https://s3-media4.fl.yelpcdn.com/bphoto/FEP5r4SFSsPfMMEqf2NHWQ/o.jpg", "is_closed": false, "url": "https://www.yelp.com/biz/aroy-dee-des-moines?adjust_creative=vyhy616UjsMTA_hrWyg_5w&utm_campaign=yelp_api_v3&utm_medium=api_v3_business_search&utm_source=vyhy616UjsMTA_hrWyg_5w", "review_count": 64, "categories": [{"alias": "vietnamese", "title": "Vietnamese"}, {"alias": "thai", "title": "Thai"}, {"alias": "chinese", "title": "Chinese"}], "rating": 4.5, "coordinates": {"latitude": 41.56775, "longitude": -93.61258}, "transactions": ["delivery"], "price": "$", "location": {"address1": "2128 Indianola Ave", "address2": "", "address3": "", "city": "Des Moines", "zip_code": "50315", "country": "US", "state": "IA", "display_address": ["2128 Indianola Ave", "Des Moines, IA 50315"]}, "phone": "+15155288009", "display_phone": "(515) 528-8009", "distance": 3252.8694688828277}, {"id": "EWR8Fe6KojIN4_zOv4v-jA", "alias": "w-tao-sushi-des-moines", "name": "W-Tao Sushi", "image_url": "https://s3-media4.fl.yelpcdn.com/bphoto/YB9g9v0qx9uznXOa4RWUVg/o.jpg", "is_closed": false, "url": "https://www.yelp.com/biz/w-tao-sushi-des-moines?adjust_creative=vyhy616UjsMTA_hrWyg_5w&utm_campaign=yelp_api_v3&utm_medium=api_v3_business_search&utm_source=vyhy616UjsMTA_hrWyg_5w", "review_count": 360, "categories": [{"alias": "japanese", "title": "Japanese"}, {"alias": "asianfusion", "title": "Asian Fusion"}, {"alias": "sushi", "title": "Sushi Bars"}], "rating": 4.5, "coordinates": {"latitude": 41.586055, "longitude": -93.62239}, "transactions": ["pickup", "delivery"], "price": "$$", "location": {"address1": "400 Walnut St", "address2": "", "address3": "", "city": "Des Moines", "zip_code": "50309", "country": "US", "state": "IA", "display_address": ["400 Walnut St", "Des Moines, IA 50309"]}, "phone": "+15157773636", "display_phone": "(515) 777-3636", "distance": 1233.9015371748544}, {"id": "k4kHgMBUmTjOWdr4fNsE3g", "alias": "vietnam-cafe-des-moines", "name": "Vietnam Cafe", "image_url": "https://s3-media4.fl.yelpcdn.com/bphoto/rzc6cde1UXtFEprgyQfs4w/o.jpg", "is_closed": false, "url": "https://www.yelp.com/biz/vietnam-cafe-des-moines?adjust_creative=vyhy616UjsMTA_hrWyg_5w&utm_campaign=yelp_api_v3&utm_medium=api_v3_business_search&utm_source=vyhy616UjsMTA_hrWyg_5w", "review_count": 74, "categories": [{"alias": "vietnamese", "title": "Vietnamese"}], "rating": 4.5, "coordinates": {"latitude": 41.6321818143638, "longitude": -93.7034024199905}, "transactions": ["delivery"], "price": "$", "location": {"address1": "3800 Merle Hay Rd", "address2": "", "address3": "", "city": "Des Moines", "zip_code": "50310", "country": "US", "state": "IA", "display_address": ["3800 Merle Hay Rd", "Des Moines, IA 50310"]}, "phone": "+15152528713", "display_phone": "(515) 252-8713", "distance": 7240.652805715953}, {"id": "cAP2zdY8SbPvpcc81W1S_g", "alias": "all-ph\u1edf-you-des-moines", "name": "All Ph\u1edf You", "image_url": "https://s3-media3.fl.yelpcdn.com/bphoto/JR0Ru0Ih5vkb2CbENiwONw/o.jpg", "is_closed": false, "url": "https://www.yelp.com/biz/all-ph%E1%BB%9F-you-des-moines?adjust_creative=vyhy616UjsMTA_hrWyg_5w&utm_campaign=yelp_api_v3&utm_medium=api_v3_business_search&utm_source=vyhy616UjsMTA_hrWyg_5w", "review_count": 11, "categories": [{"alias": "vietnamese", "title": "Vietnamese"}], "rating": 4.0, "coordinates": {"latitude": 41.599586, "longitude": -93.673898}, "transactions": ["pickup", "delivery"], "location": {"address1": "4120 University Ave", "address2": null, "address3": "", "city": "Des Moines", "zip_code": "50311", "country": "US", "state": "IA", "display_address": ["4120 University Ave", "Des Moines, IA 50311"]}, "phone": "+15152794711", "display_phone": "(515) 279-4711", "distance": 3335.2015733476114}, {"id": "7EtdqYcINDyqdq-VZnBO_g", "alias": "akebono-515-des-moines-2", "name": "Akebono 515", "image_url": "https://s3-media2.fl.yelpcdn.com/bphoto/nwH8J3CcDJTj_CJwXWUeRQ/o.jpg", "is_closed": false, "url": "https://www.yelp.com/biz/akebono-515-des-moines-2?adjust_creative=vyhy616UjsMTA_hrWyg_5w&utm_campaign=yelp_api_v3&utm_medium=api_v3_business_search&utm_source=vyhy616UjsMTA_hrWyg_5w", "review_count": 229, "categories": [{"alias": "sushi", "title": "Sushi Bars"}, {"alias": "japanese", "title": "Japanese"}], "rating": 4.5, "coordinates": {"latitude": 41.58448, "longitude": -93.62902}, "transactions": ["pickup", "delivery"], "price": "$$", "location": {"address1": "215 10th St", "address2": "Ste 120", "address3": "", "city": "Des Moines", "zip_code": "50309", "country": "US", "state": "IA", "display_address": ["215 10th St", "Ste 120", "Des Moines, IA 50309"]}, "phone": "+15152445972", "display_phone": "(515) 244-5972", "distance": 956.2020731566681}, {"id": "gwAaNRxQ5BQyfNOfPbo5WA", "alias": "fawns-asian-cuisine-des-moines", "name": "Fawn's Asian Cuisine", "image_url": "https://s3-media3.fl.yelpcdn.com/bphoto/P8MadXWeH-9cz8q4F6kFrQ/o.jpg", "is_closed": false, "url": "https://www.yelp.com/biz/fawns-asian-cuisine-des-moines?adjust_creative=vyhy616UjsMTA_hrWyg_5w&utm_campaign=yelp_api_v3&utm_medium=api_v3_business_search&utm_source=vyhy616UjsMTA_hrWyg_5w", "review_count": 60, "categories": [{"alias": "chinese", "title": "Chinese"}, {"alias": "asianfusion", "title": "Asian Fusion"}], "rating": 4.5, "coordinates": {"latitude": 41.60007, "longitude": -93.60546}, "transactions": ["delivery"], "price": "$", "location": {"address1": "1107 E University Ave", "address2": null, "address3": null, "city": "Des Moines", "zip_code": "50316", "country": "US", "state": "IA", "display_address": ["1107 E University Ave", "Des Moines, IA 50316"]}, "phone": "+15152660664", "display_phone": "(515) 266-0664", "distance": 2619.603591571557}, {"id": "orBzw4IPpAZfdNWlunqUMg", "alias": "heavenly-asian-cuisine-and-lounge-west-des-moines", "name": "Heavenly Asian Cuisine & Lounge", "image_url": "https://s3-media4.fl.yelpcdn.com/bphoto/6yfkznoFVyFTitX1ZliwrQ/o.jpg", "is_closed": false, "url": "https://www.yelp.com/biz/heavenly-asian-cuisine-and-lounge-west-des-moines?adjust_creative=vyhy616UjsMTA_hrWyg_5w&utm_campaign=yelp_api_v3&utm_medium=api_v3_business_search&utm_source=vyhy616UjsMTA_hrWyg_5w", "review_count": 94, "categories": [{"alias": "szechuan", "title": "Szechuan"}, {"alias": "lounges", "title": "Lounges"}, {"alias": "dimsum", "title": "Dim Sum"}], "rating": 4.0, "coordinates": {"latitude": 41.571979, "longitude": -93.7086572}, "transactions": ["pickup", "delivery"], "price": "$$", "location": {"address1": "225 5th St", "address2": "", "address3": null, "city": "West Des Moines", "zip_code": "50265", "country": "US", "state": "IA", "display_address": ["225 5th St", "West Des Moines, IA 50265"]}, "phone": "+15152749156", "display_phone": "(515) 274-9156", "distance": 6491.7123916404125}, {"id": "RnYfDCfvqVtgvJUkAkWuEw", "alias": "wasabi-chi-des-moines", "name": "Wasabi Chi", "image_url": "https://s3-media4.fl.yelpcdn.com/bphoto/nZu7IBaZhFpGlegHwBq_4A/o.jpg", "is_closed": false, "url": "https://www.yelp.com/biz/wasabi-chi-des-moines?adjust_creative=vyhy616UjsMTA_hrWyg_5w&utm_campaign=yelp_api_v3&utm_medium=api_v3_business_search&utm_source=vyhy616UjsMTA_hrWyg_5w", "review_count": 249, "categories": [{"alias": "sushi", "title": "Sushi Bars"}, {"alias": "asianfusion", "title": "Asian Fusion"}, {"alias": "japanese", "title": "Japanese"}], "rating": 4.5, "coordinates": {"latitude": 41.6291237, "longitude": -93.693255}, "transactions": ["pickup", "delivery"], "price": "$$", "location": {"address1": "5418 Douglas Ave", "address2": null, "address3": "", "city": "Des Moines", "zip_code": "50310", "country": "US", "state": "IA", "display_address": ["5418 Douglas Ave", "Des Moines, IA 50310"]}, "phone": "+15155288208", "display_phone": "(515) 528-8208", "distance": 6373.342457861305}, {"id": "68DZx2x1q1kBfTXemFK9Mw", "alias": "pho-all-seasons-des-moines", "name": "Pho All Seasons", "image_url": "https://s3-media2.fl.yelpcdn.com/bphoto/Bp2h6syq7zQLLiYpoLjEpA/o.jpg", "is_closed": false, "url": "https://www.yelp.com/biz/pho-all-seasons-des-moines?adjust_creative=vyhy616UjsMTA_hrWyg_5w&utm_campaign=yelp_api_v3&utm_medium=api_v3_business_search&utm_source=vyhy616UjsMTA_hrWyg_5w", "review_count": 149, "categories": [{"alias": "vietnamese", "title": "Vietnamese"}, {"alias": "bubbletea", "title": "Bubble Tea"}], "rating": 4.5, "coordinates": {"latitude": 41.6275751, "longitude": -93.6028166}, "transactions": ["delivery"], "price": "$", "location": {"address1": "1311 E Euclid Ave", "address2": null, "address3": "", "city": "Des Moines", "zip_code": "50316", "country": "US", "state": "IA", "display_address": ["1311 E Euclid Ave", "Des Moines, IA 50316"]}, "phone": "+15153301840", "display_phone": "(515) 330-1840", "distance": 4798.942357371079}, {"id": "QKEv7b0rIPIJOQ9uwRAAQA", "alias": "pho-real-kitchen-and-bar-des-moines", "name": "Pho Real Kitchen & Bar", "image_url": "https://s3-media4.fl.yelpcdn.com/bphoto/0qpqoFozJ7sM3W8elBouKA/o.jpg", "is_closed": false, "url": "https://www.yelp.com/biz/pho-real-kitchen-and-bar-des-moines?adjust_creative=vyhy616UjsMTA_hrWyg_5w&utm_campaign=yelp_api_v3&utm_medium=api_v3_business_search&utm_source=vyhy616UjsMTA_hrWyg_5w", "review_count": 49, "categories": [{"alias": "asianfusion", "title": "Asian Fusion"}, {"alias": "vietnamese", "title": "Vietnamese"}, {"alias": "bubbletea", "title": "Bubble Tea"}], "rating": 4.0, "coordinates": {"latitude": 41.585163, "longitude": -93.621827}, "transactions": ["pickup", "delivery"], "location": {"address1": "200 4th St", "address2": "", "address3": null, "city": "Des Moines", "zip_code": "50309", "country": "US", "state": "IA", "display_address": ["200 4th St", "Des Moines, IA 50309"]}, "phone": "+15156303552", "display_phone": "(515) 630-3552", "distance": 1316.4417392383532}, {"id": "_VVGw_Rf5WF8M2N7MstBhg", "alias": "tnt-vietnamese-restaurant-des-moines", "name": "TNT Vietnamese Restaurant", "image_url": "https://s3-media3.fl.yelpcdn.com/bphoto/Qbuud-ynCFrDu0X02YyXPw/o.jpg", "is_closed": false, "url": "https://www.yelp.com/biz/tnt-vietnamese-restaurant-des-moines?adjust_creative=vyhy616UjsMTA_hrWyg_5w&utm_campaign=yelp_api_v3&utm_medium=api_v3_business_search&utm_source=vyhy616UjsMTA_hrWyg_5w", "review_count": 35, "categories": [{"alias": "vietnamese", "title": "Vietnamese"}], "rating": 4.0, "coordinates": {"latitude": 41.6265591, "longitude": -93.6513473}, "transactions": ["pickup", "delivery"], "price": "$", "location": {"address1": "3452 Martin Luther King Pkwy", "address2": "", "address3": "", "city": "Des Moines", "zip_code": "50310", "country": "US", "state": "IA", "display_address": ["3452 Martin Luther King Pkwy", "Des Moines, IA 50310"]}, "phone": "+15152777790", "display_phone": "(515) 277-7790", "distance": 4125.448961218294}, {"id": "qvWM_8-om15d0TBBOIKEJA", "alias": "thai-flavors-des-moines", "name": "Thai Flavors", "image_url": "https://s3-media4.fl.yelpcdn.com/bphoto/QuUzcUuKvy04CTSqgXJ1bQ/o.jpg", "is_closed": false, "url": "https://www.yelp.com/biz/thai-flavors-des-moines?adjust_creative=vyhy616UjsMTA_hrWyg_5w&utm_campaign=yelp_api_v3&utm_medium=api_v3_business_search&utm_source=vyhy616UjsMTA_hrWyg_5w", "review_count": 141, "categories": [{"alias": "thai", "title": "Thai"}, {"alias": "sushi", "title": "Sushi Bars"}, {"alias": "vegetarian", "title": "Vegetarian"}], "rating": 4.0, "coordinates": {"latitude": 41.6021381852904, "longitude": -93.6011447479545}, "transactions": ["pickup", "delivery"], "price": "$$", "location": {"address1": "1254 E 14th St", "address2": "", "address3": "", "city": "Des Moines", "zip_code": "50316", "country": "US", "state": "IA", "display_address": ["1254 E 14th St", "Des Moines, IA 50316"]}, "phone": "+15152624658", "display_phone": "(515) 262-4658", "distance": 3049.6213673684397}, {"id": "iO6Pv5dSMHLqIM9MTN_XsA", "alias": "pho-515-des-moines", "name": "Pho 515", "image_url": "https://s3-media1.fl.yelpcdn.com/bphoto/MvpwjqcIj4MGIcx7P-nq4g/o.jpg", "is_closed": false, "url": "https://www.yelp.com/biz/pho-515-des-moines?adjust_creative=vyhy616UjsMTA_hrWyg_5w&utm_campaign=yelp_api_v3&utm_medium=api_v3_business_search&utm_source=vyhy616UjsMTA_hrWyg_5w", "review_count": 77, "categories": [{"alias": "vietnamese", "title": "Vietnamese"}], "rating": 4.0, "coordinates": {"latitude": 41.601356, "longitude": -93.627847}, "transactions": ["delivery"], "price": "$", "location": {"address1": "801 University Ave", "address2": "", "address3": "C Fresh Market", "city": "Des Moines", "zip_code": "50314", "country": "US", "state": "IA", "display_address": ["801 University Ave", "C Fresh Market", "Des Moines, IA 50314"]}, "phone": "+15152432434", "display_phone": "(515) 243-2434", "distance": 1224.000788977766}, {"id": "6aGmCQSlX2L5sfE1-B3kXw", "alias": "pho-888-des-moines", "name": "Pho 888", "image_url": "https://s3-media2.fl.yelpcdn.com/bphoto/lEkTCei1CVAxE9m03_NJeQ/o.jpg", "is_closed": false, "url": "https://www.yelp.com/biz/pho-888-des-moines?adjust_creative=vyhy616UjsMTA_hrWyg_5w&utm_campaign=yelp_api_v3&utm_medium=api_v3_business_search&utm_source=vyhy616UjsMTA_hrWyg_5w", "review_count": 90, "categories": [{"alias": "vietnamese", "title": "Vietnamese"}], "rating": 4.0, "coordinates": {"latitude": 41.606584, "longitude": -93.619304}, "transactions": ["delivery"], "price": "$", "location": {"address1": "1512 2nd Ave", "address2": "", "address3": "", "city": "Des Moines", "zip_code": "50314", "country": "US", "state": "IA", "display_address": ["1512 2nd Ave", "Des Moines, IA 50314"]}, "phone": "+15152881595", "display_phone": "(515) 288-1595", "distance": 2106.1768319519456}, {"id": "qEAf29E8Dfu0xQJEmRYiJg", "alias": "mandarin-grill-and-sushi-bar-clive", "name": "Mandarin Grill & Sushi Bar", "image_url": "https://s3-media1.fl.yelpcdn.com/bphoto/DpQ_ErpE6lehZmFIG3Qeig/o.jpg", "is_closed": false, "url": "https://www.yelp.com/biz/mandarin-grill-and-sushi-bar-clive?adjust_creative=vyhy616UjsMTA_hrWyg_5w&utm_campaign=yelp_api_v3&utm_medium=api_v3_business_search&utm_source=vyhy616UjsMTA_hrWyg_5w", "review_count": 96, "categories": [{"alias": "asianfusion", "title": "Asian Fusion"}, {"alias": "sushi", "title": "Sushi Bars"}, {"alias": "korean", "title": "Korean"}], "rating": 4.0, "coordinates": {"latitude": 41.60181, "longitude": -93.79498}, "transactions": ["delivery"], "price": "$$", "location": {"address1": "1250 NW 128th St", "address2": "Ste 100", "address3": "", "city": "Clive", "zip_code": "50325", "country": "US", "state": "IA", "display_address": ["1250 NW 128th St", "Ste 100", "Clive, IA 50325"]}, "phone": "+15153275988", "display_phone": "(515) 327-5988", "distance": 13343.939683446522}, {"id": "33M3JODLCQT0R5xHioeiAw", "alias": "eat-thai-thai-eatery-west-des-moines-3", "name": "Eat Thai, Thai Eatery", "image_url": "https://s3-media1.fl.yelpcdn.com/bphoto/JQBjasFyr0PP31rBjTTjYg/o.jpg", "is_closed": false, "url": "https://www.yelp.com/biz/eat-thai-thai-eatery-west-des-moines-3?adjust_creative=vyhy616UjsMTA_hrWyg_5w&utm_campaign=yelp_api_v3&utm_medium=api_v3_business_search&utm_source=vyhy616UjsMTA_hrWyg_5w", "review_count": 157, "categories": [{"alias": "thai", "title": "Thai"}], "rating": 4.5, "coordinates": {"latitude": 41.599859, "longitude": -93.735349}, "transactions": ["delivery"], "price": "$$", "location": {"address1": "1821 22nd St", "address2": "Ste 103", "address3": null, "city": "West Des Moines", "zip_code": "50266", "country": "US", "state": "IA", "display_address": ["1821 22nd St", "Ste 103", "West Des Moines, IA 50266"]}, "phone": "+15154402075", "display_phone": "(515) 440-2075", "distance": 8384.549420315267}, {"id": "uFUAUrftc_TiSdO4Ej0y0g", "alias": "banana-leaf-west-des-moines", "name": "Banana Leaf", "image_url": "https://s3-media3.fl.yelpcdn.com/bphoto/K-SQ1h4-T4lQzlEGhgfJDg/o.jpg", "is_closed": false, "url": "https://www.yelp.com/biz/banana-leaf-west-des-moines?adjust_creative=vyhy616UjsMTA_hrWyg_5w&utm_campaign=yelp_api_v3&utm_medium=api_v3_business_search&utm_source=vyhy616UjsMTA_hrWyg_5w", "review_count": 101, "categories": [{"alias": "asianfusion", "title": "Asian Fusion"}], "rating": 4.0, "coordinates": {"latitude": 41.5593249, "longitude": -93.7832466}, "transactions": ["delivery"], "price": "$$", "location": {"address1": "5515 Mills Civic Pkwy", "address2": "", "address3": null, "city": "West Des Moines", "zip_code": "50266", "country": "US", "state": "IA", "display_address": ["5515 Mills Civic Pkwy", "West Des Moines, IA 50266"]}, "phone": "+15154400854", "display_phone": "(515) 440-0854", "distance": 12802.559304069007}, {"id": "ioDvbtSE-SEoaRHj9c3dsw", "alias": "siam-table-ankeny", "name": "Siam Table", "image_url": "https://s3-media2.fl.yelpcdn.com/bphoto/wrCovL0fBkM5g8Xs3q6HiQ/o.jpg", "is_closed": false, "url": "https://www.yelp.com/biz/siam-table-ankeny?adjust_creative=vyhy616UjsMTA_hrWyg_5w&utm_campaign=yelp_api_v3&utm_medium=api_v3_business_search&utm_source=vyhy616UjsMTA_hrWyg_5w", "review_count": 66, "categories": [{"alias": "thai", "title": "Thai"}], "rating": 4.5, "coordinates": {"latitude": 41.73799, "longitude": -93.599709}, "transactions": ["pickup", "delivery"], "price": "$$", "location": {"address1": "757 N Ankeny Blvd", "address2": "", "address3": null, "city": "Ankeny", "zip_code": "50023", "country": "US", "state": "IA", "display_address": ["757 N Ankeny Blvd", "Ankeny, IA 50023"]}, "phone": "+15159647715", "display_phone": "(515) 964-7715", "distance": 16521.69649549243}, {"id": "6NBNMWh0zi8GwhHQ475XKQ", "alias": "kaiju-ramen-des-moines", "name": "Kaiju Ramen", "image_url": "https://s3-media1.fl.yelpcdn.com/bphoto/2WZXg7OANdL34yiC9dnSAw/o.jpg", "is_closed": false, "url": "https://www.yelp.com/biz/kaiju-ramen-des-moines?adjust_creative=vyhy616UjsMTA_hrWyg_5w&utm_campaign=yelp_api_v3&utm_medium=api_v3_business_search&utm_source=vyhy616UjsMTA_hrWyg_5w", "review_count": 4, "categories": [{"alias": "ramen", "title": "Ramen"}], "rating": 3.5, "coordinates": {"latitude": 41.59059524404344, "longitude": -93.61343007534742}, "transactions": ["pickup", "delivery"], "location": {"address1": "300 E Grand Ave", "address2": "", "address3": null, "city": "Des Moines", "zip_code": "50309", "country": "US", "state": "IA", "display_address": ["300 E Grand Ave", "Des Moines, IA 50309"]}, "phone": "", "display_phone": "", "distance": 1807.0293117076817}, {"id": "nSS0T3k4l8fbSThRIGf8ig", "alias": "wongs-chopsticks-johnston", "name": "Wong's Chopsticks", "image_url": "https://s3-media1.fl.yelpcdn.com/bphoto/IlU8mfNfhlymvbw1uF7LZw/o.jpg", "is_closed": false, "url": "https://www.yelp.com/biz/wongs-chopsticks-johnston?adjust_creative=vyhy616UjsMTA_hrWyg_5w&utm_campaign=yelp_api_v3&utm_medium=api_v3_business_search&utm_source=vyhy616UjsMTA_hrWyg_5w", "review_count": 75, "categories": [{"alias": "dimsum", "title": "Dim Sum"}], "rating": 3.5, "coordinates": {"latitude": 41.660457611084, "longitude": -93.6983337402344}, "transactions": ["delivery"], "price": "$", "location": {"address1": "5500 Merle Hay Rd", "address2": null, "address3": null, "city": "Johnston", "zip_code": "50131", "country": "US", "state": "IA", "display_address": ["5500 Merle Hay Rd", "Johnston, IA 50131"]}, "phone": "+15157275136", "display_phone": "(515) 727-5136", "distance": 9282.605178098602}, {"id": "5ZLLnTbVUAL5LKGqWkvVcw", "alias": "cool-basil-clive-2", "name": "Cool Basil", "image_url": "https://s3-media2.fl.yelpcdn.com/bphoto/IFu01-_3LLf-t98QbE3HAA/o.jpg", "is_closed": false, "url": "https://www.yelp.com/biz/cool-basil-clive-2?adjust_creative=vyhy616UjsMTA_hrWyg_5w&utm_campaign=yelp_api_v3&utm_medium=api_v3_business_search&utm_source=vyhy616UjsMTA_hrWyg_5w", "review_count": 263, "categories": [{"alias": "thai", "title": "Thai"}, {"alias": "sushi", "title": "Sushi Bars"}, {"alias": "chinese", "title": "Chinese"}], "rating": 4.0, "coordinates": {"latitude": 41.601647, "longitude": -93.736984}, "transactions": ["pickup", "delivery"], "price": "$$", "location": {"address1": "1250 86th St", "address2": "", "address3": "", "city": "Clive", "zip_code": "50325", "country": "US", "state": "IA", "display_address": ["1250 86th St", "Clive, IA 50325"]}, "phone": "+15152258111", "display_phone": "(515) 225-8111", "distance": 8534.18300171704}, {"id": "8tkXXTrgPHTj0rDB-HBMDw", "alias": "pho-85-ankeny", "name": "Pho 85", "image_url": "https://s3-media2.fl.yelpcdn.com/bphoto/RMgJFPZJaDLFtV_Scl3IOw/o.jpg", "is_closed": false, "url": "https://www.yelp.com/biz/pho-85-ankeny?adjust_creative=vyhy616UjsMTA_hrWyg_5w&utm_campaign=yelp_api_v3&utm_medium=api_v3_business_search&utm_source=vyhy616UjsMTA_hrWyg_5w", "review_count": 76, "categories": [{"alias": "vietnamese", "title": "Vietnamese"}], "rating": 4.0, "coordinates": {"latitude": 41.7122, "longitude": -93.57864}, "transactions": ["delivery"], "price": "$", "location": {"address1": "1701 SE Delaware Ave", "address2": "Ste 200", "address3": "", "city": "Ankeny", "zip_code": "50021", "country": "US", "state": "IA", "display_address": ["1701 SE Delaware Ave", "Ste 200", "Ankeny, IA 50021"]}, "phone": "+15159642388", "display_phone": "(515) 964-2388", "distance": 14161.269287632316}, {"id": "o1qxn_lYx7pcQ8lfE9CFlA", "alias": "teriyaki-house-des-moines", "name": "Teriyaki House", "image_url": "https://s3-media3.fl.yelpcdn.com/bphoto/W7h-TlXrJrRCOhjgDnRczw/o.jpg", "is_closed": false, "url": "https://www.yelp.com/biz/teriyaki-house-des-moines?adjust_creative=vyhy616UjsMTA_hrWyg_5w&utm_campaign=yelp_api_v3&utm_medium=api_v3_business_search&utm_source=vyhy616UjsMTA_hrWyg_5w", "review_count": 40, "categories": [{"alias": "japanese", "title": "Japanese"}], "rating": 4.5, "coordinates": {"latitude": 41.5993799, "longitude": -93.60035}, "transactions": ["pickup", "delivery"], "price": "$", "location": {"address1": "1014 E 14th St", "address2": "", "address3": "", "city": "Des Moines", "zip_code": "50316", "country": "US", "state": "IA", "display_address": ["1014 E 14th St", "Des Moines, IA 50316"]}, "phone": "+15152622889", "display_phone": "(515) 262-2889", "distance": 3003.802702280217}, {"id": "PJYX6fb8PUVP3ntqYCKqFw", "alias": "blue-sushi-sake-grill-des-moines", "name": "Blue Sushi Sake Grill", "image_url": "https://s3-media3.fl.yelpcdn.com/bphoto/qBvrAoS5uyZdS4JyzPJ3ew/o.jpg", "is_closed": false, "url": "https://www.yelp.com/biz/blue-sushi-sake-grill-des-moines?adjust_creative=vyhy616UjsMTA_hrWyg_5w&utm_campaign=yelp_api_v3&utm_medium=api_v3_business_search&utm_source=vyhy616UjsMTA_hrWyg_5w", "review_count": 93, "categories": [{"alias": "sushi", "title": "Sushi Bars"}, {"alias": "japanese", "title": "Japanese"}, {"alias": "cocktailbars", "title": "Cocktail Bars"}], "rating": 4.5, "coordinates": {"latitude": 41.58483, "longitude": -93.62137}, "transactions": ["pickup", "delivery"], "price": "$$", "location": {"address1": "316 Court Ave", "address2": null, "address3": null, "city": "Des Moines", "zip_code": "50309", "country": "US", "state": "IA", "display_address": ["316 Court Ave", "Des Moines, IA 50309"]}, "phone": "+15153796800", "display_phone": "(515) 379-6800", "distance": 1391.7977115112647}, {"id": "mXuR3Jk_k4tVdZBy5GC1KQ", "alias": "sams-fine-food-egg-rolls-des-moines", "name": "Sam's Fine Food Egg Rolls", "image_url": "https://s3-media3.fl.yelpcdn.com/bphoto/8lkgLAEJXk6HkL05COevew/o.jpg", "is_closed": false, "url": "https://www.yelp.com/biz/sams-fine-food-egg-rolls-des-moines?adjust_creative=vyhy616UjsMTA_hrWyg_5w&utm_campaign=yelp_api_v3&utm_medium=api_v3_business_search&utm_source=vyhy616UjsMTA_hrWyg_5w", "review_count": 95, "categories": [{"alias": "chinese", "title": "Chinese"}], "rating": 4.5, "coordinates": {"latitude": 41.5541789, "longitude": -93.6258949}, "transactions": ["delivery"], "price": "$", "location": {"address1": "3300 SW 9th St", "address2": "Ste 4", "address3": "", "city": "Des Moines", "zip_code": "50315", "country": "US", "state": "IA", "display_address": ["3300 SW 9th St", "Ste 4", "Des Moines, IA 50315"]}, "phone": "+15152885400", "display_phone": "(515) 288-5400", "distance": 4207.751769208035}, {"id": "-8Y60jXZlTDC3QFc09vkMQ", "alias": "nut-pob-restaurant-des-moines", "name": "Nut POB Restaurant", "image_url": "https://s3-media3.fl.yelpcdn.com/bphoto/HNq-VBYCrSKnskhfwkWEDg/o.jpg", "is_closed": false, "url": "https://www.yelp.com/biz/nut-pob-restaurant-des-moines?adjust_creative=vyhy616UjsMTA_hrWyg_5w&utm_campaign=yelp_api_v3&utm_medium=api_v3_business_search&utm_source=vyhy616UjsMTA_hrWyg_5w", "review_count": 66, "categories": [{"alias": "thai", "title": "Thai"}], "rating": 3.5, "coordinates": {"latitude": 41.553829, "longitude": -93.597961}, "transactions": ["delivery"], "price": "$$", "location": {"address1": "3322 Indianola Ave", "address2": "", "address3": "", "city": "Des Moines", "zip_code": "50315", "country": "US", "state": "IA", "display_address": ["3322 Indianola Ave", "Des Moines, IA 50315"]}, "phone": "+15152468055", "display_phone": "(515) 246-8055", "distance": 5229.868363376384}, {"id": "75zt-YP_NEux9KpH4rts6Q", "alias": "c-fresh-market-des-moines", "name": "C Fresh Market", "image_url": "https://s3-media1.fl.yelpcdn.com/bphoto/tlZP8tuKNZnXHKCRjRGmIw/o.jpg", "is_closed": false, "url": "https://www.yelp.com/biz/c-fresh-market-des-moines?adjust_creative=vyhy616UjsMTA_hrWyg_5w&utm_campaign=yelp_api_v3&utm_medium=api_v3_business_search&utm_source=vyhy616UjsMTA_hrWyg_5w", "review_count": 67, "categories": [{"alias": "vietnamese", "title": "Vietnamese"}, {"alias": "grocery", "title": "Grocery"}, {"alias": "meats", "title": "Meat Shops"}], "rating": 4.5, "coordinates": {"latitude": 41.6011566981563, "longitude": -93.6277889460325}, "transactions": ["delivery"], "price": "$", "location": {"address1": "801 University Ave", "address2": "", "address3": "", "city": "Des Moines", "zip_code": "50314", "country": "US", "state": "IA", "display_address": ["801 University Ave", "Des Moines, IA 50314"]}, "phone": "+15152880525", "display_phone": "(515) 288-0525", "distance": 1207.1921825638706}, {"id": "wbZZ5ONE0I31gZeT0ZeAZQ", "alias": "teriyaki-boys-des-moines", "name": "Teriyaki Boys", "image_url": "https://s3-media1.fl.yelpcdn.com/bphoto/Fw_daEcdoq-5jsTiPtgDxA/o.jpg", "is_closed": false, "url": "https://www.yelp.com/biz/teriyaki-boys-des-moines?adjust_creative=vyhy616UjsMTA_hrWyg_5w&utm_campaign=yelp_api_v3&utm_medium=api_v3_business_search&utm_source=vyhy616UjsMTA_hrWyg_5w", "review_count": 11, "categories": [{"alias": "asianfusion", "title": "Asian Fusion"}, {"alias": "salad", "title": "Salad"}, {"alias": "japanese", "title": "Japanese"}], "rating": 4.5, "coordinates": {"latitude": 41.5861499503406, "longitude": -93.6266798526049}, "transactions": ["pickup", "delivery"], "price": "$", "location": {"address1": "700 Locust St", "address2": "Ste A1", "address3": "", "city": "Des Moines", "zip_code": "50309", "country": "US", "state": "IA", "display_address": ["700 Locust St", "Ste A1", "Des Moines, IA 50309"]}, "phone": "+15152826688", "display_phone": "(515) 282-6688", "distance": 939.2336014652582}, {"id": "t18jtrXrTF4F6QSc-BKjvw", "alias": "wasabi-ankeny-ankeny", "name": "Wasabi-Ankeny", "image_url": "https://s3-media4.fl.yelpcdn.com/bphoto/Wn6yDILhRaE84kkf6yxhbg/o.jpg", "is_closed": false, "url": "https://www.yelp.com/biz/wasabi-ankeny-ankeny?adjust_creative=vyhy616UjsMTA_hrWyg_5w&utm_campaign=yelp_api_v3&utm_medium=api_v3_business_search&utm_source=vyhy616UjsMTA_hrWyg_5w", "review_count": 69, "categories": [{"alias": "sushi", "title": "Sushi Bars"}, {"alias": "japanese", "title": "Japanese"}], "rating": 4.5, "coordinates": {"latitude": 41.712992, "longitude": -93.617381}, "transactions": ["pickup", "delivery"], "location": {"address1": "1615 SW Main St", "address2": "Ste 100", "address3": null, "city": "Ankeny", "zip_code": "50023", "country": "US", "state": "IA", "display_address": ["1615 SW Main St", "Ste 100", "Ankeny, IA 50023"]}, "phone": "+15152645210", "display_phone": "(515) 264-5210", "distance": 13546.794361832443}, {"id": "zy6tCx3nYuXkNcb6VY1YLg", "alias": "rolling-wok-asian-cuisine-and-pho-grimes", "name": "Rolling Wok Asian Cuisine & Pho", "image_url": "https://s3-media3.fl.yelpcdn.com/bphoto/jwKaWE6F3ryzHH0Sg4MnTA/o.jpg", "is_closed": false, "url": "https://www.yelp.com/biz/rolling-wok-asian-cuisine-and-pho-grimes?adjust_creative=vyhy616UjsMTA_hrWyg_5w&utm_campaign=yelp_api_v3&utm_medium=api_v3_business_search&utm_source=vyhy616UjsMTA_hrWyg_5w", "review_count": 17, "categories": [{"alias": "thai", "title": "Thai"}, {"alias": "vietnamese", "title": "Vietnamese"}, {"alias": "laotian", "title": "Laotian"}], "rating": 4.5, "coordinates": {"latitude": 41.659, "longitude": -93.77298}, "transactions": ["pickup", "delivery"], "location": {"address1": "3600 SE Crossroads Dr", "address2": "Ste F", "address3": "", "city": "Grimes", "zip_code": "50111", "country": "US", "state": "IA", "display_address": ["3600 SE Crossroads Dr", "Ste F", "Grimes, IA 50111"]}, "phone": "+15153009521", "display_phone": "(515) 300-9521", "distance": 13690.349891881833}, {"id": "YoqCSznD7If-Ui4NVV7Q9g", "alias": "de-rice-johnston", "name": "De Rice", "image_url": "https://s3-media2.fl.yelpcdn.com/bphoto/hivHeH0aDzuPcFK2Wb8xYw/o.jpg", "is_closed": false, "url": "https://www.yelp.com/biz/de-rice-johnston?adjust_creative=vyhy616UjsMTA_hrWyg_5w&utm_campaign=yelp_api_v3&utm_medium=api_v3_business_search&utm_source=vyhy616UjsMTA_hrWyg_5w", "review_count": 18, "categories": [{"alias": "thai", "title": "Thai"}, {"alias": "chinese", "title": "Chinese"}, {"alias": "sushi", "title": "Sushi Bars"}], "rating": 4.5, "coordinates": {"latitude": 41.6542, "longitude": -93.73441}, "transactions": ["pickup", "delivery"], "location": {"address1": "8430 Birchwood Ct", "address2": "", "address3": null, "city": "Johnston", "zip_code": "50131", "country": "US", "state": "IA", "display_address": ["8430 Birchwood Ct", "Johnston, IA 50131"]}, "phone": "+15156350682", "display_phone": "(515) 635-0682", "distance": 10797.027086824024}, {"id": "d2ujVS-bYEf8RSgSeXq87A", "alias": "hana-ramen-sushi-west-des-moines", "name": "Hana Ramen Sushi", "image_url": "https://s3-media2.fl.yelpcdn.com/bphoto/3mf1658OobogmniUZg4C4A/o.jpg", "is_closed": false, "url": "https://www.yelp.com/biz/hana-ramen-sushi-west-des-moines?adjust_creative=vyhy616UjsMTA_hrWyg_5w&utm_campaign=yelp_api_v3&utm_medium=api_v3_business_search&utm_source=vyhy616UjsMTA_hrWyg_5w", "review_count": 185, "categories": [{"alias": "sushi", "title": "Sushi Bars"}, {"alias": "ramen", "title": "Ramen"}], "rating": 4.5, "coordinates": {"latitude": 41.567717, "longitude": -93.811686}, "transactions": ["delivery"], "price": "$$", "location": {"address1": "7450 Bridgewood Blvd", "address2": "Ste 205", "address3": null, "city": "West Des Moines", "zip_code": "50266", "country": "US", "state": "IA", "display_address": ["7450 Bridgewood Blvd", "Ste 205", "West Des Moines, IA 50266"]}, "phone": "+15152229998", "display_phone": "(515) 222-9998", "distance": 14929.527761781248}, {"id": "wxhACi15_mzyUrYLPAr5lw", "alias": "china-cafe-johnston-2", "name": "China Cafe", "image_url": "https://s3-media2.fl.yelpcdn.com/bphoto/TiCU31JFVLD9phqVG9g-NA/o.jpg", "is_closed": false, "url": "https://www.yelp.com/biz/china-cafe-johnston-2?adjust_creative=vyhy616UjsMTA_hrWyg_5w&utm_campaign=yelp_api_v3&utm_medium=api_v3_business_search&utm_source=vyhy616UjsMTA_hrWyg_5w", "review_count": 13, "categories": [{"alias": "chinese", "title": "Chinese"}, {"alias": "asianfusion", "title": "Asian Fusion"}], "rating": 4.0, "coordinates": {"latitude": 41.6688036, "longitude": -93.6975551}, "transactions": ["pickup", "delivery"], "location": {"address1": "5969 Merle Hay Rd", "address2": "Ste B", "address3": "", "city": "Johnston", "zip_code": "50131", "country": "US", "state": "IA", "display_address": ["5969 Merle Hay Rd", "Ste B", "Johnston, IA 50131"]}, "phone": "+15152141750", "display_phone": "(515) 214-1750", "distance": 9833.287399461053}, {"id": "NH16Ia5zMxj7BsDqII8W5A", "alias": "flying-mon-des-moines", "name": "Flying Mon", "image_url": "https://s3-media1.fl.yelpcdn.com/bphoto/2KMZ7HCXlS7jZrepF_y3OQ/o.jpg", "is_closed": false, "url": "https://www.yelp.com/biz/flying-mon-des-moines?adjust_creative=vyhy616UjsMTA_hrWyg_5w&utm_campaign=yelp_api_v3&utm_medium=api_v3_business_search&utm_source=vyhy616UjsMTA_hrWyg_5w", "review_count": 8, "categories": [{"alias": "noodles", "title": "Noodles"}], "rating": 3.5, "coordinates": {"latitude": 41.628863207820814, "longitude": -93.69837932288645}, "transactions": ["pickup", "delivery"], "location": {"address1": "3708 Merle Hay Rd", "address2": "", "address3": null, "city": "Des Moines", "zip_code": "50310", "country": "US", "state": "IA", "display_address": ["3708 Merle Hay Rd", "Des Moines, IA 50310"]}, "phone": "+15156300209", "display_phone": "(515) 630-0209", "distance": 6684.372736537402}, {"id": "_Z7vBDrs8Hr7KTA0lHs18w", "alias": "iron-wok-west-des-moines-2", "name": "Iron Wok", "image_url": "https://s3-media3.fl.yelpcdn.com/bphoto/OTefy-3iLET-X8rLPh9-Cw/o.jpg", "is_closed": false, "url": "https://www.yelp.com/biz/iron-wok-west-des-moines-2?adjust_creative=vyhy616UjsMTA_hrWyg_5w&utm_campaign=yelp_api_v3&utm_medium=api_v3_business_search&utm_source=vyhy616UjsMTA_hrWyg_5w", "review_count": 63, "categories": [{"alias": "chinese", "title": "Chinese"}], "rating": 4.0, "coordinates": {"latitude": 41.56132, "longitude": -93.79922}, "transactions": ["delivery"], "price": "$$", "location": {"address1": "6630 Mills Civic Pkwy", "address2": "", "address3": "", "city": "West Des Moines", "zip_code": "50266", "country": "US", "state": "IA", "display_address": ["6630 Mills Civic Pkwy", "West Des Moines, IA 50266"]}, "phone": "+15152242100", "display_phone": "(515) 224-2100", "distance": 14066.242630850647}, {"id": "QYXVu05PbrH6707YS-Hzww", "alias": "wasabi-johnston-johnston-2", "name": "Wasabi - Johnston", "image_url": "https://s3-media1.fl.yelpcdn.com/bphoto/gOj-Ol5pwFlZG3wzc34FAw/o.jpg", "is_closed": false, "url": "https://www.yelp.com/biz/wasabi-johnston-johnston-2?adjust_creative=vyhy616UjsMTA_hrWyg_5w&utm_campaign=yelp_api_v3&utm_medium=api_v3_business_search&utm_source=vyhy616UjsMTA_hrWyg_5w", "review_count": 64, "categories": [{"alias": "sushi", "title": "Sushi Bars"}, {"alias": "ramen", "title": "Ramen"}, {"alias": "asianfusion", "title": "Asian Fusion"}], "rating": 4.5, "coordinates": {"latitude": 41.66125, "longitude": -93.73792}, "transactions": ["pickup", "delivery"], "price": "$$", "location": {"address1": "8705 Chambery Blvd", "address2": "Ste 700", "address3": "", "city": "Johnston", "zip_code": "50131", "country": "US", "state": "IA", "display_address": ["8705 Chambery Blvd", "Ste 700", "Johnston, IA 50131"]}, "phone": "+15152529998", "display_phone": "(515) 252-9998", "distance": 11537.11777750364}, {"id": "hfBmNuqVr-1PtLCDadBXYg", "alias": "haiku-des-moines", "name": "Haiku", "image_url": "https://s3-media3.fl.yelpcdn.com/bphoto/wqz4BfQANZEQ3ea4uOUFnQ/o.jpg", "is_closed": false, "url": "https://www.yelp.com/biz/haiku-des-moines?adjust_creative=vyhy616UjsMTA_hrWyg_5w&utm_campaign=yelp_api_v3&utm_medium=api_v3_business_search&utm_source=vyhy616UjsMTA_hrWyg_5w", "review_count": 87, "categories": [{"alias": "sushi", "title": "Sushi Bars"}], "rating": 4.0, "coordinates": {"latitude": 41.60275, "longitude": -93.65903}, "transactions": ["delivery"], "price": "$$", "location": {"address1": "1315 31st St", "address2": "", "address3": "", "city": "Des Moines", "zip_code": "50311", "country": "US", "state": "IA", "display_address": ["1315 31st St", "Des Moines, IA 50311"]}, "phone": "+15152776704", "display_phone": "(515) 277-6704", "distance": 2301.139375907565}, {"id": "6gafPIccopvsZStt75RwEA", "alias": "miyabi-9-des-moines", "name": "Miyabi 9", "image_url": "https://s3-media1.fl.yelpcdn.com/bphoto/xXALN0LPK2AtoE1oDk7Ceg/o.jpg", "is_closed": false, "url": "https://www.yelp.com/biz/miyabi-9-des-moines?adjust_creative=vyhy616UjsMTA_hrWyg_5w&utm_campaign=yelp_api_v3&utm_medium=api_v3_business_search&utm_source=vyhy616UjsMTA_hrWyg_5w", "review_count": 160, "categories": [{"alias": "sushi", "title": "Sushi Bars"}, {"alias": "japanese", "title": "Japanese"}, {"alias": "salad", "title": "Salad"}], "rating": 4.0, "coordinates": {"latitude": 41.5908547, "longitude": -93.6109377}, "transactions": ["delivery"], "price": "$$", "location": {"address1": "512 E Grand Ave", "address2": "", "address3": "", "city": "Des Moines", "zip_code": "50309", "country": "US", "state": "IA", "display_address": ["512 E Grand Ave", "Des Moines, IA 50309"]}, "phone": "+15152888885", "display_phone": "(515) 288-8885", "distance": 2009.6545386686314}, {"id": "GZUvKx4iwAd7pmfxKKV8Tw", "alias": "alohana-hawaiian-grill-ankeny", "name": "Alohana Hawaiian Grill", "image_url": "https://s3-media2.fl.yelpcdn.com/bphoto/kHs9tkmCZGqPgUi8qk1tKA/o.jpg", "is_closed": false, "url": "https://www.yelp.com/biz/alohana-hawaiian-grill-ankeny?adjust_creative=vyhy616UjsMTA_hrWyg_5w&utm_campaign=yelp_api_v3&utm_medium=api_v3_business_search&utm_source=vyhy616UjsMTA_hrWyg_5w", "review_count": 145, "categories": [{"alias": "hawaiian", "title": "Hawaiian"}, {"alias": "tradamerican", "title": "American (Traditional)"}], "rating": 4.0, "coordinates": {"latitude": 41.70356, "longitude": -93.58522}, "transactions": ["delivery"], "price": "$", "location": {"address1": "802 SE Oralabor Rd", "address2": "Ste 128", "address3": "", "city": "Ankeny", "zip_code": "50021", "country": "US", "state": "IA", "display_address": ["802 SE Oralabor Rd", "Ste 128", "Ankeny, IA 50021"]}, "phone": "+15159642800", "display_phone": "(515) 964-2800", "distance": 13105.48527152172}, {"id": "Ax0-ogVDYrIQpPppoM11Jw", "alias": "shang-yuen-chinese-fast-food-des-moines", "name": "Shang Yuen Chinese Fast Food", "image_url": "https://s3-media3.fl.yelpcdn.com/bphoto/oP8bjUwlGfl81NN3MJUyiA/o.jpg", "is_closed": false, "url": "https://www.yelp.com/biz/shang-yuen-chinese-fast-food-des-moines?adjust_creative=vyhy616UjsMTA_hrWyg_5w&utm_campaign=yelp_api_v3&utm_medium=api_v3_business_search&utm_source=vyhy616UjsMTA_hrWyg_5w", "review_count": 40, "categories": [{"alias": "chinese", "title": "Chinese"}], "rating": 3.5, "coordinates": {"latitude": 41.6150246, "longitude": -93.6970139}, "transactions": ["delivery"], "price": "$", "location": {"address1": "5717 Hickman Rd", "address2": "", "address3": "", "city": "Des Moines", "zip_code": "50310", "country": "US", "state": "IA", "display_address": ["5717 Hickman Rd", "Des Moines, IA 50310"]}, "phone": "+15152771000", "display_phone": "(515) 277-1000", "distance": 5765.8616238265895}, {"id": "GJDSDoz9csqBSGx1tmi1Zg", "alias": "asian-cuisine-grimes", "name": "Asian Cuisine", "image_url": "https://s3-media3.fl.yelpcdn.com/bphoto/b35JRGXBPtl1PS5tPzD8Rg/o.jpg", "is_closed": false, "url": "https://www.yelp.com/biz/asian-cuisine-grimes?adjust_creative=vyhy616UjsMTA_hrWyg_5w&utm_campaign=yelp_api_v3&utm_medium=api_v3_business_search&utm_source=vyhy616UjsMTA_hrWyg_5w", "review_count": 30, "categories": [{"alias": "chinese", "title": "Chinese"}], "rating": 4.0, "coordinates": {"latitude": 41.68749, "longitude": -93.78125}, "transactions": ["delivery"], "price": "$", "location": {"address1": "200 SE Gateway Dr", "address2": "Ste 101", "address3": "", "city": "Grimes", "zip_code": "50111", "country": "US", "state": "IA", "display_address": ["200 SE Gateway Dr", "Ste 101", "Grimes, IA 50111"]}, "phone": "+15159869498", "display_phone": "(515) 986-9498", "distance": 16157.148246757344}, {"id": "9Bm4DLFBBqwsWRqXVqX0Ww", "alias": "mandarin-noodle-house-johnston", "name": "Mandarin Noodle House", "image_url": "https://s3-media4.fl.yelpcdn.com/bphoto/KG4SW36fKyzm_nbfM2smsQ/o.jpg", "is_closed": false, "url": "https://www.yelp.com/biz/mandarin-noodle-house-johnston?adjust_creative=vyhy616UjsMTA_hrWyg_5w&utm_campaign=yelp_api_v3&utm_medium=api_v3_business_search&utm_source=vyhy616UjsMTA_hrWyg_5w", "review_count": 40, "categories": [{"alias": "chinese", "title": "Chinese"}, {"alias": "asianfusion", "title": "Asian Fusion"}], "rating": 4.0, "coordinates": {"latitude": 41.6556977, "longitude": -93.7390849}, "transactions": ["delivery"], "price": "$$", "location": {"address1": "8769 Northpark Ct", "address2": "", "address3": null, "city": "Johnston", "zip_code": "50131", "country": "US", "state": "IA", "display_address": ["8769 Northpark Ct", "Johnston, IA 50131"]}, "phone": "+15152513975", "display_phone": "(515) 251-3975", "distance": 11111.010966874703}, {"id": "HjwivLt9JKBcSeu1aCmdBA", "alias": "lucky-bamboo-ankeny", "name": "Lucky Bamboo", "image_url": "https://s3-media1.fl.yelpcdn.com/bphoto/UaFwv5EIvt_a-KHd5L9T5g/o.jpg", "is_closed": false, "url": "https://www.yelp.com/biz/lucky-bamboo-ankeny?adjust_creative=vyhy616UjsMTA_hrWyg_5w&utm_campaign=yelp_api_v3&utm_medium=api_v3_business_search&utm_source=vyhy616UjsMTA_hrWyg_5w", "review_count": 74, "categories": [{"alias": "chinese", "title": "Chinese"}, {"alias": "asianfusion", "title": "Asian Fusion"}], "rating": 4.0, "coordinates": {"latitude": 41.71476, "longitude": -93.580577}, "transactions": ["delivery"], "price": "$", "location": {"address1": "1555 Se Delaware Ave", "address2": "Ste 1", "address3": "", "city": "Ankeny", "zip_code": "50021", "country": "US", "state": "IA", "display_address": ["1555 Se Delaware Ave", "Ste 1", "Ankeny, IA 50021"]}, "phone": "+15159655749", "display_phone": "(515) 965-5749", "distance": 14405.750968706527}, {"id": "l_pW1fax5vrvwYJEKs6Kvw", "alias": "sakari-sushi-lounge-des-moines", "name": "Sakari Sushi Lounge", "image_url": "https://s3-media1.fl.yelpcdn.com/bphoto/78n3n6ttUzaRT2utfZVc6Q/o.jpg", "is_closed": false, "url": "https://www.yelp.com/biz/sakari-sushi-lounge-des-moines?adjust_creative=vyhy616UjsMTA_hrWyg_5w&utm_campaign=yelp_api_v3&utm_medium=api_v3_business_search&utm_source=vyhy616UjsMTA_hrWyg_5w", "review_count": 184, "categories": [{"alias": "sushi", "title": "Sushi Bars"}], "rating": 4.0, "coordinates": {"latitude": 41.5858249, "longitude": -93.6522427}, "transactions": ["pickup"], "price": "$$", "location": {"address1": "2605 Ingersoll Ave", "address2": "", "address3": "", "city": "Des Moines", "zip_code": "50312", "country": "US", "state": "IA", "display_address": ["2605 Ingersoll Ave", "Des Moines, IA 50312"]}, "phone": "+15152883381", "display_phone": "(515) 288-3381", "distance": 1567.2336245011381}, {"id": "ZTpAO4My0C7USPezfJJ3kg", "alias": "shokai-fusion-west-des-moines", "name": "Shokai Fusion", "image_url": "https://s3-media2.fl.yelpcdn.com/bphoto/_Dt2hDz-sB6_dSP7y2pYjQ/o.jpg", "is_closed": false, "url": "https://www.yelp.com/biz/shokai-fusion-west-des-moines?adjust_creative=vyhy616UjsMTA_hrWyg_5w&utm_campaign=yelp_api_v3&utm_medium=api_v3_business_search&utm_source=vyhy616UjsMTA_hrWyg_5w", "review_count": 4, "categories": [{"alias": "sushi", "title": "Sushi Bars"}, {"alias": "asianfusion", "title": "Asian Fusion"}], "rating": 5.0, "coordinates": {"latitude": 41.570595, "longitude": -93.75399833}, "transactions": [], "location": {"address1": "3701 Ep True Pkwy", "address2": "Ste 400", "address3": null, "city": "West Des Moines", "zip_code": "50265", "country": "US", "state": "IA", "display_address": ["3701 Ep True Pkwy", "Ste 400", "West Des Moines, IA 50265"]}, "phone": "+15152251444", "display_phone": "(515) 225-1444", "distance": 10168.124749730729}], "total": 103, "region": {"center": {"longitude": -93.63510131835938, "latitude": 41.59177797328641}}}