{"businesses": [{"id": "CvXuklDLTDi14PbNAPvW1g", "alias": "mr-wok-boise-2", "name": "Mr. Wok", "image_url": "https://s3-media1.fl.yelpcdn.com/bphoto/7zcusB7hU7f2G7qKD2bgPw/o.jpg", "is_closed": false, "url": "https://www.yelp.com/biz/mr-wok-boise-2?adjust_creative=vyhy616UjsMTA_hrWyg_5w&utm_campaign=yelp_api_v3&utm_medium=api_v3_business_search&utm_source=vyhy616UjsMTA_hrWyg_5w", "review_count": 177, "categories": [{"alias": "korean", "title": "Korean"}], "rating": 4.5, "coordinates": {"latitude": 43.5981101799664, "longitude": -116.21325}, "transactions": ["delivery", "pickup"], "price": "$$", "location": {"address1": "650 S Vista Ave", "address2": null, "address3": "", "city": "Boise", "zip_code": "83705", "country": "US", "state": "ID", "display_address": ["650 S Vista Ave", "Boise, ID 83705"]}, "phone": "+12083367771", "display_phone": "(208) 336-7771", "distance": 2842.392491936052}, {"id": "GaqcV1K44cTmrtOGYBmrpw", "alias": "pad-thai-house-boise", "name": "Pad Thai House", "image_url": "https://s3-media2.fl.yelpcdn.com/bphoto/G5KI9_EgBH1gFh-DQmmvkg/o.jpg", "is_closed": false, "url": "https://www.yelp.com/biz/pad-thai-house-boise?adjust_creative=vyhy616UjsMTA_hrWyg_5w&utm_campaign=yelp_api_v3&utm_medium=api_v3_business_search&utm_source=vyhy616UjsMTA_hrWyg_5w", "review_count": 494, "categories": [{"alias": "thai", "title": "Thai"}], "rating": 4.0, "coordinates": {"latitude": 43.59059, "longitude": -116.30693}, "transactions": ["delivery"], "price": "$$", "location": {"address1": "10038 W Overland", "address2": "", "address3": "", "city": "Boise", "zip_code": "83709", "country": "US", "state": "ID", "display_address": ["10038 W Overland", "Boise, ID 83709"]}, "phone": "+12083756014", "display_phone": "(208) 375-6014", "distance": 5592.552460947795}, {"id": "ubiDI0kxpkR3QAGlgFMdIQ", "alias": "k-fusion-korean-bbq-boise", "name": "K-Fusion Korean BBQ", "image_url": "https://s3-media2.fl.yelpcdn.com/bphoto/vo0pLQch7yL27aNlB24IKg/o.jpg", "is_closed": false, "url": "https://www.yelp.com/biz/k-fusion-korean-bbq-boise?adjust_creative=vyhy616UjsMTA_hrWyg_5w&utm_campaign=yelp_api_v3&utm_medium=api_v3_business_search&utm_source=vyhy616UjsMTA_hrWyg_5w", "review_count": 84, "categories": [{"alias": "korean", "title": "Korean"}, {"alias": "bbq", "title": "Barbeque"}], "rating": 4.0, "coordinates": {"latitude": 43.59169, "longitude": -116.1932992576701}, "transactions": ["delivery"], "price": "$$", "location": {"address1": "1716 S Broadway Ave", "address2": null, "address3": "", "city": "Boise", "zip_code": "83706", "country": "US", "state": "ID", "display_address": ["1716 S Broadway Ave", "Boise, ID 83706"]}, "phone": "+12083365959", "display_phone": "(208) 336-5959", "distance": 4592.860534284859}, {"id": "nP4oASaVyGV-FWkxE-zmEw", "alias": "pho-nguyen-boise", "name": "Pho Nguyen", "image_url": "https://s3-media2.fl.yelpcdn.com/bphoto/6GME089jEHdZW73pflWUbQ/o.jpg", "is_closed": false, "url": "https://www.yelp.com/biz/pho-nguyen-boise?adjust_creative=vyhy616UjsMTA_hrWyg_5w&utm_campaign=yelp_api_v3&utm_medium=api_v3_business_search&utm_source=vyhy616UjsMTA_hrWyg_5w", "review_count": 72, "categories": [{"alias": "vietnamese", "title": "Vietnamese"}], "rating": 4.5, "coordinates": {"latitude": 43.669017, "longitude": -116.279492648607}, "transactions": ["delivery"], "price": "$$", "location": {"address1": "7310 W State St", "address2": null, "address3": null, "city": "Boise", "zip_code": "83714", "country": "US", "state": "ID", "display_address": ["7310 W State St", "Boise, ID 83714"]}, "phone": "+12088539555", "display_phone": "(208) 853-9555", "distance": 7050.651952248351}, {"id": "CHbADBd6bCF_ZsC5g15y-w", "alias": "taste-asian-fusion-bistro-boise-2", "name": "Taste Asian Fusion Bistro", "image_url": "https://s3-media4.fl.yelpcdn.com/bphoto/alEX6uDGtFQQIJwBy7bs9A/o.jpg", "is_closed": false, "url": "https://www.yelp.com/biz/taste-asian-fusion-bistro-boise-2?adjust_creative=vyhy616UjsMTA_hrWyg_5w&utm_campaign=yelp_api_v3&utm_medium=api_v3_business_search&utm_source=vyhy616UjsMTA_hrWyg_5w", "review_count": 38, "categories": [{"alias": "asianfusion", "title": "Asian Fusion"}, {"alias": "cocktailbars", "title": "Cocktail Bars"}], "rating": 4.5, "coordinates": {"latitude": 43.59183483, "longitude": -116.31463567}, "transactions": ["delivery", "pickup"], "location": {"address1": "1473 S Five Mile", "address2": "", "address3": "", "city": "Boise", "zip_code": "83709", "country": "US", "state": "ID", "display_address": ["1473 S Five Mile", "Boise, ID 83709"]}, "phone": "+12082022912", "display_phone": "(208) 202-2912", "distance": 6115.506983784995}, {"id": "bHPq-vQesglrIsvtkVdHrw", "alias": "wok-inn-noodle-boise", "name": "Wok-Inn Noodle", "image_url": "https://s3-media2.fl.yelpcdn.com/bphoto/DxyC6jTMTuhaAB6r5-hffg/o.jpg", "is_closed": false, "url": "https://www.yelp.com/biz/wok-inn-noodle-boise?adjust_creative=vyhy616UjsMTA_hrWyg_5w&utm_campaign=yelp_api_v3&utm_medium=api_v3_business_search&utm_source=vyhy616UjsMTA_hrWyg_5w", "review_count": 151, "categories": [{"alias": "chinese", "title": "Chinese"}, {"alias": "noodles", "title": "Noodles"}], "rating": 4.0, "coordinates": {"latitude": 43.61231, "longitude": -116.24299}, "transactions": ["delivery"], "price": "$", "location": {"address1": "4912 Emerald St", "address2": "", "address3": "", "city": "Boise", "zip_code": "83706", "country": "US", "state": "ID", "display_address": ["4912 Emerald St", "Boise, ID 83706"]}, "phone": "+12083437262", "display_phone": "(208) 343-7262", "distance": 139.16029233211114}, {"id": "B65v5G8kMbOz16YdLITHcA", "alias": "chiang-mai-house-thai-restaurant-boise-2", "name": "Chiang Mai House Thai Restaurant", "image_url": "https://s3-media2.fl.yelpcdn.com/bphoto/zpAGJc7c9xUib8CkCEalyA/o.jpg", "is_closed": false, "url": "https://www.yelp.com/biz/chiang-mai-house-thai-restaurant-boise-2?adjust_creative=vyhy616UjsMTA_hrWyg_5w&utm_campaign=yelp_api_v3&utm_medium=api_v3_business_search&utm_source=vyhy616UjsMTA_hrWyg_5w", "review_count": 140, "categories": [{"alias": "thai", "title": "Thai"}], "rating": 4.0, "coordinates": {"latitude": 43.6117449, "longitude": -116.2420326}, "transactions": ["delivery"], "price": "$$", "location": {"address1": "4898 Emerald St", "address2": "", "address3": "", "city": "Boise", "zip_code": "83706", "country": "US", "state": "ID", "display_address": ["4898 Emerald St", "Boise, ID 83706"]}, "phone": "+12083424051", "display_phone": "(208) 342-4051", "distance": 146.57533301008385}, {"id": "Ke5jJVsItlAf2qHAHKbQ8g", "alias": "gangnam-boise", "name": "Gangnam", "image_url": "https://s3-media1.fl.yelpcdn.com/bphoto/lOyAaFesCL_LAyvMvOZzJQ/o.jpg", "is_closed": false, "url": "https://www.yelp.com/biz/gangnam-boise?adjust_creative=vyhy616UjsMTA_hrWyg_5w&utm_campaign=yelp_api_v3&utm_medium=api_v3_business_search&utm_source=vyhy616UjsMTA_hrWyg_5w", "review_count": 89, "categories": [{"alias": "korean", "title": "Korean"}], "rating": 4.0, "coordinates": {"latitude": 43.6072599, "longitude": -116.24398}, "transactions": ["delivery"], "price": "$$", "location": {"address1": "303 N Orchard St", "address2": "", "address3": "", "city": "Boise", "zip_code": "83706", "country": "US", "state": "ID", "display_address": ["303 N Orchard St", "Boise, ID 83706"]}, "phone": "+12083238822", "display_phone": "(208) 323-8822", "distance": 448.2345289223778}, {"id": "zgdGeg4L13C2Rbm4UARtHw", "alias": "island-sushi-and-ramen-boise", "name": "Island Sushi & Ramen", "image_url": "https://s3-media2.fl.yelpcdn.com/bphoto/NaTE0D1235iTKVuDZ_BjqQ/o.jpg", "is_closed": false, "url": "https://www.yelp.com/biz/island-sushi-and-ramen-boise?adjust_creative=vyhy616UjsMTA_hrWyg_5w&utm_campaign=yelp_api_v3&utm_medium=api_v3_business_search&utm_source=vyhy616UjsMTA_hrWyg_5w", "review_count": 281, "categories": [{"alias": "sushi", "title": "Sushi Bars"}, {"alias": "ramen", "title": "Ramen"}], "rating": 4.5, "coordinates": {"latitude": 43.6196049, "longitude": -116.2908279}, "transactions": ["delivery", "pickup"], "price": "$$", "location": {"address1": "8716 W Fairview Ave", "address2": "", "address3": null, "city": "Boise", "zip_code": "83704", "country": "US", "state": "ID", "display_address": ["8716 W Fairview Ave", "Boise, ID 83704"]}, "phone": "+12083780088", "display_phone": "(208) 378-0088", "distance": 3887.941461994901}, {"id": "byDF67_RYSmIOuQlwAD5KA", "alias": "thai-cuisine-boise", "name": "Thai Cuisine", "image_url": "https://s3-media4.fl.yelpcdn.com/bphoto/0QD8qzac9-KfhJDQV_L6Yw/o.jpg", "is_closed": false, "url": "https://www.yelp.com/biz/thai-cuisine-boise?adjust_creative=vyhy616UjsMTA_hrWyg_5w&utm_campaign=yelp_api_v3&utm_medium=api_v3_business_search&utm_source=vyhy616UjsMTA_hrWyg_5w", "review_count": 204, "categories": [{"alias": "thai", "title": "Thai"}], "rating": 4.5, "coordinates": {"latitude": 43.5897674560547, "longitude": -116.266006469727}, "transactions": ["delivery"], "price": "$$", "location": {"address1": "6777 W Overland Rd", "address2": "", "address3": "", "city": "Boise", "zip_code": "83709", "country": "US", "state": "ID", "display_address": ["6777 W Overland Rd", "Boise, ID 83709"]}, "phone": "+12086580516", "display_phone": "(208) 658-0516", "distance": 2989.249339997854}, {"id": "l9QTHlTFmZhTw7Hdb1QyFA", "alias": "pho-bac-boise", "name": "Pho Bac", "image_url": "https://s3-media3.fl.yelpcdn.com/bphoto/DSrpMQJJkkpevYOksroKjg/o.jpg", "is_closed": false, "url": "https://www.yelp.com/biz/pho-bac-boise?adjust_creative=vyhy616UjsMTA_hrWyg_5w&utm_campaign=yelp_api_v3&utm_medium=api_v3_business_search&utm_source=vyhy616UjsMTA_hrWyg_5w", "review_count": 164, "categories": [{"alias": "vietnamese", "title": "Vietnamese"}], "rating": 4.0, "coordinates": {"latitude": 43.64411, "longitude": -116.27825}, "transactions": ["delivery"], "price": "$", "location": {"address1": "7700 W Goddard Rd", "address2": "", "address3": "", "city": "Boise", "zip_code": "83704", "country": "US", "state": "ID", "display_address": ["7700 W Goddard Rd", "Boise, ID 83704"]}, "phone": "+12083190160", "display_phone": "(208) 319-0160", "distance": 4614.494018387987}, {"id": "XQBEtE8CCYbv_2vzagd0HA", "alias": "pho-le-boise-2", "name": "Pho Le", "image_url": "https://s3-media1.fl.yelpcdn.com/bphoto/Sr2f_od8wceluOtyDYaJqA/o.jpg", "is_closed": false, "url": "https://www.yelp.com/biz/pho-le-boise-2?adjust_creative=vyhy616UjsMTA_hrWyg_5w&utm_campaign=yelp_api_v3&utm_medium=api_v3_business_search&utm_source=vyhy616UjsMTA_hrWyg_5w", "review_count": 171, "categories": [{"alias": "vietnamese", "title": "Vietnamese"}, {"alias": "noodles", "title": "Noodles"}, {"alias": "soup", "title": "Soup"}], "rating": 4.0, "coordinates": {"latitude": 43.5854650380492, "longitude": -116.192713111172}, "transactions": ["delivery"], "price": "$$", "location": {"address1": "2146 S Broadway Ave", "address2": "", "address3": "", "city": "Boise", "zip_code": "83706", "country": "US", "state": "ID", "display_address": ["2146 S Broadway Ave", "Boise, ID 83706"]}, "phone": "+12088072341", "display_phone": "(208) 807-2341", "distance": 4995.930129738822}, {"id": "G77XgkojEyK19X7LHiqklA", "alias": "koco-bell-boise", "name": "Koco Bell", "image_url": "https://s3-media1.fl.yelpcdn.com/bphoto/AdCjafTsV7pjvayGMdFglg/o.jpg", "is_closed": false, "url": "https://www.yelp.com/biz/koco-bell-boise?adjust_creative=vyhy616UjsMTA_hrWyg_5w&utm_campaign=yelp_api_v3&utm_medium=api_v3_business_search&utm_source=vyhy616UjsMTA_hrWyg_5w", "review_count": 28, "categories": [{"alias": "korean", "title": "Korean"}, {"alias": "bbq", "title": "Barbeque"}, {"alias": "sandwiches", "title": "Sandwiches"}], "rating": 5.0, "coordinates": {"latitude": 43.634311, "longitude": -116.314794}, "transactions": ["delivery"], "location": {"address1": "10698 W Ustick Rd", "address2": "", "address3": null, "city": "Boise", "zip_code": "83713", "country": "US", "state": "ID", "display_address": ["10698 W Ustick Rd", "Boise, ID 83713"]}, "phone": "+12083898853", "display_phone": "(208) 389-8853", "distance": 6281.105230803497}, {"id": "YqoMDkuSbRPjzc39ty4PgA", "alias": "mai-thai-boise-4", "name": "Mai Thai", "image_url": "https://s3-media2.fl.yelpcdn.com/bphoto/JK-xpxgMcDGV1gabeP_eDw/o.jpg", "is_closed": false, "url": "https://www.yelp.com/biz/mai-thai-boise-4?adjust_creative=vyhy616UjsMTA_hrWyg_5w&utm_campaign=yelp_api_v3&utm_medium=api_v3_business_search&utm_source=vyhy616UjsMTA_hrWyg_5w", "review_count": 430, "categories": [{"alias": "thai", "title": "Thai"}, {"alias": "asianfusion", "title": "Asian Fusion"}, {"alias": "sushi", "title": "Sushi Bars"}], "rating": 4.0, "coordinates": {"latitude": 43.6161915, "longitude": -116.2020899}, "transactions": ["delivery", "pickup"], "price": "$$", "location": {"address1": "750 W Idaho St", "address2": "", "address3": "", "city": "Boise", "zip_code": "83702", "country": "US", "state": "ID", "display_address": ["750 W Idaho St", "Boise, ID 83702"]}, "phone": "+12083448424", "display_phone": "(208) 344-8424", "distance": 3387.184109045836}, {"id": "AzylMkpWl-OLWQLMKVRoVg", "alias": "pho-nouveau-boise", "name": "Pho Nouveau", "image_url": "https://s3-media4.fl.yelpcdn.com/bphoto/9jUK-rrVboZOWTR5s2dk1g/o.jpg", "is_closed": false, "url": "https://www.yelp.com/biz/pho-nouveau-boise?adjust_creative=vyhy616UjsMTA_hrWyg_5w&utm_campaign=yelp_api_v3&utm_medium=api_v3_business_search&utm_source=vyhy616UjsMTA_hrWyg_5w", "review_count": 205, "categories": [{"alias": "vietnamese", "title": "Vietnamese"}, {"alias": "beer_and_wine", "title": "Beer, Wine & Spirits"}, {"alias": "tradamerican", "title": "American (Traditional)"}], "rating": 4.0, "coordinates": {"latitude": 43.6163264, "longitude": -116.2023508}, "transactions": ["delivery", "pickup"], "price": "$$", "location": {"address1": "780 W Idaho St", "address2": "", "address3": "", "city": "Boise", "zip_code": "83702", "country": "US", "state": "ID", "display_address": ["780 W Idaho St", "Boise, ID 83702"]}, "phone": "+12083671111", "display_phone": "(208) 367-1111", "distance": 3381.927885549436}, {"id": "j92DNzG7Io113coMzYsTsw", "alias": "ramen-house-meridian-2", "name": "Ramen House", "image_url": "https://s3-media2.fl.yelpcdn.com/bphoto/ooRvGHsCZCyz4t-MsxUKjw/o.jpg", "is_closed": false, "url": "https://www.yelp.com/biz/ramen-house-meridian-2?adjust_creative=vyhy616UjsMTA_hrWyg_5w&utm_campaign=yelp_api_v3&utm_medium=api_v3_business_search&utm_source=vyhy616UjsMTA_hrWyg_5w", "review_count": 38, "categories": [{"alias": "ramen", "title": "Ramen"}], "rating": 4.5, "coordinates": {"latitude": 43.63536, "longitude": -116.35586}, "transactions": ["delivery"], "location": {"address1": "3327 N Eagle Rd", "address2": "Ste 165", "address3": null, "city": "Meridian", "zip_code": "83642", "country": "US", "state": "ID", "display_address": ["3327 N Eagle Rd", "Ste 165", "Meridian, ID 83642"]}, "phone": "+12088886703", "display_phone": "(208) 888-6703", "distance": 9427.135895874602}, {"id": "QtgubTRRFHtEL_fmsMQRCg", "alias": "fujiyama-boise-2", "name": "Fujiyama", "image_url": "https://s3-media2.fl.yelpcdn.com/bphoto/uUfReubC_MV-jRcP4F5FuA/o.jpg", "is_closed": false, "url": "https://www.yelp.com/biz/fujiyama-boise-2?adjust_creative=vyhy616UjsMTA_hrWyg_5w&utm_campaign=yelp_api_v3&utm_medium=api_v3_business_search&utm_source=vyhy616UjsMTA_hrWyg_5w", "review_count": 164, "categories": [{"alias": "japanese", "title": "Japanese"}], "rating": 4.0, "coordinates": {"latitude": 43.6077705770731, "longitude": -116.283199489117}, "transactions": ["delivery"], "price": "$$", "location": {"address1": "283 N Milwaukee St", "address2": null, "address3": "", "city": "Boise", "zip_code": "83704", "country": "US", "state": "ID", "display_address": ["283 N Milwaukee St", "Boise, ID 83704"]}, "phone": "+12086728227", "display_phone": "(208) 672-8227", "distance": 3360.312785096586}, {"id": "e8rmWzn0xD34dslXQ3pj5w", "alias": "magnificent-garden-boise", "name": "Magnificent Garden", "image_url": "https://s3-media4.fl.yelpcdn.com/bphoto/w7fme8kyTkniz2c4e7g-IA/o.jpg", "is_closed": false, "url": "https://www.yelp.com/biz/magnificent-garden-boise?adjust_creative=vyhy616UjsMTA_hrWyg_5w&utm_campaign=yelp_api_v3&utm_medium=api_v3_business_search&utm_source=vyhy616UjsMTA_hrWyg_5w", "review_count": 96, "categories": [{"alias": "korean", "title": "Korean"}, {"alias": "bbq", "title": "Barbeque"}], "rating": 3.5, "coordinates": {"latitude": 43.6137438779111, "longitude": -116.283654458821}, "transactions": ["delivery", "pickup"], "location": {"address1": "980 N Milwaukee St", "address2": "", "address3": null, "city": "Boise", "zip_code": "83704", "country": "US", "state": "ID", "display_address": ["980 N Milwaukee St", "Boise, ID 83704"]}, "phone": "+12086588899", "display_phone": "(208) 658-8899", "distance": 3237.994722337483}, {"id": "udPujlot5Djc3pXL_nH3BA", "alias": "wow-bao-meridian", "name": "Wow Bao", "image_url": "https://s3-media1.fl.yelpcdn.com/bphoto/yzO8T94-eA4oxp1Gq9zJuA/o.jpg", "is_closed": false, "url": "https://www.yelp.com/biz/wow-bao-meridian?adjust_creative=vyhy616UjsMTA_hrWyg_5w&utm_campaign=yelp_api_v3&utm_medium=api_v3_business_search&utm_source=vyhy616UjsMTA_hrWyg_5w", "review_count": 10, "categories": [{"alias": "dimsum", "title": "Dim Sum"}], "rating": 3.0, "coordinates": {"latitude": 43.6355471269279, "longitude": -116.353630092819}, "transactions": ["delivery", "pickup"], "location": {"address1": "3380 N Eagle Rd", "address2": "", "address3": null, "city": "Meridian", "zip_code": "83646", "country": "US", "state": "ID", "display_address": ["3380 N Eagle Rd", "Meridian, ID 83646"]}, "phone": "", "display_phone": "", "distance": 9262.616943223333}, {"id": "JgcvaSM05Lj7Mumgb5w0FA", "alias": "yen-ching-boise-4", "name": "Yen Ching", "image_url": "https://s3-media2.fl.yelpcdn.com/bphoto/noYDex4mQXZJWCxSxKuhmQ/o.jpg", "is_closed": false, "url": "https://www.yelp.com/biz/yen-ching-boise-4?adjust_creative=vyhy616UjsMTA_hrWyg_5w&utm_campaign=yelp_api_v3&utm_medium=api_v3_business_search&utm_source=vyhy616UjsMTA_hrWyg_5w", "review_count": 155, "categories": [{"alias": "chinese", "title": "Chinese"}], "rating": 3.5, "coordinates": {"latitude": 43.6180839538574, "longitude": -116.203170776367}, "transactions": ["delivery", "pickup"], "price": "$$", "location": {"address1": "305 N 9th St", "address2": "", "address3": "", "city": "Boise", "zip_code": "83702", "country": "US", "state": "ID", "display_address": ["305 N 9th St", "Boise, ID 83702"]}, "phone": "+12083840384", "display_phone": "(208) 384-0384", "distance": 3342.992203246042}, {"id": "WD4pr7n-gqcYlyluI3J-Vw", "alias": "kyoto-japanese-steak-house-boise", "name": "Kyoto Japanese Steak House", "image_url": "https://s3-media3.fl.yelpcdn.com/bphoto/wZzCpfheBptakVBkaJ5b5A/o.jpg", "is_closed": false, "url": "https://www.yelp.com/biz/kyoto-japanese-steak-house-boise?adjust_creative=vyhy616UjsMTA_hrWyg_5w&utm_campaign=yelp_api_v3&utm_medium=api_v3_business_search&utm_source=vyhy616UjsMTA_hrWyg_5w", "review_count": 152, "categories": [{"alias": "japanese", "title": "Japanese"}, {"alias": "steak", "title": "Steakhouses"}], "rating": 4.0, "coordinates": {"latitude": 43.61961, "longitude": -116.25578}, "transactions": ["delivery"], "price": "$$", "location": {"address1": "6002 W Fairview Ave", "address2": "", "address3": "", "city": "Boise", "zip_code": "83704", "country": "US", "state": "ID", "display_address": ["6002 W Fairview Ave", "Boise, ID 83704"]}, "phone": "+12083788808", "display_phone": "(208) 378-8808", "distance": 1343.657649483166}, {"id": "eLcpAWazRUrxnBRiq3iy1Q", "alias": "idaho-capital-asian-market-boise", "name": "Idaho Capital Asian Market", "image_url": "https://s3-media1.fl.yelpcdn.com/bphoto/8xCpYUcIDeuV3Q_K9M6brw/o.jpg", "is_closed": false, "url": "https://www.yelp.com/biz/idaho-capital-asian-market-boise?adjust_creative=vyhy616UjsMTA_hrWyg_5w&utm_campaign=yelp_api_v3&utm_medium=api_v3_business_search&utm_source=vyhy616UjsMTA_hrWyg_5w", "review_count": 44, "categories": [{"alias": "intlgrocery", "title": "International Grocery"}], "rating": 4.5, "coordinates": {"latitude": 43.632862, "longitude": -116.275938}, "transactions": [], "location": {"address1": "3107 N Cole Rd", "address2": null, "address3": "", "city": "Boise", "zip_code": "83704", "country": "US", "state": "ID", "display_address": ["3107 N Cole Rd", "Boise, ID 83704"]}, "phone": "+18887031206", "display_phone": "(888) 703-1206", "distance": 3548.8063996066}, {"id": "3OO7ZAQa2sqUo2rzO3UanA", "alias": "pho-tay-boise-5", "name": "Pho Tay", "image_url": "https://s3-media2.fl.yelpcdn.com/bphoto/hlUa6eP90OUbnZUjAy0JJw/o.jpg", "is_closed": false, "url": "https://www.yelp.com/biz/pho-tay-boise-5?adjust_creative=vyhy616UjsMTA_hrWyg_5w&utm_campaign=yelp_api_v3&utm_medium=api_v3_business_search&utm_source=vyhy616UjsMTA_hrWyg_5w", "review_count": 116, "categories": [{"alias": "vietnamese", "title": "Vietnamese"}], "rating": 4.0, "coordinates": {"latitude": 43.6197426951177, "longitude": -116.314052368839}, "transactions": ["delivery"], "price": "$$", "location": {"address1": "10548 W Fairview Ave", "address2": "", "address3": null, "city": "Boise", "zip_code": "83704", "country": "US", "state": "ID", "display_address": ["10548 W Fairview Ave", "Boise, ID 83704"]}, "phone": "+12083771775", "display_phone": "(208) 377-1775", "distance": 5751.782018944811}, {"id": "bT0vijGEMIlDGP88KgZrJA", "alias": "betelnut-boise-meridian-2", "name": "Betelnut Boise", "image_url": "https://s3-media2.fl.yelpcdn.com/bphoto/z3Bw_ngWcegDvL6x7vCJIw/o.jpg", "is_closed": false, "url": "https://www.yelp.com/biz/betelnut-boise-meridian-2?adjust_creative=vyhy616UjsMTA_hrWyg_5w&utm_campaign=yelp_api_v3&utm_medium=api_v3_business_search&utm_source=vyhy616UjsMTA_hrWyg_5w", "review_count": 4, "categories": [{"alias": "asianfusion", "title": "Asian Fusion"}], "rating": 4.0, "coordinates": {"latitude": 43.596629, "longitude": -116.428778}, "transactions": [], "location": {"address1": "2900 W Excursion Blvd", "address2": null, "address3": "", "city": "Meridian", "zip_code": "83642", "country": "US", "state": "ID", "display_address": ["2900 W Excursion Blvd", "Meridian, ID 83642"]}, "phone": "", "display_phone": "", "distance": 15053.723896538067}, {"id": "qibDo7L7chTUKMMaMsXKzg", "alias": "red-pavilion-mandarin-cuisine-meridian", "name": "Red Pavilion Mandarin Cuisine", "image_url": "https://s3-media1.fl.yelpcdn.com/bphoto/6Lcqlwg_ZQITojWKkZ8R-g/o.jpg", "is_closed": false, "url": "https://www.yelp.com/biz/red-pavilion-mandarin-cuisine-meridian?adjust_creative=vyhy616UjsMTA_hrWyg_5w&utm_campaign=yelp_api_v3&utm_medium=api_v3_business_search&utm_source=vyhy616UjsMTA_hrWyg_5w", "review_count": 286, "categories": [{"alias": "chinese", "title": "Chinese"}], "rating": 4.0, "coordinates": {"latitude": 43.58882, "longitude": -116.39299}, "transactions": ["delivery"], "price": "$$", "location": {"address1": "1760 S Meridian Rd", "address2": "Ste 102", "address3": "", "city": "Meridian", "zip_code": "83642", "country": "US", "state": "ID", "display_address": ["1760 S Meridian Rd", "Ste 102", "Meridian, ID 83642"]}, "phone": "+12088955880", "display_phone": "(208) 895-5880", "distance": 12288.044375379395}, {"id": "jtDTN8JfNk1vl2uLb2nHpw", "alias": "208-pho-and-vegan-boise", "name": "208 Pho & Vegan", "image_url": "https://s3-media2.fl.yelpcdn.com/bphoto/4Z_8ZH8Ze_ZoYUDJrXTIbg/o.jpg", "is_closed": false, "url": "https://www.yelp.com/biz/208-pho-and-vegan-boise?adjust_creative=vyhy616UjsMTA_hrWyg_5w&utm_campaign=yelp_api_v3&utm_medium=api_v3_business_search&utm_source=vyhy616UjsMTA_hrWyg_5w", "review_count": 88, "categories": [{"alias": "vietnamese", "title": "Vietnamese"}, {"alias": "vegan", "title": "Vegan"}], "rating": 4.0, "coordinates": {"latitude": 43.6221804558976, "longitude": -116.198010999158}, "transactions": ["delivery"], "price": "$", "location": {"address1": "812 W Fort St", "address2": "", "address3": "", "city": "Boise", "zip_code": "83702", "country": "US", "state": "ID", "display_address": ["812 W Fort St", "Boise, ID 83702"]}, "phone": "+12088103358", "display_phone": "(208) 810-3358", "distance": 3867.942009143429}, {"id": "ZM9EQa_wvrcwTwS_E5giMw", "alias": "mount-everest-momo-cafe-boise", "name": "Mount Everest Momo Cafe", "image_url": "https://s3-media3.fl.yelpcdn.com/bphoto/xmPhoO7MRmjx8F-u0f4EGg/o.jpg", "is_closed": false, "url": "https://www.yelp.com/biz/mount-everest-momo-cafe-boise?adjust_creative=vyhy616UjsMTA_hrWyg_5w&utm_campaign=yelp_api_v3&utm_medium=api_v3_business_search&utm_source=vyhy616UjsMTA_hrWyg_5w", "review_count": 266, "categories": [{"alias": "himalayan", "title": "Himalayan/Nepalese"}], "rating": 4.5, "coordinates": {"latitude": 43.5848767, "longitude": -116.1934959}, "transactions": ["delivery", "pickup"], "price": "$$", "location": {"address1": "2144 S Broadway Ave", "address2": "", "address3": "", "city": "Boise", "zip_code": "83706", "country": "US", "state": "ID", "display_address": ["2144 S Broadway Ave", "Boise, ID 83706"]}, "phone": "+12083421268", "display_phone": "(208) 342-1268", "distance": 4982.497489508862}, {"id": "6Vw97-3cBvoaxfxpIGQ4jQ", "alias": "mongolian-bbq-boise", "name": "Mongolian BBQ", "image_url": "https://s3-media4.fl.yelpcdn.com/bphoto/GQga4P2G1UaTVcStXG867g/o.jpg", "is_closed": false, "url": "https://www.yelp.com/biz/mongolian-bbq-boise?adjust_creative=vyhy616UjsMTA_hrWyg_5w&utm_campaign=yelp_api_v3&utm_medium=api_v3_business_search&utm_source=vyhy616UjsMTA_hrWyg_5w", "review_count": 65, "categories": [{"alias": "bbq", "title": "Barbeque"}, {"alias": "mongolian", "title": "Mongolian"}], "rating": 4.0, "coordinates": {"latitude": 43.590587, "longitude": -116.193405}, "transactions": ["delivery"], "price": "$$", "location": {"address1": "1808 Broadway Ave", "address2": "", "address3": "", "city": "Boise", "zip_code": "83706", "country": "US", "state": "ID", "display_address": ["1808 Broadway Ave", "Boise, ID 83706"]}, "phone": "+12083870393", "display_phone": "(208) 387-0393", "distance": 4644.601065455859}, {"id": "49dVbKxmhJ08KGH--9getA", "alias": "ramen-sho-meridian-2", "name": "Ramen Sho", "image_url": "https://s3-media3.fl.yelpcdn.com/bphoto/G27WYPuvi7X3ABSH25MfRA/o.jpg", "is_closed": false, "url": "https://www.yelp.com/biz/ramen-sho-meridian-2?adjust_creative=vyhy616UjsMTA_hrWyg_5w&utm_campaign=yelp_api_v3&utm_medium=api_v3_business_search&utm_source=vyhy616UjsMTA_hrWyg_5w", "review_count": 189, "categories": [{"alias": "ramen", "title": "Ramen"}, {"alias": "foodtrucks", "title": "Food Trucks"}], "rating": 4.0, "coordinates": {"latitude": 43.60027, "longitude": -116.3929661}, "transactions": ["delivery", "pickup"], "price": "$$", "location": {"address1": "520 S Main St", "address2": "Ste 96", "address3": null, "city": "Meridian", "zip_code": "83642", "country": "US", "state": "ID", "display_address": ["520 S Main St", "Ste 96", "Meridian, ID 83642"]}, "phone": "+12082587012", "display_phone": "(208) 258-7012", "distance": 12088.117364440384}, {"id": "XDYWN6e-TH-CK4sWeDkOdg", "alias": "shankaron-market-boise", "name": "Shankaron Market", "image_url": "https://s3-media1.fl.yelpcdn.com/bphoto/KchXgWZLXN_4JXhZognXDA/o.jpg", "is_closed": false, "url": "https://www.yelp.com/biz/shankaron-market-boise?adjust_creative=vyhy616UjsMTA_hrWyg_5w&utm_campaign=yelp_api_v3&utm_medium=api_v3_business_search&utm_source=vyhy616UjsMTA_hrWyg_5w", "review_count": 4, "categories": [{"alias": "intlgrocery", "title": "International Grocery"}], "rating": 4.5, "coordinates": {"latitude": 43.612241, "longitude": -116.24241}, "transactions": [], "location": {"address1": "4870 W Emerald St", "address2": "", "address3": null, "city": "Boise", "zip_code": "83706", "country": "US", "state": "ID", "display_address": ["4870 W Emerald St", "Boise, ID 83706"]}, "phone": "+12084291898", "display_phone": "(208) 429-1898", "distance": 149.0250126395765}, {"id": "pVqguAppAQifRW6UzLwykA", "alias": "shogun-sushi-boise-2", "name": "Shogun Sushi", "image_url": "https://s3-media4.fl.yelpcdn.com/bphoto/lW3314QuA9HH7Fgyz-b0tA/o.jpg", "is_closed": false, "url": "https://www.yelp.com/biz/shogun-sushi-boise-2?adjust_creative=vyhy616UjsMTA_hrWyg_5w&utm_campaign=yelp_api_v3&utm_medium=api_v3_business_search&utm_source=vyhy616UjsMTA_hrWyg_5w", "review_count": 148, "categories": [{"alias": "sushi", "title": "Sushi Bars"}, {"alias": "korean", "title": "Korean"}, {"alias": "japanese", "title": "Japanese"}], "rating": 4.5, "coordinates": {"latitude": 43.569105, "longitude": -116.188237}, "transactions": ["delivery"], "price": "$$", "location": {"address1": "3640 S Findley Ave", "address2": null, "address3": "", "city": "Boise", "zip_code": "83705", "country": "US", "state": "ID", "display_address": ["3640 S Findley Ave", "Boise, ID 83705"]}, "phone": "+12083362122", "display_phone": "(208) 336-2122", "distance": 6462.1352512924495}, {"id": "0VpfI3LPjntkd_WXZngi7w", "alias": "vons-chicken-boise", "name": "Vons Chicken", "image_url": "https://s3-media1.fl.yelpcdn.com/bphoto/G9F86rVPjBWKf3j_hJw-TA/o.jpg", "is_closed": false, "url": "https://www.yelp.com/biz/vons-chicken-boise?adjust_creative=vyhy616UjsMTA_hrWyg_5w&utm_campaign=yelp_api_v3&utm_medium=api_v3_business_search&utm_source=vyhy616UjsMTA_hrWyg_5w", "review_count": 27, "categories": [{"alias": "chicken_wings", "title": "Chicken Wings"}, {"alias": "korean", "title": "Korean"}], "rating": 4.5, "coordinates": {"latitude": 43.598091, "longitude": -116.213241}, "transactions": ["delivery", "pickup"], "location": {"address1": "650 S Vista Ave", "address2": "", "address3": null, "city": "Boise", "zip_code": "83705", "country": "US", "state": "ID", "display_address": ["650 S Vista Ave", "Boise, ID 83705"]}, "phone": "+12083367771", "display_phone": "(208) 336-7771", "distance": 2842.4811668834523}, {"id": "oGvauLs2oFbLIBUjv5F77Q", "alias": "hans-chimaek-boise", "name": "Han's Chimaek", "image_url": "https://s3-media2.fl.yelpcdn.com/bphoto/DA16k0NTYc24ZdSIfHKFqw/o.jpg", "is_closed": false, "url": "https://www.yelp.com/biz/hans-chimaek-boise?adjust_creative=vyhy616UjsMTA_hrWyg_5w&utm_campaign=yelp_api_v3&utm_medium=api_v3_business_search&utm_source=vyhy616UjsMTA_hrWyg_5w", "review_count": 43, "categories": [{"alias": "chicken_wings", "title": "Chicken Wings"}, {"alias": "korean", "title": "Korean"}, {"alias": "chickenshop", "title": "Chicken Shop"}], "rating": 5.0, "coordinates": {"latitude": 43.591711, "longitude": -116.193377}, "transactions": ["delivery"], "location": {"address1": "1716 S Broadway Ave", "address2": "", "address3": null, "city": "Boise", "zip_code": "83706", "country": "US", "state": "ID", "display_address": ["1716 S Broadway Ave", "Boise, ID 83706"]}, "phone": "+12083365959", "display_phone": "(208) 336-5959", "distance": 4586.238807676387}, {"id": "pRw_6xYEzFHna4dZLRLgXw", "alias": "dong-khanh-vietnamese-restaurant-boise-2", "name": "Dong Khanh Vietnamese Restaurant", "image_url": "https://s3-media2.fl.yelpcdn.com/bphoto/GsOhxHX-6d2XAY8OXaCYjQ/o.jpg", "is_closed": false, "url": "https://www.yelp.com/biz/dong-khanh-vietnamese-restaurant-boise-2?adjust_creative=vyhy616UjsMTA_hrWyg_5w&utm_campaign=yelp_api_v3&utm_medium=api_v3_business_search&utm_source=vyhy616UjsMTA_hrWyg_5w", "review_count": 49, "categories": [{"alias": "vietnamese", "title": "Vietnamese"}], "rating": 3.5, "coordinates": {"latitude": 43.5853001, "longitude": -116.194055}, "transactions": ["delivery"], "price": "$", "location": {"address1": "2137 S Broadway", "address2": "", "address3": "", "city": "Boise", "zip_code": "83706", "country": "US", "state": "ID", "display_address": ["2137 S Broadway", "Boise, ID 83706"]}, "phone": "+12083450980", "display_phone": "(208) 345-0980", "distance": 4918.415501016497}, {"id": "AFeVNAyxenAr5x-56ulL6A", "alias": "ling-and-louies-asian-bar-and-grill-meridian-2", "name": "Ling & Louie's Asian Bar and Grill", "image_url": "https://s3-media3.fl.yelpcdn.com/bphoto/rZZ2cUlpYIEbo_MvsoHrDw/o.jpg", "is_closed": false, "url": "https://www.yelp.com/biz/ling-and-louies-asian-bar-and-grill-meridian-2?adjust_creative=vyhy616UjsMTA_hrWyg_5w&utm_campaign=yelp_api_v3&utm_medium=api_v3_business_search&utm_source=vyhy616UjsMTA_hrWyg_5w", "review_count": 273, "categories": [{"alias": "asianfusion", "title": "Asian Fusion"}, {"alias": "chinese", "title": "Chinese"}, {"alias": "sushi", "title": "Sushi Bars"}], "rating": 3.5, "coordinates": {"latitude": 43.60335259, "longitude": -116.35415311}, "transactions": ["delivery", "restaurant_reservation"], "price": "$$", "location": {"address1": "3210 E Louise Dr", "address2": "", "address3": "", "city": "Meridian", "zip_code": "83642", "country": "US", "state": "ID", "display_address": ["3210 E Louise Dr", "Meridian, ID 83642"]}, "phone": "+12088885000", "display_phone": "(208) 888-5000", "distance": 8944.226847298585}, {"id": "tYAHogxI44JV3U6lyuT58Q", "alias": "sa-wad-dee-thai-restaurant-meridian", "name": "Sa-Wad-Dee Thai Restaurant", "image_url": "https://s3-media4.fl.yelpcdn.com/bphoto/iwqp6Cqd_nVO7LLTTOEGXQ/o.jpg", "is_closed": false, "url": "https://www.yelp.com/biz/sa-wad-dee-thai-restaurant-meridian?adjust_creative=vyhy616UjsMTA_hrWyg_5w&utm_campaign=yelp_api_v3&utm_medium=api_v3_business_search&utm_source=vyhy616UjsMTA_hrWyg_5w", "review_count": 235, "categories": [{"alias": "thai", "title": "Thai"}], "rating": 4.0, "coordinates": {"latitude": 43.6198539733887, "longitude": -116.370780944824}, "transactions": ["delivery"], "price": "$$", "location": {"address1": "1890 E Fairview Ave", "address2": "", "address3": "", "city": "Meridian", "zip_code": "83642", "country": "US", "state": "ID", "display_address": ["1890 E Fairview Ave", "Meridian, ID 83642"]}, "phone": "+12088840701", "display_phone": "(208) 884-0701", "distance": 10289.737079492439}, {"id": "VKREBLY5CXeok2a0Z-xvCA", "alias": "riceworks-meridian", "name": "RiceWorks", "image_url": "https://s3-media3.fl.yelpcdn.com/bphoto/aR9DoILt-KZJ3VrH1ewv4Q/o.jpg", "is_closed": false, "url": "https://www.yelp.com/biz/riceworks-meridian?adjust_creative=vyhy616UjsMTA_hrWyg_5w&utm_campaign=yelp_api_v3&utm_medium=api_v3_business_search&utm_source=vyhy616UjsMTA_hrWyg_5w", "review_count": 63, "categories": [{"alias": "asianfusion", "title": "Asian Fusion"}], "rating": 4.0, "coordinates": {"latitude": 43.621614, "longitude": -116.348989639557}, "transactions": ["delivery"], "price": "$$", "location": {"address1": "3635 E Longwing Ln", "address2": null, "address3": "", "city": "Meridian", "zip_code": "83646", "country": "US", "state": "ID", "display_address": ["3635 E Longwing Ln", "Meridian, ID 83646"]}, "phone": "+12088555977", "display_phone": "(208) 855-5977", "distance": 8563.8095598126}, {"id": "vdvtDVlK6RKoZywoPOE-Ag", "alias": "ph\u1edf-house-vietnamese-rice-and-noodles-meridian", "name": "Ph\u1edf House Vietnamese Rice & Noodles", "image_url": "https://s3-media3.fl.yelpcdn.com/bphoto/08yE_8sZ-gEYxHdle5fIeg/o.jpg", "is_closed": false, "url": "https://www.yelp.com/biz/ph%E1%BB%9F-house-vietnamese-rice-and-noodles-meridian?adjust_creative=vyhy616UjsMTA_hrWyg_5w&utm_campaign=yelp_api_v3&utm_medium=api_v3_business_search&utm_source=vyhy616UjsMTA_hrWyg_5w", "review_count": 30, "categories": [{"alias": "vietnamese", "title": "Vietnamese"}], "rating": 4.5, "coordinates": {"latitude": 43.617595, "longitude": -116.390995}, "transactions": [], "location": {"address1": "1534 N Main St", "address2": null, "address3": "", "city": "Meridian", "zip_code": "83642", "country": "US", "state": "ID", "display_address": ["1534 N Main St", "Meridian, ID 83642"]}, "phone": "+12088881378", "display_phone": "(208) 888-1378", "distance": 11893.16000645666}, {"id": "BZNqCyMhZJREF8rfmrZ2bA", "alias": "bangkok-thai-restaurant-boise", "name": "Bangkok Thai Restaurant", "image_url": "https://s3-media1.fl.yelpcdn.com/bphoto/r6hlSz2OxkaOVRla2MsYDA/o.jpg", "is_closed": false, "url": "https://www.yelp.com/biz/bangkok-thai-restaurant-boise?adjust_creative=vyhy616UjsMTA_hrWyg_5w&utm_campaign=yelp_api_v3&utm_medium=api_v3_business_search&utm_source=vyhy616UjsMTA_hrWyg_5w", "review_count": 111, "categories": [{"alias": "thai", "title": "Thai"}], "rating": 4.0, "coordinates": {"latitude": 43.6091544212729, "longitude": -116.285786144435}, "transactions": ["delivery"], "price": "$$", "location": {"address1": "477 N Milwaukee St", "address2": "", "address3": "", "city": "Boise", "zip_code": "83704", "country": "US", "state": "ID", "display_address": ["477 N Milwaukee St", "Boise, ID 83704"]}, "phone": "+12086084922", "display_phone": "(208) 608-4922", "distance": 3404.559794507316}, {"id": "A1wvCgoq8k0fY8tyjknNTw", "alias": "tepanyaki-japanese-steak-house-boise", "name": "Tepanyaki Japanese Steak House", "image_url": "https://s3-media4.fl.yelpcdn.com/bphoto/ZI5B0SXohdvbIGsqgBznwg/o.jpg", "is_closed": false, "url": "https://www.yelp.com/biz/tepanyaki-japanese-steak-house-boise?adjust_creative=vyhy616UjsMTA_hrWyg_5w&utm_campaign=yelp_api_v3&utm_medium=api_v3_business_search&utm_source=vyhy616UjsMTA_hrWyg_5w", "review_count": 24, "categories": [{"alias": "teppanyaki", "title": "Teppanyaki"}], "rating": 3.0, "coordinates": {"latitude": 43.6195, "longitude": -116.23249}, "transactions": [], "price": "$$", "location": {"address1": "2197 N Garden St", "address2": "", "address3": "", "city": "Boise", "zip_code": "83706", "country": "US", "state": "ID", "display_address": ["2197 N Garden St", "Boise, ID 83706"]}, "phone": "+12083433515", "display_phone": "(208) 343-3515", "distance": 1319.969595609691}, {"id": "KsoxCxPJvHqXnCyGKDhKxQ", "alias": "thai-basil-meridian", "name": "Thai Basil", "image_url": "https://s3-media3.fl.yelpcdn.com/bphoto/Tecai1WDh__XurFsFtmhxg/o.jpg", "is_closed": false, "url": "https://www.yelp.com/biz/thai-basil-meridian?adjust_creative=vyhy616UjsMTA_hrWyg_5w&utm_campaign=yelp_api_v3&utm_medium=api_v3_business_search&utm_source=vyhy616UjsMTA_hrWyg_5w", "review_count": 155, "categories": [{"alias": "thai", "title": "Thai"}], "rating": 4.0, "coordinates": {"latitude": 43.6189272, "longitude": -116.3562305}, "transactions": ["delivery"], "price": "$$", "location": {"address1": "3161 E Fairview Ave", "address2": "Ste 110", "address3": "", "city": "Meridian", "zip_code": "83642", "country": "US", "state": "ID", "display_address": ["3161 E Fairview Ave", "Ste 110", "Meridian, ID 83642"]}, "phone": "+12088885797", "display_phone": "(208) 888-5797", "distance": 9108.771210804043}, {"id": "HviAzkMvhZbyT8dUH9BkLQ", "alias": "yoi-tomo-sushi-and-grill-boise", "name": "Yoi Tomo Sushi & Grill", "image_url": "https://s3-media1.fl.yelpcdn.com/bphoto/WiqjJ8848STpiNHnNvypLg/o.jpg", "is_closed": false, "url": "https://www.yelp.com/biz/yoi-tomo-sushi-and-grill-boise?adjust_creative=vyhy616UjsMTA_hrWyg_5w&utm_campaign=yelp_api_v3&utm_medium=api_v3_business_search&utm_source=vyhy616UjsMTA_hrWyg_5w", "review_count": 329, "categories": [{"alias": "japanese", "title": "Japanese"}, {"alias": "sushi", "title": "Sushi Bars"}], "rating": 4.0, "coordinates": {"latitude": 43.612665, "longitude": -116.2047938}, "transactions": ["delivery", "pickup"], "price": "$$", "location": {"address1": "405 S Capitol Blvd", "address2": "", "address3": "", "city": "Boise", "zip_code": "83702", "country": "US", "state": "ID", "display_address": ["405 S Capitol Blvd", "Boise, ID 83702"]}, "phone": "+12083443375", "display_phone": "(208) 344-3375", "distance": 3134.429680923429}, {"id": "5C5v40wpZMYKBFvRJFD_pg", "alias": "guang-zhou-boise", "name": "Guang Zhou", "image_url": "https://s3-media1.fl.yelpcdn.com/bphoto/eTFG4ztQr70frAVJjREbDA/o.jpg", "is_closed": false, "url": "https://www.yelp.com/biz/guang-zhou-boise?adjust_creative=vyhy616UjsMTA_hrWyg_5w&utm_campaign=yelp_api_v3&utm_medium=api_v3_business_search&utm_source=vyhy616UjsMTA_hrWyg_5w", "review_count": 106, "categories": [{"alias": "chinese", "title": "Chinese"}], "rating": 3.5, "coordinates": {"latitude": 43.5888972522918, "longitude": -116.277600713074}, "transactions": ["delivery"], "price": "$", "location": {"address1": "7609 W Overland Rd", "address2": "Ste 120", "address3": "", "city": "Boise", "zip_code": "83709", "country": "US", "state": "ID", "display_address": ["7609 W Overland Rd", "Ste 120", "Boise, ID 83709"]}, "phone": "+12083785888", "display_phone": "(208) 378-5888", "distance": 3692.8104793841326}, {"id": "nnZIsmpIQnuQY5S-MoGyvg", "alias": "baguette-deli-boise-2", "name": "Baguette Deli", "image_url": "https://s3-media2.fl.yelpcdn.com/bphoto/kQSDTO0NEqFaesiDU8y68A/o.jpg", "is_closed": false, "url": "https://www.yelp.com/biz/baguette-deli-boise-2?adjust_creative=vyhy616UjsMTA_hrWyg_5w&utm_campaign=yelp_api_v3&utm_medium=api_v3_business_search&utm_source=vyhy616UjsMTA_hrWyg_5w", "review_count": 193, "categories": [{"alias": "vietnamese", "title": "Vietnamese"}, {"alias": "delis", "title": "Delis"}, {"alias": "sandwiches", "title": "Sandwiches"}], "rating": 4.0, "coordinates": {"latitude": 43.603511, "longitude": -116.245104}, "transactions": ["delivery"], "price": "$", "location": {"address1": "5204 W Franklin Rd", "address2": "", "address3": "", "city": "Boise", "zip_code": "83705", "country": "US", "state": "ID", "display_address": ["5204 W Franklin Rd", "Boise, ID 83705"]}, "phone": "+12083362989", "display_phone": "(208) 336-2989", "distance": 860.9915292591639}, {"id": "Ly5ZufF2AQuDqN8Sbw4Gag", "alias": "the-peached-tortilla-meridian-2", "name": "The Peached Tortilla", "image_url": "https://s3-media3.fl.yelpcdn.com/bphoto/UzrRDFWGUPEesCnNIewMzA/o.jpg", "is_closed": false, "url": "https://www.yelp.com/biz/the-peached-tortilla-meridian-2?adjust_creative=vyhy616UjsMTA_hrWyg_5w&utm_campaign=yelp_api_v3&utm_medium=api_v3_business_search&utm_source=vyhy616UjsMTA_hrWyg_5w", "review_count": 7, "categories": [{"alias": "asianfusion", "title": "Asian Fusion"}, {"alias": "panasian", "title": "Pan Asian"}], "rating": 5.0, "coordinates": {"latitude": 43.596629, "longitude": -116.428778}, "transactions": [], "location": {"address1": "2900 W Excursion Ln", "address2": "", "address3": null, "city": "Meridian", "zip_code": "83642", "country": "US", "state": "ID", "display_address": ["2900 W Excursion Ln", "Meridian, ID 83642"]}, "phone": "", "display_phone": "", "distance": 15002.303390081664}, {"id": "HQYVne0Dw5GhE0haAXwRNA", "alias": "yokozuna-teriyaki-boise", "name": "Yokozuna Teriyaki", "image_url": "https://s3-media4.fl.yelpcdn.com/bphoto/wi6-AYw9kiz4M0_8cDdFxw/o.jpg", "is_closed": false, "url": "https://www.yelp.com/biz/yokozuna-teriyaki-boise?adjust_creative=vyhy616UjsMTA_hrWyg_5w&utm_campaign=yelp_api_v3&utm_medium=api_v3_business_search&utm_source=vyhy616UjsMTA_hrWyg_5w", "review_count": 85, "categories": [{"alias": "japanese", "title": "Japanese"}, {"alias": "chinese", "title": "Chinese"}, {"alias": "asianfusion", "title": "Asian Fusion"}], "rating": 3.5, "coordinates": {"latitude": 43.5964858, "longitude": -116.2134827}, "transactions": ["delivery", "pickup"], "price": "$", "location": {"address1": "824 S Vista Ave", "address2": "", "address3": "", "city": "Boise", "zip_code": "83705", "country": "US", "state": "ID", "display_address": ["824 S Vista Ave", "Boise, ID 83705"]}, "phone": "+12083773064", "display_phone": "(208) 377-3064", "distance": 2962.648452257497}, {"id": "dGojJtwKAEqLr6UIV-2fQA", "alias": "rice-contemporary-asian-cuisine-eagle", "name": "Rice Contemporary Asian Cuisine", "image_url": "https://s3-media3.fl.yelpcdn.com/bphoto/iZBrjwswoBi0Yrfj1Hwk6A/o.jpg", "is_closed": false, "url": "https://www.yelp.com/biz/rice-contemporary-asian-cuisine-eagle?adjust_creative=vyhy616UjsMTA_hrWyg_5w&utm_campaign=yelp_api_v3&utm_medium=api_v3_business_search&utm_source=vyhy616UjsMTA_hrWyg_5w", "review_count": 147, "categories": [{"alias": "asianfusion", "title": "Asian Fusion"}], "rating": 3.5, "coordinates": {"latitude": 43.6936638, "longitude": -116.3521209}, "transactions": ["delivery", "pickup"], "price": "$$", "location": {"address1": "228 E Plaza St", "address2": "Ste Q", "address3": "", "city": "Eagle", "zip_code": "83616", "country": "US", "state": "ID", "display_address": ["228 E Plaza St", "Ste Q", "Eagle, ID 83616"]}, "phone": "+12089392595", "display_phone": "(208) 939-2595", "distance": 12663.745311910043}, {"id": "6dVaWHvm8YEw11eHgDH2eQ", "alias": "cupbop-boise-meridian", "name": "Cupbop - Korean BBQ", "image_url": "https://s3-media1.fl.yelpcdn.com/bphoto/L98ndiT1JKd-Oo2SlAAr_w/o.jpg", "is_closed": false, "url": "https://www.yelp.com/biz/cupbop-boise-meridian?adjust_creative=vyhy616UjsMTA_hrWyg_5w&utm_campaign=yelp_api_v3&utm_medium=api_v3_business_search&utm_source=vyhy616UjsMTA_hrWyg_5w", "review_count": 134, "categories": [{"alias": "korean", "title": "Korean"}, {"alias": "foodtrucks", "title": "Food Trucks"}, {"alias": "bbq", "title": "Barbeque"}], "rating": 4.0, "coordinates": {"latitude": 43.663305, "longitude": -116.412831}, "transactions": ["delivery"], "price": "$", "location": {"address1": "1520 W Chinden Blvd", "address2": "Ste 104", "address3": null, "city": "Meridian", "zip_code": "83646", "country": "US", "state": "ID", "display_address": ["1520 W Chinden Blvd", "Ste 104", "Meridian, ID 83646"]}, "phone": "+12088959737", "display_phone": "(208) 895-9737", "distance": 14801.61998419248}, {"id": "jbJTF1zVmZsk4hea8hoeVA", "alias": "fork-boise", "name": "Fork", "image_url": "https://s3-media4.fl.yelpcdn.com/bphoto/X1kfToNydJ6NUt1XQFAWlQ/o.jpg", "is_closed": false, "url": "https://www.yelp.com/biz/fork-boise?adjust_creative=vyhy616UjsMTA_hrWyg_5w&utm_campaign=yelp_api_v3&utm_medium=api_v3_business_search&utm_source=vyhy616UjsMTA_hrWyg_5w", "review_count": 1667, "categories": [{"alias": "newamerican", "title": "American (New)"}, {"alias": "breakfast_brunch", "title": "Breakfast & Brunch"}, {"alias": "burgers", "title": "Burgers"}], "rating": 4.0, "coordinates": {"latitude": 43.616389, "longitude": -116.203056}, "transactions": ["delivery"], "price": "$$", "location": {"address1": "199 N 8th St", "address2": "", "address3": "", "city": "Boise", "zip_code": "83702", "country": "US", "state": "ID", "display_address": ["199 N 8th St", "Boise, ID 83702"]}, "phone": "+12082871700", "display_phone": "(208) 287-1700", "distance": 3314.400925836215}, {"id": "jNbGTU9RJ_HK-O3tdo3hKA", "alias": "pats-thai-kitchen-boise", "name": "Pat's Thai Kitchen", "image_url": "https://s3-media1.fl.yelpcdn.com/bphoto/PDvqwqAxphWkw7bY_1mdTQ/o.jpg", "is_closed": false, "url": "https://www.yelp.com/biz/pats-thai-kitchen-boise?adjust_creative=vyhy616UjsMTA_hrWyg_5w&utm_campaign=yelp_api_v3&utm_medium=api_v3_business_search&utm_source=vyhy616UjsMTA_hrWyg_5w", "review_count": 67, "categories": [{"alias": "thai", "title": "Thai"}], "rating": 3.5, "coordinates": {"latitude": 43.6051708206071, "longitude": -116.192144078602}, "transactions": ["delivery"], "price": "$$", "location": {"address1": "577 E Park Blvd", "address2": "", "address3": "", "city": "Boise", "zip_code": "83712", "country": "US", "state": "ID", "display_address": ["577 E Park Blvd", "Boise, ID 83712"]}, "phone": "+12083450026", "display_phone": "(208) 345-0026", "distance": 4153.5321906022255}], "total": 119, "region": {"center": {"longitude": -116.24359130859375, "latitude": 43.61117622996352}}}