{"businesses": [{"id": "T1dv09OKSxmuitPVLXD5Aw", "alias": "serai-chicago", "name": "Serai", "image_url": "https://s3-media1.fl.yelpcdn.com/bphoto/gpf3Bs4El0FNxiZ6bBu4Mg/o.jpg", "is_closed": false, "url": "https://www.yelp.com/biz/serai-chicago?adjust_creative=vyhy616UjsMTA_hrWyg_5w&utm_campaign=yelp_api_v3&utm_medium=api_v3_business_search&utm_source=vyhy616UjsMTA_hrWyg_5w", "review_count": 608, "categories": [{"alias": "malaysian", "title": "Malaysian"}, {"alias": "asianfusion", "title": "Asian Fusion"}, {"alias": "desserts", "title": "Desserts"}], "rating": 4.0, "coordinates": {"latitude": 41.9206132, "longitude": -87.6933394}, "transactions": ["restaurant_reservation", "pickup", "delivery"], "price": "$$", "location": {"address1": "2169 N Milwaukee Ave", "address2": null, "address3": "", "city": "Chicago", "zip_code": "60647", "country": "US", "state": "IL", "display_address": ["2169 N Milwaukee Ave", "Chicago, IL 60647"]}, "phone": "+18722068368", "display_phone": "(872) 206-8368", "distance": 2161.5195243852895}, {"id": "xJEA6P6VS-Ukl9dmjleDkw", "alias": "silli-kori-chicago", "name": "Silli Kori", "image_url": "https://s3-media4.fl.yelpcdn.com/bphoto/dOZes2V6IT5KWp3otOixwg/o.jpg", "is_closed": false, "url": "https://www.yelp.com/biz/silli-kori-chicago?adjust_creative=vyhy616UjsMTA_hrWyg_5w&utm_campaign=yelp_api_v3&utm_medium=api_v3_business_search&utm_source=vyhy616UjsMTA_hrWyg_5w", "review_count": 273, "categories": [{"alias": "thai", "title": "Thai"}, {"alias": "asianfusion", "title": "Asian Fusion"}], "rating": 4.5, "coordinates": {"latitude": 41.90286, "longitude": -87.67935}, "transactions": ["pickup", "delivery"], "price": "$$", "location": {"address1": "2053 W Division St", "address2": "", "address3": "", "city": "Chicago", "zip_code": "60622", "country": "US", "state": "IL", "display_address": ["2053 W Division St", "Chicago, IL 60622"]}, "phone": "+17733845352", "display_phone": "(773) 384-5352", "distance": 281.5520944725917}, {"id": "Qz5uN801Hx2cFrfI7sggoQ", "alias": "mak-restaurant-chicago", "name": "MAK Restaurant", "image_url": "https://s3-media2.fl.yelpcdn.com/bphoto/MmJPnnpjmKCbKio5AV20wg/o.jpg", "is_closed": false, "url": "https://www.yelp.com/biz/mak-restaurant-chicago?adjust_creative=vyhy616UjsMTA_hrWyg_5w&utm_campaign=yelp_api_v3&utm_medium=api_v3_business_search&utm_source=vyhy616UjsMTA_hrWyg_5w", "review_count": 269, "categories": [{"alias": "asianfusion", "title": "Asian Fusion"}, {"alias": "chinese", "title": "Chinese"}], "rating": 4.0, "coordinates": {"latitude": 41.9032611, "longitude": -87.6759818}, "transactions": ["pickup", "delivery"], "price": "$$", "location": {"address1": "1924 W Division St", "address2": "", "address3": "", "city": "Chicago", "zip_code": "60622", "country": "US", "state": "IL", "display_address": ["1924 W Division St", "Chicago, IL 60622"]}, "phone": "+17737726251", "display_phone": "(773) 772-6251", "distance": 257.5345056297062}, {"id": "oSI2djSdl7KjNGwb7PDWCg", "alias": "lao-peng-you-chicago", "name": "Lao Peng You", "image_url": "https://s3-media2.fl.yelpcdn.com/bphoto/FTt0djoqlpv-jsmD3NIyHg/o.jpg", "is_closed": false, "url": "https://www.yelp.com/biz/lao-peng-you-chicago?adjust_creative=vyhy616UjsMTA_hrWyg_5w&utm_campaign=yelp_api_v3&utm_medium=api_v3_business_search&utm_source=vyhy616UjsMTA_hrWyg_5w", "review_count": 96, "categories": [{"alias": "chinese", "title": "Chinese"}], "rating": 4.0, "coordinates": {"latitude": 41.89610667, "longitude": -87.67786167}, "transactions": ["pickup", "delivery"], "price": "$$", "location": {"address1": "2020 W Chicago Ave", "address2": "", "address3": null, "city": "Chicago", "zip_code": "60622", "country": "US", "state": "IL", "display_address": ["2020 W Chicago Ave", "Chicago, IL 60622"]}, "phone": "+18722068624", "display_phone": "(872) 206-8624", "distance": 1010.1354390357178}, {"id": "kUpqpEqkBjZguS1uA6NQYA", "alias": "en-hakkore-2-0-chicago-15", "name": "En Hakkore 2.0", "image_url": "https://s3-media2.fl.yelpcdn.com/bphoto/qXOKGJQlWho6lHiY9usKMQ/o.jpg", "is_closed": false, "url": "https://www.yelp.com/biz/en-hakkore-2-0-chicago-15?adjust_creative=vyhy616UjsMTA_hrWyg_5w&utm_campaign=yelp_api_v3&utm_medium=api_v3_business_search&utm_source=vyhy616UjsMTA_hrWyg_5w", "review_count": 471, "categories": [{"alias": "asianfusion", "title": "Asian Fusion"}, {"alias": "poke", "title": "Poke"}, {"alias": "sushi", "title": "Sushi Bars"}], "rating": 4.5, "coordinates": {"latitude": 41.90859268098761, "longitude": -87.67442096514347}, "transactions": ["pickup", "delivery"], "price": "$$", "location": {"address1": "1467 N Milwaukee Ave", "address2": null, "address3": "", "city": "Chicago", "zip_code": "60622", "country": "US", "state": "IL", "display_address": ["1467 N Milwaukee Ave", "Chicago, IL 60622"]}, "phone": "+17732785959", "display_phone": "(773) 278-5959", "distance": 471.5212124464155}, {"id": "r0maYetuG9F4uZVwVj9qeg", "alias": "qiao-lin-hotpot-chicago-2", "name": "Qiao Lin Hotpot", "image_url": "https://s3-media2.fl.yelpcdn.com/bphoto/jyiBd2PXwezUnU4jONF_gQ/o.jpg", "is_closed": false, "url": "https://www.yelp.com/biz/qiao-lin-hotpot-chicago-2?adjust_creative=vyhy616UjsMTA_hrWyg_5w&utm_campaign=yelp_api_v3&utm_medium=api_v3_business_search&utm_source=vyhy616UjsMTA_hrWyg_5w", "review_count": 82, "categories": [{"alias": "hotpot", "title": "Hot Pot"}, {"alias": "chinese", "title": "Chinese"}], "rating": 5.0, "coordinates": {"latitude": 41.85388, "longitude": -87.641725}, "transactions": ["delivery"], "location": {"address1": "2105 S Jefferson St", "address2": "Ste A", "address3": null, "city": "Chicago", "zip_code": "60616", "country": "US", "state": "IL", "display_address": ["2105 S Jefferson St", "Ste A", "Chicago, IL 60616"]}, "phone": "+13126009779", "display_phone": "(312) 600-9779", "distance": 6437.5954374374605}, {"id": "p2cCK4Vu-3L-skOMd93VVg", "alias": "jj-thai-street-food-chicago", "name": "JJ Thai Street Food", "image_url": "https://s3-media2.fl.yelpcdn.com/bphoto/ZVHyRnVDuLekDCvdTfU9aw/o.jpg", "is_closed": false, "url": "https://www.yelp.com/biz/jj-thai-street-food-chicago?adjust_creative=vyhy616UjsMTA_hrWyg_5w&utm_campaign=yelp_api_v3&utm_medium=api_v3_business_search&utm_source=vyhy616UjsMTA_hrWyg_5w", "review_count": 374, "categories": [{"alias": "thai", "title": "Thai"}], "rating": 4.5, "coordinates": {"latitude": 41.8958251, "longitude": -87.6703764}, "transactions": ["pickup", "delivery"], "price": "$$", "location": {"address1": "1715 W Chicago Ave", "address2": "", "address3": "", "city": "Chicago", "zip_code": "60622", "country": "US", "state": "IL", "display_address": ["1715 W Chicago Ave", "Chicago, IL 60622"]}, "phone": "+13129294435", "display_phone": "(312) 929-4435", "distance": 1204.6495685214984}, {"id": "OaBydYeLPOtpQXaU5DdQnw", "alias": "yatai-asian-street-food-chicago", "name": "YATAI Asian Street Food", "image_url": "https://s3-media1.fl.yelpcdn.com/bphoto/78-HI13nwy66UjceGZHfvA/o.jpg", "is_closed": false, "url": "https://www.yelp.com/biz/yatai-asian-street-food-chicago?adjust_creative=vyhy616UjsMTA_hrWyg_5w&utm_campaign=yelp_api_v3&utm_medium=api_v3_business_search&utm_source=vyhy616UjsMTA_hrWyg_5w", "review_count": 73, "categories": [{"alias": "sushi", "title": "Sushi Bars"}, {"alias": "noodles", "title": "Noodles"}, {"alias": "ramen", "title": "Ramen"}], "rating": 4.5, "coordinates": {"latitude": 41.995507, "longitude": -87.660616045369}, "transactions": ["delivery"], "location": {"address1": "6230 N Broadway St", "address2": "", "address3": null, "city": "Chicago", "zip_code": "60660", "country": "US", "state": "IL", "display_address": ["6230 N Broadway St", "Chicago, IL 60660"]}, "phone": "+17739618000", "display_phone": "(773) 961-8000", "distance": 10145.805115046842}, {"id": "o6O9gCksHBGG7-m0PwRH_g", "alias": "urbanbelly-chicago-26", "name": "Urbanbelly", "image_url": "https://s3-media1.fl.yelpcdn.com/bphoto/ZBTBYh3Ro4-NCvfQ8Hx6Xw/o.jpg", "is_closed": false, "url": "https://www.yelp.com/biz/urbanbelly-chicago-26?adjust_creative=vyhy616UjsMTA_hrWyg_5w&utm_campaign=yelp_api_v3&utm_medium=api_v3_business_search&utm_source=vyhy616UjsMTA_hrWyg_5w", "review_count": 256, "categories": [{"alias": "asianfusion", "title": "Asian Fusion"}, {"alias": "ramen", "title": "Ramen"}], "rating": 4.0, "coordinates": {"latitude": 41.90975, "longitude": -87.6778099}, "transactions": ["pickup", "delivery"], "price": "$$", "location": {"address1": "1542 N Damen Ave", "address2": "", "address3": "", "city": "Chicago", "zip_code": "60622", "country": "US", "state": "IL", "display_address": ["1542 N Damen Ave", "Chicago, IL 60622"]}, "phone": "+17739048606", "display_phone": "(773) 904-8606", "distance": 499.9701867534464}, {"id": "EYjyi_lytYaM1Ty7-kNKSg", "alias": "phodega-chicago", "name": "Phodega", "image_url": "https://s3-media3.fl.yelpcdn.com/bphoto/LRWWEwl0JmKx_p3wwKXc1g/o.jpg", "is_closed": false, "url": "https://www.yelp.com/biz/phodega-chicago?adjust_creative=vyhy616UjsMTA_hrWyg_5w&utm_campaign=yelp_api_v3&utm_medium=api_v3_business_search&utm_source=vyhy616UjsMTA_hrWyg_5w", "review_count": 104, "categories": [{"alias": "vietnamese", "title": "Vietnamese"}, {"alias": "hainan", "title": "Hainan"}, {"alias": "noodles", "title": "Noodles"}], "rating": 4.5, "coordinates": {"latitude": 41.9101939867386, "longitude": -87.667388767004}, "transactions": ["pickup", "delivery"], "price": "$$", "location": {"address1": "1547 N Ashland Ave", "address2": "", "address3": null, "city": "Chicago", "zip_code": "60622", "country": "US", "state": "IL", "display_address": ["1547 N Ashland Ave", "Chicago, IL 60622"]}, "phone": "+17736878187", "display_phone": "(773) 687-8187", "distance": 1025.0447090314601}, {"id": "E-gZcYNh9rSN7viJ_I9kzQ", "alias": "xian-dynasty-cuisine-chicago", "name": "Xi'an Dynasty Cuisine", "image_url": "https://s3-media4.fl.yelpcdn.com/bphoto/l09vs6CRgoQLoM5QNB9p3A/o.jpg", "is_closed": false, "url": "https://www.yelp.com/biz/xian-dynasty-cuisine-chicago?adjust_creative=vyhy616UjsMTA_hrWyg_5w&utm_campaign=yelp_api_v3&utm_medium=api_v3_business_search&utm_source=vyhy616UjsMTA_hrWyg_5w", "review_count": 86, "categories": [{"alias": "chinese", "title": "Chinese"}], "rating": 4.5, "coordinates": {"latitude": 41.92228, "longitude": -87.64465}, "transactions": ["pickup", "delivery"], "price": "$$", "location": {"address1": "2218 N Lincoln Ave", "address2": null, "address3": "", "city": "Chicago", "zip_code": "60614", "country": "US", "state": "IL", "display_address": ["2218 N Lincoln Ave", "Chicago, IL 60614"]}, "phone": "+17739047253", "display_phone": "(773) 904-7253", "distance": 3335.809449959929}, {"id": "ALwH81_sqskLmwfWS-_eeQ", "alias": "tank-noodle-chicago", "name": "Tank Noodle", "image_url": "https://s3-media3.fl.yelpcdn.com/bphoto/7cy5HmirxvWScZ-ElobNew/o.jpg", "is_closed": false, "url": "https://www.yelp.com/biz/tank-noodle-chicago?adjust_creative=vyhy616UjsMTA_hrWyg_5w&utm_campaign=yelp_api_v3&utm_medium=api_v3_business_search&utm_source=vyhy616UjsMTA_hrWyg_5w", "review_count": 1799, "categories": [{"alias": "vietnamese", "title": "Vietnamese"}, {"alias": "noodles", "title": "Noodles"}], "rating": 4.0, "coordinates": {"latitude": 41.9731100981603, "longitude": -87.65954048683}, "transactions": ["delivery", "pickup"], "price": "$$", "location": {"address1": "4953 N Broadway", "address2": null, "address3": "", "city": "Chicago", "zip_code": "60640", "country": "US", "state": "IL", "display_address": ["4953 N Broadway", "Chicago, IL 60640"]}, "phone": "+17738782253", "display_phone": "(773) 878-2253", "distance": 7704.67712744855}, {"id": "8d_DiHWB-pjBVW3a7D8EWg", "alias": "sunda-chicago-chicago", "name": "Sunda Chicago", "image_url": "https://s3-media2.fl.yelpcdn.com/bphoto/5_5ylcpL7gC4tqN5m2CcuQ/o.jpg", "is_closed": false, "url": "https://www.yelp.com/biz/sunda-chicago-chicago?adjust_creative=vyhy616UjsMTA_hrWyg_5w&utm_campaign=yelp_api_v3&utm_medium=api_v3_business_search&utm_source=vyhy616UjsMTA_hrWyg_5w", "review_count": 2834, "categories": [{"alias": "asianfusion", "title": "Asian Fusion"}, {"alias": "sushi", "title": "Sushi Bars"}, {"alias": "japanese", "title": "Japanese"}], "rating": 4.0, "coordinates": {"latitude": 41.8909469, "longitude": -87.6317244}, "transactions": ["pickup", "delivery"], "price": "$$$", "location": {"address1": "110 W Illinois St", "address2": "", "address3": "", "city": "Chicago", "zip_code": "60654", "country": "US", "state": "IL", "display_address": ["110 W Illinois St", "Chicago, IL 60654"]}, "phone": "+13126440500", "display_phone": "(312) 644-0500", "distance": 4126.840266609863}, {"id": "q684td_kKNRMTHMeMchXOg", "alias": "en-hakkore-chicago-10", "name": "En Hakkore", "image_url": "https://s3-media3.fl.yelpcdn.com/bphoto/5LMPIu2EyJThalqxPMS6CA/o.jpg", "is_closed": false, "url": "https://www.yelp.com/biz/en-hakkore-chicago-10?adjust_creative=vyhy616UjsMTA_hrWyg_5w&utm_campaign=yelp_api_v3&utm_medium=api_v3_business_search&utm_source=vyhy616UjsMTA_hrWyg_5w", "review_count": 717, "categories": [{"alias": "korean", "title": "Korean"}, {"alias": "tacos", "title": "Tacos"}], "rating": 4.5, "coordinates": {"latitude": 41.9150939, "longitude": -87.6777957}, "transactions": ["pickup", "delivery"], "price": "$$", "location": {"address1": "1840 N Damen Ave", "address2": null, "address3": "", "city": "Chicago", "zip_code": "60647", "country": "US", "state": "IL", "display_address": ["1840 N Damen Ave", "Chicago, IL 60647"]}, "phone": "+17737729880", "display_phone": "(773) 772-9880", "distance": 1104.6837068588973}, {"id": "IFzqwKn-88ohRfhdLg4wKQ", "alias": "soju-bbq-chicago", "name": "SoJu BBQ", "image_url": "https://s3-media4.fl.yelpcdn.com/bphoto/ChQyUTxbj7bXqV_x7t3NdA/o.jpg", "is_closed": false, "url": "https://www.yelp.com/biz/soju-bbq-chicago?adjust_creative=vyhy616UjsMTA_hrWyg_5w&utm_campaign=yelp_api_v3&utm_medium=api_v3_business_search&utm_source=vyhy616UjsMTA_hrWyg_5w", "review_count": 134, "categories": [{"alias": "korean", "title": "Korean"}, {"alias": "asianfusion", "title": "Asian Fusion"}, {"alias": "chicken_wings", "title": "Chicken Wings"}], "rating": 4.5, "coordinates": {"latitude": 41.8803115441906, "longitude": -87.6669892108769}, "transactions": ["pickup", "delivery"], "price": "$$", "location": {"address1": "36 S Ashland", "address2": "", "address3": null, "city": "Chicago", "zip_code": "60607", "country": "US", "state": "IL", "display_address": ["36 S Ashland", "Chicago, IL 60607"]}, "phone": "+13128775206", "display_phone": "(312) 877-5206", "distance": 2903.3371373422824}, {"id": "xXDY18O5C3gzVPNivTVbDg", "alias": "nha-hang-viet-nam-chicago", "name": "Nha Hang Viet Nam", "image_url": "https://s3-media2.fl.yelpcdn.com/bphoto/lLfRkKezEy9jG6xEC1TLew/o.jpg", "is_closed": false, "url": "https://www.yelp.com/biz/nha-hang-viet-nam-chicago?adjust_creative=vyhy616UjsMTA_hrWyg_5w&utm_campaign=yelp_api_v3&utm_medium=api_v3_business_search&utm_source=vyhy616UjsMTA_hrWyg_5w", "review_count": 319, "categories": [{"alias": "vietnamese", "title": "Vietnamese"}], "rating": 4.5, "coordinates": {"latitude": 41.9734020412826, "longitude": -87.6561914478504}, "transactions": ["delivery"], "price": "$$", "location": {"address1": "1032 W Argyle St", "address2": "", "address3": "", "city": "Chicago", "zip_code": "60640", "country": "US", "state": "IL", "display_address": ["1032 W Argyle St", "Chicago, IL 60640"]}, "phone": "+17738788895", "display_phone": "(773) 878-8895", "distance": 7795.223095436903}, {"id": "c3DGLqz31UbLapOYoRJJiw", "alias": "ao-hawaiian-hideout-chicago", "name": "AO Hawaiian Hideout", "image_url": "https://s3-media2.fl.yelpcdn.com/bphoto/_yuju4d10FffosLJOJ4mgg/o.jpg", "is_closed": false, "url": "https://www.yelp.com/biz/ao-hawaiian-hideout-chicago?adjust_creative=vyhy616UjsMTA_hrWyg_5w&utm_campaign=yelp_api_v3&utm_medium=api_v3_business_search&utm_source=vyhy616UjsMTA_hrWyg_5w", "review_count": 458, "categories": [{"alias": "asianfusion", "title": "Asian Fusion"}, {"alias": "hawaiian", "title": "Hawaiian"}, {"alias": "comfortfood", "title": "Comfort Food"}], "rating": 4.0, "coordinates": {"latitude": 41.865372, "longitude": -87.625744}, "transactions": ["pickup", "delivery"], "price": "$$", "location": {"address1": "1315 S Wabash Ave", "address2": "", "address3": "", "city": "Chicago", "zip_code": "60605", "country": "US", "state": "IL", "display_address": ["1315 S Wabash Ave", "Chicago, IL 60605"]}, "phone": "+13126621100", "display_phone": "(312) 662-1100", "distance": 6174.002170691264}, {"id": "hImdn2YwyRlXdJNwnEHiaA", "alias": "haidilao-hot-pot-chicago", "name": "Haidilao Hot Pot", "image_url": "https://s3-media2.fl.yelpcdn.com/bphoto/8NeHYLQFJV_45J024SdKhQ/o.jpg", "is_closed": false, "url": "https://www.yelp.com/biz/haidilao-hot-pot-chicago?adjust_creative=vyhy616UjsMTA_hrWyg_5w&utm_campaign=yelp_api_v3&utm_medium=api_v3_business_search&utm_source=vyhy616UjsMTA_hrWyg_5w", "review_count": 27, "categories": [{"alias": "chinese", "title": "Chinese"}, {"alias": "hotpot", "title": "Hot Pot"}], "rating": 5.0, "coordinates": {"latitude": 41.8526751, "longitude": -87.6235426}, "transactions": ["pickup", "delivery"], "location": {"address1": "107 E Cermak Rd", "address2": "Fl 2", "address3": null, "city": "Chicago", "zip_code": "60616", "country": "US", "state": "IL", "display_address": ["107 E Cermak Rd", "Fl 2", "Chicago, IL 60616"]}, "phone": "+13123633888", "display_phone": "(312) 363-3888", "distance": 7367.470925675383}, {"id": "hRYN65DXOBwIZ5Hzq_UxaA", "alias": "sticky-rice-chicago", "name": "Sticky Rice", "image_url": "https://s3-media3.fl.yelpcdn.com/bphoto/f1S5SMHsn11UJCPFVbvP5w/o.jpg", "is_closed": false, "url": "https://www.yelp.com/biz/sticky-rice-chicago?adjust_creative=vyhy616UjsMTA_hrWyg_5w&utm_campaign=yelp_api_v3&utm_medium=api_v3_business_search&utm_source=vyhy616UjsMTA_hrWyg_5w", "review_count": 874, "categories": [{"alias": "thai", "title": "Thai"}], "rating": 4.0, "coordinates": {"latitude": 41.95467, "longitude": -87.68883}, "transactions": ["pickup", "delivery"], "price": "$$", "location": {"address1": "4018 N Western Ave", "address2": null, "address3": "", "city": "Chicago", "zip_code": "60618", "country": "US", "state": "IL", "display_address": ["4018 N Western Ave", "Chicago, IL 60618"]}, "phone": "+17735880133", "display_phone": "(773) 588-0133", "distance": 5580.714573574479}, {"id": "3O9dlxXNm-ztCnYczsDTAw", "alias": "thai-basil-chicago", "name": "Thai Basil", "image_url": "https://s3-media3.fl.yelpcdn.com/bphoto/2Z8SC7puEyxajeZ_jSMung/o.jpg", "is_closed": false, "url": "https://www.yelp.com/biz/thai-basil-chicago?adjust_creative=vyhy616UjsMTA_hrWyg_5w&utm_campaign=yelp_api_v3&utm_medium=api_v3_business_search&utm_source=vyhy616UjsMTA_hrWyg_5w", "review_count": 53, "categories": [{"alias": "vietnamese", "title": "Vietnamese"}, {"alias": "thai", "title": "Thai"}, {"alias": "desserts", "title": "Desserts"}], "rating": 4.0, "coordinates": {"latitude": 41.8987659026522, "longitude": -87.6767785102129}, "transactions": ["pickup", "delivery"], "location": {"address1": "937 N Damen Ave", "address2": "", "address3": null, "city": "Chicago", "zip_code": "60622", "country": "US", "state": "IL", "display_address": ["937 N Damen Ave", "Chicago, IL 60622"]}, "phone": "+17736665996", "display_phone": "(773) 666-5996", "distance": 715.5793842037754}, {"id": "GvNGlr0qtmS2yLFoNzqStw", "alias": "real-thai-restaurant-chicago", "name": "Real Thai Restaurant", "image_url": "https://s3-media2.fl.yelpcdn.com/bphoto/nKuoO4NMJgqnCpimNgcy_Q/o.jpg", "is_closed": false, "url": "https://www.yelp.com/biz/real-thai-restaurant-chicago?adjust_creative=vyhy616UjsMTA_hrWyg_5w&utm_campaign=yelp_api_v3&utm_medium=api_v3_business_search&utm_source=vyhy616UjsMTA_hrWyg_5w", "review_count": 39, "categories": [{"alias": "thai", "title": "Thai"}, {"alias": "laotian", "title": "Laotian"}], "rating": 4.5, "coordinates": {"latitude": 41.95238, "longitude": -87.81304}, "transactions": ["pickup", "delivery"], "location": {"address1": "7419 W Irving Park Rd", "address2": null, "address3": "", "city": "Chicago", "zip_code": "60634", "country": "US", "state": "IL", "display_address": ["7419 W Irving Park Rd", "Chicago, IL 60634"]}, "phone": "+17734178742", "display_phone": "(773) 417-8742", "distance": 12365.838132157643}, {"id": "W2H3kafN6ktU0YUto0pXWA", "alias": "takorea-cocina-chicago-2", "name": "Takorea Cocina", "image_url": "https://s3-media2.fl.yelpcdn.com/bphoto/2NwdTfCLOtI957EeyzjLaw/o.jpg", "is_closed": false, "url": "https://www.yelp.com/biz/takorea-cocina-chicago-2?adjust_creative=vyhy616UjsMTA_hrWyg_5w&utm_campaign=yelp_api_v3&utm_medium=api_v3_business_search&utm_source=vyhy616UjsMTA_hrWyg_5w", "review_count": 141, "categories": [{"alias": "korean", "title": "Korean"}, {"alias": "tacos", "title": "Tacos"}], "rating": 4.5, "coordinates": {"latitude": 41.90009, "longitude": -87.68733}, "transactions": ["pickup", "delivery"], "price": "$", "location": {"address1": "1022 N Western", "address2": "", "address3": null, "city": "Chicago", "zip_code": "60622", "country": "US", "state": "IL", "display_address": ["1022 N Western", "Chicago, IL 60622"]}, "phone": "+17736616981", "display_phone": "(773) 661-6981", "distance": 968.1521996652634}, {"id": "fpyyQy-tV1-2v-0p3aWipA", "alias": "minghin-cuisine-chicago-13", "name": "MingHin Cuisine", "image_url": "https://s3-media3.fl.yelpcdn.com/bphoto/ZTRYP4sLFy3kBjAioTgflg/o.jpg", "is_closed": false, "url": "https://www.yelp.com/biz/minghin-cuisine-chicago-13?adjust_creative=vyhy616UjsMTA_hrWyg_5w&utm_campaign=yelp_api_v3&utm_medium=api_v3_business_search&utm_source=vyhy616UjsMTA_hrWyg_5w", "review_count": 80, "categories": [{"alias": "dimsum", "title": "Dim Sum"}, {"alias": "cantonese", "title": "Cantonese"}, {"alias": "asianfusion", "title": "Asian Fusion"}], "rating": 4.5, "coordinates": {"latitude": 41.8923924003537, "longitude": -87.6212023891231}, "transactions": ["pickup", "delivery"], "price": "$$", "location": {"address1": "215 E Ohio St", "address2": "", "address3": null, "city": "Chicago", "zip_code": "60611", "country": "US", "state": "IL", "display_address": ["215 E Ohio St", "Chicago, IL 60611"]}, "phone": "+13127636996", "display_phone": "(312) 763-6996", "distance": 4891.915441657137}, {"id": "FzYi3AVHoYZnWXe1BQrQEw", "alias": "mott-st-chicago-2", "name": "Mott St", "image_url": "https://s3-media3.fl.yelpcdn.com/bphoto/fKsOCxuPYcXpiP29Jq2b2g/o.jpg", "is_closed": false, "url": "https://www.yelp.com/biz/mott-st-chicago-2?adjust_creative=vyhy616UjsMTA_hrWyg_5w&utm_campaign=yelp_api_v3&utm_medium=api_v3_business_search&utm_source=vyhy616UjsMTA_hrWyg_5w", "review_count": 788, "categories": [{"alias": "asianfusion", "title": "Asian Fusion"}, {"alias": "bars", "title": "Bars"}], "rating": 4.0, "coordinates": {"latitude": 41.9071254164458, "longitude": -87.6673834605751}, "transactions": ["pickup", "delivery"], "price": "$$", "location": {"address1": "1401 N Ashland Ave", "address2": "", "address3": "", "city": "Chicago", "zip_code": "60622", "country": "US", "state": "IL", "display_address": ["1401 N Ashland Ave", "Chicago, IL 60622"]}, "phone": "+17736879977", "display_phone": "(773) 687-9977", "distance": 886.5031985484202}, {"id": "7FRba2yDi9uWlSBvahRmEw", "alias": "minghin-cuisine-chicago-7", "name": "MingHin Cuisine", "image_url": "https://s3-media4.fl.yelpcdn.com/bphoto/zhjqo0Bnks76XmQtgO6yaA/o.jpg", "is_closed": false, "url": "https://www.yelp.com/biz/minghin-cuisine-chicago-7?adjust_creative=vyhy616UjsMTA_hrWyg_5w&utm_campaign=yelp_api_v3&utm_medium=api_v3_business_search&utm_source=vyhy616UjsMTA_hrWyg_5w", "review_count": 876, "categories": [{"alias": "dimsum", "title": "Dim Sum"}, {"alias": "cantonese", "title": "Cantonese"}, {"alias": "asianfusion", "title": "Asian Fusion"}], "rating": 4.0, "coordinates": {"latitude": 41.885169, "longitude": -87.619152}, "transactions": ["pickup", "delivery"], "price": "$$", "location": {"address1": "333 E Benton Pl", "address2": "Ste 300", "address3": "", "city": "Chicago", "zip_code": "60601", "country": "US", "state": "IL", "display_address": ["333 E Benton Pl", "Ste 300", "Chicago, IL 60601"]}, "phone": "+13122281333", "display_phone": "(312) 228-1333", "distance": 5336.36406470144}, {"id": "e9Gx0S7ojgg2Y7BrITiADA", "alias": "perilla-korean-american-fare-chicago-4", "name": "Perilla Korean American Fare", "image_url": "https://s3-media3.fl.yelpcdn.com/bphoto/8RJPM55fsLUPNvOdwdk97A/o.jpg", "is_closed": false, "url": "https://www.yelp.com/biz/perilla-korean-american-fare-chicago-4?adjust_creative=vyhy616UjsMTA_hrWyg_5w&utm_campaign=yelp_api_v3&utm_medium=api_v3_business_search&utm_source=vyhy616UjsMTA_hrWyg_5w", "review_count": 162, "categories": [{"alias": "korean", "title": "Korean"}, {"alias": "bbq", "title": "Barbeque"}, {"alias": "asianfusion", "title": "Asian Fusion"}], "rating": 4.5, "coordinates": {"latitude": 41.88942, "longitude": -87.64452}, "transactions": ["pickup", "delivery"], "location": {"address1": "401 N Milwaukee Ave", "address2": "", "address3": null, "city": "Chicago", "zip_code": "60654", "country": "US", "state": "IL", "display_address": ["401 N Milwaukee Ave", "Chicago, IL 60654"]}, "phone": "+13122433344", "display_phone": "(312) 243-3344", "distance": 3269.456019265269}, {"id": "QG6k8viDLaAf5WBIytthDA", "alias": "jess-cafe-chicago", "name": "Jess Cafe", "image_url": "https://s3-media3.fl.yelpcdn.com/bphoto/ukeYnPnKpp-BXgHICi3v5A/o.jpg", "is_closed": false, "url": "https://www.yelp.com/biz/jess-cafe-chicago?adjust_creative=vyhy616UjsMTA_hrWyg_5w&utm_campaign=yelp_api_v3&utm_medium=api_v3_business_search&utm_source=vyhy616UjsMTA_hrWyg_5w", "review_count": 448, "categories": [{"alias": "chinese", "title": "Chinese"}, {"alias": "korean", "title": "Korean"}, {"alias": "thai", "title": "Thai"}], "rating": 4.0, "coordinates": {"latitude": 41.93825, "longitude": -87.77216}, "transactions": ["pickup", "delivery"], "price": "$$", "location": {"address1": "5819 W Belmont Ave", "address2": "", "address3": "", "city": "Chicago", "zip_code": "60634", "country": "US", "state": "IL", "display_address": ["5819 W Belmont Ave", "Chicago, IL 60634"]}, "phone": "+17736372717", "display_phone": "(773) 637-2717", "distance": 8637.382127353321}, {"id": "zIXZtgiir9CVF-iZeeAvaQ", "alias": "ramen-san-chicago", "name": "RAMEN-SAN", "image_url": "https://s3-media3.fl.yelpcdn.com/bphoto/keCcrEk2S_PHLopccD1-WA/o.jpg", "is_closed": false, "url": "https://www.yelp.com/biz/ramen-san-chicago?adjust_creative=vyhy616UjsMTA_hrWyg_5w&utm_campaign=yelp_api_v3&utm_medium=api_v3_business_search&utm_source=vyhy616UjsMTA_hrWyg_5w", "review_count": 2327, "categories": [{"alias": "ramen", "title": "Ramen"}], "rating": 4.0, "coordinates": {"latitude": 41.889798, "longitude": -87.630293}, "transactions": ["pickup", "delivery"], "price": "$$", "location": {"address1": "59 W Hubbard St", "address2": "", "address3": "", "city": "Chicago", "zip_code": "60654", "country": "US", "state": "IL", "display_address": ["59 W Hubbard St", "Chicago, IL 60654"]}, "phone": "+13123779950", "display_phone": "(312) 377-9950", "distance": 4284.319528793847}, {"id": "f1P5hZSitUEAC-mtXlBB7w", "alias": "del-seoul-chicago", "name": "Del Seoul", "image_url": "https://s3-media2.fl.yelpcdn.com/bphoto/teJbIElaB4O0fk2aD7JtPA/o.jpg", "is_closed": false, "url": "https://www.yelp.com/biz/del-seoul-chicago?adjust_creative=vyhy616UjsMTA_hrWyg_5w&utm_campaign=yelp_api_v3&utm_medium=api_v3_business_search&utm_source=vyhy616UjsMTA_hrWyg_5w", "review_count": 2123, "categories": [{"alias": "korean", "title": "Korean"}, {"alias": "asianfusion", "title": "Asian Fusion"}, {"alias": "newamerican", "title": "American (New)"}], "rating": 4.5, "coordinates": {"latitude": 41.929444, "longitude": -87.643016}, "transactions": ["pickup", "delivery"], "price": "$", "location": {"address1": "2568 N Clark St", "address2": "", "address3": "", "city": "Chicago", "zip_code": "60614", "country": "US", "state": "IL", "display_address": ["2568 N Clark St", "Chicago, IL 60614"]}, "phone": "+17732484227", "display_phone": "(773) 248-4227", "distance": 3944.411852998117}, {"id": "3eOEi5ettv9dxQLQZUc5Vw", "alias": "danang-kitchen-chicago", "name": "DaNang Kitchen", "image_url": "https://s3-media1.fl.yelpcdn.com/bphoto/PbGWRuMzJo8i5IrIag-KLg/o.jpg", "is_closed": false, "url": "https://www.yelp.com/biz/danang-kitchen-chicago?adjust_creative=vyhy616UjsMTA_hrWyg_5w&utm_campaign=yelp_api_v3&utm_medium=api_v3_business_search&utm_source=vyhy616UjsMTA_hrWyg_5w", "review_count": 31, "categories": [{"alias": "vietnamese", "title": "Vietnamese"}, {"alias": "noodles", "title": "Noodles"}, {"alias": "coffee", "title": "Coffee & Tea"}], "rating": 5.0, "coordinates": {"latitude": 41.97306, "longitude": -87.65603}, "transactions": ["pickup", "delivery"], "price": "$$", "location": {"address1": "1019 W Argyle St", "address2": null, "address3": "", "city": "Chicago", "zip_code": "60640", "country": "US", "state": "IL", "display_address": ["1019 W Argyle St", "Chicago, IL 60640"]}, "phone": "+17736543564", "display_phone": "(773) 654-3564", "distance": 7777.577924925494}, {"id": "wHs1WocMe6SU-62hI3mriQ", "alias": "silver-plate-asian-cuisine-chicago", "name": "Silver Plate Asian Cuisine", "image_url": "https://s3-media3.fl.yelpcdn.com/bphoto/tVv0NA34Dk67Kr1qZRL5MA/o.jpg", "is_closed": false, "url": "https://www.yelp.com/biz/silver-plate-asian-cuisine-chicago?adjust_creative=vyhy616UjsMTA_hrWyg_5w&utm_campaign=yelp_api_v3&utm_medium=api_v3_business_search&utm_source=vyhy616UjsMTA_hrWyg_5w", "review_count": 49, "categories": [{"alias": "chinese", "title": "Chinese"}, {"alias": "thai", "title": "Thai"}, {"alias": "sushi", "title": "Sushi Bars"}], "rating": 4.5, "coordinates": {"latitude": 41.9417665, "longitude": -87.68945017}, "transactions": ["pickup", "delivery"], "price": "$$", "location": {"address1": "3336A N Western Ave", "address2": "", "address3": null, "city": "Chicago", "zip_code": "60618", "country": "US", "state": "IL", "display_address": ["3336A N Western Ave", "Chicago, IL 60618"]}, "phone": "+17738718888", "display_phone": "(773) 871-8888", "distance": 4184.985700800999}, {"id": "U9D0vqEP4QrJfJYs8mr3DA", "alias": "oiistar-chicago", "name": "Oiistar", "image_url": "https://s3-media2.fl.yelpcdn.com/bphoto/L5SxQV-wWVqzNCqB4JzhaA/o.jpg", "is_closed": false, "url": "https://www.yelp.com/biz/oiistar-chicago?adjust_creative=vyhy616UjsMTA_hrWyg_5w&utm_campaign=yelp_api_v3&utm_medium=api_v3_business_search&utm_source=vyhy616UjsMTA_hrWyg_5w", "review_count": 1003, "categories": [{"alias": "asianfusion", "title": "Asian Fusion"}, {"alias": "ramen", "title": "Ramen"}], "rating": 4.0, "coordinates": {"latitude": 41.9070880100627, "longitude": -87.6720839738846}, "transactions": [], "price": "$$", "location": {"address1": "1385 N Milwaukee Ave", "address2": "", "address3": "", "city": "Chicago", "zip_code": "60622", "country": "US", "state": "IL", "display_address": ["1385 N Milwaukee Ave", "Chicago, IL 60622"]}, "phone": "+17733608791", "display_phone": "(773) 360-8791", "distance": 516.7365458527973}, {"id": "lgjRFg3M-1N416W41DHsTQ", "alias": "ramen-wasabi-chicago", "name": "Ramen Wasabi", "image_url": "https://s3-media1.fl.yelpcdn.com/bphoto/Tv5wtUME7PQRPjwf5tQCdg/o.jpg", "is_closed": false, "url": "https://www.yelp.com/biz/ramen-wasabi-chicago?adjust_creative=vyhy616UjsMTA_hrWyg_5w&utm_campaign=yelp_api_v3&utm_medium=api_v3_business_search&utm_source=vyhy616UjsMTA_hrWyg_5w", "review_count": 1919, "categories": [{"alias": "ramen", "title": "Ramen"}, {"alias": "tapasmallplates", "title": "Tapas/Small Plates"}, {"alias": "izakaya", "title": "Izakaya"}], "rating": 4.0, "coordinates": {"latitude": 41.9195063, "longitude": -87.6915015}, "transactions": ["delivery"], "price": "$$", "location": {"address1": "2101 N Milwaukee Ave", "address2": "", "address3": "", "city": "Chicago", "zip_code": "60647", "country": "US", "state": "IL", "display_address": ["2101 N Milwaukee Ave", "Chicago, IL 60647"]}, "phone": "+17732278180", "display_phone": "(773) 227-8180", "distance": 1958.8406563289725}, {"id": "FMoNA-t4uxss2JA37ZNEJg", "alias": "high-five-ramen-chicago-4", "name": "High Five Ramen", "image_url": "https://s3-media4.fl.yelpcdn.com/bphoto/04VRAmcg7-VRlwpYDl4ZIw/o.jpg", "is_closed": false, "url": "https://www.yelp.com/biz/high-five-ramen-chicago-4?adjust_creative=vyhy616UjsMTA_hrWyg_5w&utm_campaign=yelp_api_v3&utm_medium=api_v3_business_search&utm_source=vyhy616UjsMTA_hrWyg_5w", "review_count": 844, "categories": [{"alias": "ramen", "title": "Ramen"}], "rating": 4.0, "coordinates": {"latitude": 41.883651, "longitude": -87.648968}, "transactions": ["pickup", "delivery"], "price": "$$", "location": {"address1": "112 N Green St", "address2": "", "address3": "", "city": "Chicago", "zip_code": "60607", "country": "US", "state": "IL", "display_address": ["112 N Green St", "Chicago, IL 60607"]}, "phone": "+13123441749", "display_phone": "(312) 344-1749", "distance": 3376.5449612438993}, {"id": "ruWJerAc9VW23GvegYddnQ", "alias": "gaijin-chicago", "name": "Gaijin", "image_url": "https://s3-media3.fl.yelpcdn.com/bphoto/J9MePgG1nkseeKDYCUWSdw/o.jpg", "is_closed": false, "url": "https://www.yelp.com/biz/gaijin-chicago?adjust_creative=vyhy616UjsMTA_hrWyg_5w&utm_campaign=yelp_api_v3&utm_medium=api_v3_business_search&utm_source=vyhy616UjsMTA_hrWyg_5w", "review_count": 206, "categories": [{"alias": "japanese", "title": "Japanese"}], "rating": 4.5, "coordinates": {"latitude": 41.885848, "longitude": -87.651803}, "transactions": ["pickup", "delivery"], "price": "$$", "location": {"address1": "950 W Lake St", "address2": null, "address3": "", "city": "Chicago", "zip_code": "60607", "country": "US", "state": "IL", "display_address": ["950 W Lake St", "Chicago, IL 60607"]}, "phone": "+13122651348", "display_phone": "(312) 265-1348", "distance": 3036.0570835783683}, {"id": "nO8Yrt4l4JLSvCAkkwrk1Q", "alias": "gyu-kaku-japanese-bbq-chicago", "name": "Gyu-Kaku Japanese BBQ", "image_url": "https://s3-media3.fl.yelpcdn.com/bphoto/01XT5eQodzCOV-pkYx6AlQ/o.jpg", "is_closed": false, "url": "https://www.yelp.com/biz/gyu-kaku-japanese-bbq-chicago?adjust_creative=vyhy616UjsMTA_hrWyg_5w&utm_campaign=yelp_api_v3&utm_medium=api_v3_business_search&utm_source=vyhy616UjsMTA_hrWyg_5w", "review_count": 1646, "categories": [{"alias": "japanese", "title": "Japanese"}, {"alias": "bbq", "title": "Barbeque"}, {"alias": "asianfusion", "title": "Asian Fusion"}], "rating": 4.0, "coordinates": {"latitude": 41.89281, "longitude": -87.62223}, "transactions": ["pickup", "delivery"], "price": "$$", "location": {"address1": "210 E Ohio St", "address2": "", "address3": "", "city": "Chicago", "zip_code": "60611", "country": "US", "state": "IL", "display_address": ["210 E Ohio St", "Chicago, IL 60611"]}, "phone": "+13122668929", "display_phone": "(312) 266-8929", "distance": 4797.099645336962}, {"id": "bg20bWGO5cD7A873sEb9kw", "alias": "silom-12-chicago", "name": "Silom 12", "image_url": "https://s3-media4.fl.yelpcdn.com/bphoto/0dx0b06G-y0K6MxxvZzo7Q/o.jpg", "is_closed": false, "url": "https://www.yelp.com/biz/silom-12-chicago?adjust_creative=vyhy616UjsMTA_hrWyg_5w&utm_campaign=yelp_api_v3&utm_medium=api_v3_business_search&utm_source=vyhy616UjsMTA_hrWyg_5w", "review_count": 451, "categories": [{"alias": "thai", "title": "Thai"}], "rating": 4.0, "coordinates": {"latitude": 41.91487, "longitude": -87.68488}, "transactions": ["pickup", "delivery"], "price": "$$", "location": {"address1": "1846-48 N Milwaukee Ave", "address2": "Ste 48", "address3": "", "city": "Chicago", "zip_code": "60647", "country": "US", "state": "IL", "display_address": ["1846-48 N Milwaukee Ave", "Ste 48", "Chicago, IL 60647"]}, "phone": "+17734891212", "display_phone": "(773) 489-1212", "distance": 1236.6921541812221}, {"id": "pglLq_8c2grcKez_wX8WPw", "alias": "ryuu-asian-bbq-and-sushi-chicago", "name": "RYUU Asian BBQ & Sushi", "image_url": "https://s3-media1.fl.yelpcdn.com/bphoto/DKxsztJssrLyrU0e0QfK5w/o.jpg", "is_closed": false, "url": "https://www.yelp.com/biz/ryuu-asian-bbq-and-sushi-chicago?adjust_creative=vyhy616UjsMTA_hrWyg_5w&utm_campaign=yelp_api_v3&utm_medium=api_v3_business_search&utm_source=vyhy616UjsMTA_hrWyg_5w", "review_count": 228, "categories": [{"alias": "korean", "title": "Korean"}, {"alias": "asianfusion", "title": "Asian Fusion"}, {"alias": "sushi", "title": "Sushi Bars"}], "rating": 4.0, "coordinates": {"latitude": 41.9313684850931, "longitude": -87.7113179862499}, "transactions": ["pickup", "delivery"], "price": "$$", "location": {"address1": "2766 N Milwaukee Ave", "address2": null, "address3": "", "city": "Chicago", "zip_code": "60647", "country": "US", "state": "IL", "display_address": ["2766 N Milwaukee Ave", "Chicago, IL 60647"]}, "phone": "+17736611919", "display_phone": "(773) 661-1919", "distance": 4032.8890764123}, {"id": "2RbMo3nvbXS0ev_IzwNh9Q", "alias": "chengdu-aroma-chicago", "name": "Chengdu Aroma", "image_url": "https://s3-media3.fl.yelpcdn.com/bphoto/AWijH4AwJXklJeOdXJ1Geg/o.jpg", "is_closed": false, "url": "https://www.yelp.com/biz/chengdu-aroma-chicago?adjust_creative=vyhy616UjsMTA_hrWyg_5w&utm_campaign=yelp_api_v3&utm_medium=api_v3_business_search&utm_source=vyhy616UjsMTA_hrWyg_5w", "review_count": 75, "categories": [{"alias": "szechuan", "title": "Szechuan"}, {"alias": "hotpot", "title": "Hot Pot"}], "rating": 4.5, "coordinates": {"latitude": 41.940683, "longitude": -87.650975}, "transactions": ["pickup", "delivery"], "price": "$$", "location": {"address1": "3227 N Clark St", "address2": "", "address3": null, "city": "Chicago", "zip_code": "60657", "country": "US", "state": "IL", "display_address": ["3227 N Clark St", "Chicago, IL 60657"]}, "phone": "+17736988822", "display_phone": "(773) 698-8822", "distance": 4526.115655494293}, {"id": "gs-PZjw3VONWJQFCSTDTeg", "alias": "sunset-pho-caffe-chicago-4", "name": "Sunset Pho Caffe", "image_url": "https://s3-media4.fl.yelpcdn.com/bphoto/oMlWbGgTDhe2dD9QoAMdoQ/o.jpg", "is_closed": false, "url": "https://www.yelp.com/biz/sunset-pho-caffe-chicago-4?adjust_creative=vyhy616UjsMTA_hrWyg_5w&utm_campaign=yelp_api_v3&utm_medium=api_v3_business_search&utm_source=vyhy616UjsMTA_hrWyg_5w", "review_count": 329, "categories": [{"alias": "lounges", "title": "Lounges"}, {"alias": "vietnamese", "title": "Vietnamese"}, {"alias": "modern_european", "title": "Modern European"}], "rating": 4.5, "coordinates": {"latitude": 41.9342291, "longitude": -87.6462028}, "transactions": ["pickup", "delivery"], "price": "$$", "location": {"address1": "2856 N Clark St", "address2": "", "address3": "", "city": "Chicago", "zip_code": "60657", "country": "US", "state": "IL", "display_address": ["2856 N Clark St", "Chicago, IL 60657"]}, "phone": "+17732752327", "display_phone": "(773) 275-2327", "distance": 4149.267337185493}, {"id": "NW5y0ucFM48qdbuAPKqu1A", "alias": "ganbeii-asian-fusion-chicago-3", "name": "Ganbeii Asian Fusion", "image_url": "https://s3-media2.fl.yelpcdn.com/bphoto/kSPWkT9r6YrK0kPm9Sq2Vg/o.jpg", "is_closed": false, "url": "https://www.yelp.com/biz/ganbeii-asian-fusion-chicago-3?adjust_creative=vyhy616UjsMTA_hrWyg_5w&utm_campaign=yelp_api_v3&utm_medium=api_v3_business_search&utm_source=vyhy616UjsMTA_hrWyg_5w", "review_count": 30, "categories": [{"alias": "asianfusion", "title": "Asian Fusion"}, {"alias": "korean", "title": "Korean"}, {"alias": "chicken_wings", "title": "Chicken Wings"}], "rating": 4.5, "coordinates": {"latitude": 41.926632, "longitude": -87.640901}, "transactions": ["pickup", "delivery"], "price": "$$", "location": {"address1": "2439 N Clark St", "address2": null, "address3": "", "city": "Chicago", "zip_code": "60614", "country": "US", "state": "IL", "display_address": ["2439 N Clark St", "Chicago, IL 60614"]}, "phone": "+17738577070", "display_phone": "(773) 857-7070", "distance": 3873.419744642819}, {"id": "znAow_NHsTKGbpC_5x7fkg", "alias": "527-cafe-evanston", "name": "527 Cafe", "image_url": "https://s3-media1.fl.yelpcdn.com/bphoto/wSJWYYwI6oYw8MIb0nGIzg/o.jpg", "is_closed": false, "url": "https://www.yelp.com/biz/527-cafe-evanston?adjust_creative=vyhy616UjsMTA_hrWyg_5w&utm_campaign=yelp_api_v3&utm_medium=api_v3_business_search&utm_source=vyhy616UjsMTA_hrWyg_5w", "review_count": 315, "categories": [{"alias": "taiwanese", "title": "Taiwanese"}, {"alias": "chinese", "title": "Chinese"}, {"alias": "bubbletea", "title": "Bubble Tea"}], "rating": 4.0, "coordinates": {"latitude": 42.0461827, "longitude": -87.6790856}, "transactions": ["pickup", "delivery"], "price": "$", "location": {"address1": "527 Davis St", "address2": "", "address3": "", "city": "Evanston", "zip_code": "60201", "country": "US", "state": "IL", "display_address": ["527 Davis St", "Evanston, IL 60201"]}, "phone": "+18473322233", "display_phone": "(847) 332-2233", "distance": 15681.454155939591}, {"id": "La5dA4W_iTxyig3Jjcplbw", "alias": "jiao-by-qing-xiang-yuan-dumplings-chicago-4", "name": "JIAO by Qing Xiang Yuan Dumplings", "image_url": "https://s3-media2.fl.yelpcdn.com/bphoto/l_008CUH7FEldQIVbwoVZg/o.jpg", "is_closed": false, "url": "https://www.yelp.com/biz/jiao-by-qing-xiang-yuan-dumplings-chicago-4?adjust_creative=vyhy616UjsMTA_hrWyg_5w&utm_campaign=yelp_api_v3&utm_medium=api_v3_business_search&utm_source=vyhy616UjsMTA_hrWyg_5w", "review_count": 124, "categories": [{"alias": "chinese", "title": "Chinese"}], "rating": 4.0, "coordinates": {"latitude": 41.88147, "longitude": -87.62668}, "transactions": ["pickup", "delivery"], "price": "$$", "location": {"address1": "18 S Wabash Ave", "address2": "", "address3": null, "city": "Chicago", "zip_code": "60603", "country": "US", "state": "IL", "display_address": ["18 S Wabash Ave", "Chicago, IL 60603"]}, "phone": "+17735984093", "display_phone": "(773) 598-4093", "distance": 5000.8461325112485}, {"id": "gNRc-kNWJbbArT7z1enF9g", "alias": "dai-yees-asian-kitchen-chicago", "name": "Dai Yee's Asian Kitchen", "image_url": "https://s3-media2.fl.yelpcdn.com/bphoto/nlueXXBsPcLxh_tOCYODCA/o.jpg", "is_closed": false, "url": "https://www.yelp.com/biz/dai-yees-asian-kitchen-chicago?adjust_creative=vyhy616UjsMTA_hrWyg_5w&utm_campaign=yelp_api_v3&utm_medium=api_v3_business_search&utm_source=vyhy616UjsMTA_hrWyg_5w", "review_count": 39, "categories": [{"alias": "chinese", "title": "Chinese"}, {"alias": "seafood", "title": "Seafood"}, {"alias": "asianfusion", "title": "Asian Fusion"}], "rating": 5.0, "coordinates": {"latitude": 41.956787, "longitude": -87.692983}, "transactions": ["pickup", "delivery"], "location": {"address1": "4131 N Rockwell St", "address2": null, "address3": "", "city": "Chicago", "zip_code": "60618", "country": "US", "state": "IL", "display_address": ["4131 N Rockwell St", "Chicago, IL 60618"]}, "phone": "+13129616039", "display_phone": "(312) 961-6039", "distance": 5876.6892490712635}, {"id": "bZ7lvi5_BQ6UKK10OKPV7Q", "alias": "sushi-taku-chicago-2", "name": "Sushi Taku", "image_url": "https://s3-media3.fl.yelpcdn.com/bphoto/dWGHpUuUm37N0Pl73peEQg/o.jpg", "is_closed": false, "url": "https://www.yelp.com/biz/sushi-taku-chicago-2?adjust_creative=vyhy616UjsMTA_hrWyg_5w&utm_campaign=yelp_api_v3&utm_medium=api_v3_business_search&utm_source=vyhy616UjsMTA_hrWyg_5w", "review_count": 762, "categories": [{"alias": "japanese", "title": "Japanese"}, {"alias": "sushi", "title": "Sushi Bars"}], "rating": 4.5, "coordinates": {"latitude": 41.90351, "longitude": -87.67512}, "transactions": ["pickup", "delivery"], "price": "$$", "location": {"address1": "1904 W Division St", "address2": null, "address3": "", "city": "Chicago", "zip_code": "60622", "country": "US", "state": "IL", "display_address": ["1904 W Division St", "Chicago, IL 60622"]}, "phone": "+17732528258", "display_phone": "(773) 252-8258", "distance": 286.0537271113783}, {"id": "yYAJAUfqnN3rQw7S8Cj12Q", "alias": "brightwok-kitchen-chicago-7", "name": "Brightwok Kitchen", "image_url": "https://s3-media2.fl.yelpcdn.com/bphoto/Ez2-MuY4Xbcrp_a6nrOPxg/o.jpg", "is_closed": false, "url": "https://www.yelp.com/biz/brightwok-kitchen-chicago-7?adjust_creative=vyhy616UjsMTA_hrWyg_5w&utm_campaign=yelp_api_v3&utm_medium=api_v3_business_search&utm_source=vyhy616UjsMTA_hrWyg_5w", "review_count": 609, "categories": [{"alias": "asianfusion", "title": "Asian Fusion"}, {"alias": "gluten_free", "title": "Gluten-Free"}, {"alias": "vegetarian", "title": "Vegetarian"}], "rating": 4.5, "coordinates": {"latitude": 41.8794583529234, "longitude": -87.6270027458668}, "transactions": ["pickup", "delivery"], "price": "$$", "location": {"address1": "21 E Adams St", "address2": null, "address3": "", "city": "Chicago", "zip_code": "60603", "country": "US", "state": "IL", "display_address": ["21 E Adams St", "Chicago, IL 60603"]}, "phone": "+13125830729", "display_phone": "(312) 583-0729", "distance": 5100.680858245481}, {"id": "HSfjGxJ_XcA03eQJ9uniYw", "alias": "trike-chicago-3", "name": "Trike", "image_url": "https://s3-media2.fl.yelpcdn.com/bphoto/m_0mmmTOXWb571GB1BX7jA/o.jpg", "is_closed": false, "url": "https://www.yelp.com/biz/trike-chicago-3?adjust_creative=vyhy616UjsMTA_hrWyg_5w&utm_campaign=yelp_api_v3&utm_medium=api_v3_business_search&utm_source=vyhy616UjsMTA_hrWyg_5w", "review_count": 220, "categories": [{"alias": "asianfusion", "title": "Asian Fusion"}, {"alias": "thai", "title": "Thai"}, {"alias": "sushi", "title": "Sushi Bars"}], "rating": 4.0, "coordinates": {"latitude": 41.9276161193848, "longitude": -87.7045593261719}, "transactions": ["pickup", "delivery"], "price": "$$", "location": {"address1": "2539 N Milwaukee Ave", "address2": "", "address3": "", "city": "Chicago", "zip_code": "60647", "country": "US", "state": "IL", "display_address": ["2539 N Milwaukee Ave", "Chicago, IL 60647"]}, "phone": "+17736974264", "display_phone": "(773) 697-4264", "distance": 3339.298442838875}, {"id": "CoSRSpByyyNMuI8m15PH7A", "alias": "thee-asian-restaurant-chicago", "name": "Thee Asian Restaurant", "image_url": "https://s3-media2.fl.yelpcdn.com/bphoto/FoOYAKn2ROi7EdRGjdMLhA/o.jpg", "is_closed": false, "url": "https://www.yelp.com/biz/thee-asian-restaurant-chicago?adjust_creative=vyhy616UjsMTA_hrWyg_5w&utm_campaign=yelp_api_v3&utm_medium=api_v3_business_search&utm_source=vyhy616UjsMTA_hrWyg_5w", "review_count": 188, "categories": [{"alias": "chinese", "title": "Chinese"}, {"alias": "asianfusion", "title": "Asian Fusion"}], "rating": 3.5, "coordinates": {"latitude": 41.91028, "longitude": -87.6732}, "transactions": ["pickup", "delivery"], "price": "$$", "location": {"address1": "1811 W North Ave", "address2": "", "address3": "", "city": "Chicago", "zip_code": "60622", "country": "US", "state": "IL", "display_address": ["1811 W North Ave", "Chicago, IL 60622"]}, "phone": "+17732522218", "display_phone": "(773) 252-2218", "distance": 676.4603551583588}, {"id": "uGrvtr88xUMU7RrKfXvCGg", "alias": "jeong-chicago", "name": "jeong", "image_url": "https://s3-media2.fl.yelpcdn.com/bphoto/BFHRY2AB6nBb7NTfH5LenA/o.jpg", "is_closed": false, "url": "https://www.yelp.com/biz/jeong-chicago?adjust_creative=vyhy616UjsMTA_hrWyg_5w&utm_campaign=yelp_api_v3&utm_medium=api_v3_business_search&utm_source=vyhy616UjsMTA_hrWyg_5w", "review_count": 100, "categories": [{"alias": "korean", "title": "Korean"}, {"alias": "newamerican", "title": "American (New)"}], "rating": 4.5, "coordinates": {"latitude": 41.89637, "longitude": -87.66477}, "transactions": [], "location": {"address1": "1460 W Chicago Ave", "address2": "", "address3": null, "city": "Chicago", "zip_code": "60642", "country": "US", "state": "IL", "display_address": ["1460 W Chicago Ave", "Chicago, IL 60642"]}, "phone": "+13128775016", "display_phone": "(312) 877-5016", "distance": 1455.706427917968}, {"id": "0PPM0wxA2r8XVM8vbMm9Pw", "alias": "mccb-chicago-\u65f6\u5c1a\u98df\u8c31-chicago", "name": "MCCB Chicago \u65f6\u5c1a\u98df\u8c31", "image_url": "https://s3-media2.fl.yelpcdn.com/bphoto/N6XozlzESAjPOFYoJQdHWQ/o.jpg", "is_closed": false, "url": "https://www.yelp.com/biz/mccb-chicago-%E6%97%B6%E5%B0%9A%E9%A3%9F%E8%B0%B1-chicago?adjust_creative=vyhy616UjsMTA_hrWyg_5w&utm_campaign=yelp_api_v3&utm_medium=api_v3_business_search&utm_source=vyhy616UjsMTA_hrWyg_5w", "review_count": 448, "categories": [{"alias": "chinese", "title": "Chinese"}], "rating": 4.5, "coordinates": {"latitude": 41.853906974902266, "longitude": -87.63366102533693}, "transactions": ["pickup", "delivery"], "price": "$$", "location": {"address1": "2138 South Archer Ave", "address2": null, "address3": "", "city": "Chicago", "zip_code": "60616", "country": "US", "state": "IL", "display_address": ["2138 South Archer Ave", "Chicago, IL 60616"]}, "phone": "+13128810168", "display_phone": "(312) 881-0168", "distance": 6768.375613862398}], "total": 1500, "region": {"center": {"longitude": -87.67776489257812, "latitude": 41.90515925618311}}}