{"businesses": [{"id": "0Z15kBgia9GAPRB4P58DJA", "alias": "little-saigon-wichita", "name": "Little Saigon", "image_url": "https://s3-media4.fl.yelpcdn.com/bphoto/YyBl7oKEG9Oq775OYhqAGw/o.jpg", "is_closed": false, "url": "https://www.yelp.com/biz/little-saigon-wichita?adjust_creative=vyhy616UjsMTA_hrWyg_5w&utm_campaign=yelp_api_v3&utm_medium=api_v3_business_search&utm_source=vyhy616UjsMTA_hrWyg_5w", "review_count": 144, "categories": [{"alias": "vietnamese", "title": "Vietnamese"}], "rating": 4.5, "coordinates": {"latitude": 37.70102, "longitude": -97.33595}, "transactions": ["delivery"], "price": "$", "location": {"address1": "1015 N Broadway", "address2": "", "address3": "", "city": "Wichita", "zip_code": "67214", "country": "US", "state": "KS", "display_address": ["1015 N Broadway", "Wichita, KS 67214"]}, "phone": "+13162650054", "display_phone": "(316) 265-0054", "distance": 1348.5163969332848}, {"id": "Ze-R3PUkLTPYpOv4jbvivQ", "alias": "asian-wok-wichita", "name": "Asian Wok", "image_url": "https://s3-media1.fl.yelpcdn.com/bphoto/cOd42NPFEYmcxRXdP1NHRA/o.jpg", "is_closed": false, "url": "https://www.yelp.com/biz/asian-wok-wichita?adjust_creative=vyhy616UjsMTA_hrWyg_5w&utm_campaign=yelp_api_v3&utm_medium=api_v3_business_search&utm_source=vyhy616UjsMTA_hrWyg_5w", "review_count": 4, "categories": [{"alias": "panasian", "title": "Pan Asian"}], "rating": 5.0, "coordinates": {"latitude": 37.736157994861536, "longitude": -97.24519439041616}, "transactions": [], "location": {"address1": "2929 N Rock Rd", "address2": "Ste 105", "address3": null, "city": "Wichita", "zip_code": "67226", "country": "US", "state": "KS", "display_address": ["2929 N Rock Rd", "Ste 105", "Wichita, KS 67226"]}, "phone": "+13162391238", "display_phone": "(316) 239-1238", "distance": 8723.349749511997}, {"id": "xnXtDMDhzTBq4JrZYuz4DA", "alias": "thaos-bistro-wichita", "name": "Thao's Bistro", "image_url": "https://s3-media2.fl.yelpcdn.com/bphoto/0I6IAHaM6uM5TGRY2UE9-A/o.jpg", "is_closed": false, "url": "https://www.yelp.com/biz/thaos-bistro-wichita?adjust_creative=vyhy616UjsMTA_hrWyg_5w&utm_campaign=yelp_api_v3&utm_medium=api_v3_business_search&utm_source=vyhy616UjsMTA_hrWyg_5w", "review_count": 51, "categories": [{"alias": "vietnamese", "title": "Vietnamese"}], "rating": 4.5, "coordinates": {"latitude": 37.65983, "longitude": -97.33586}, "transactions": ["delivery"], "price": "$", "location": {"address1": "1825 S Broadway", "address2": "", "address3": "", "city": "Wichita", "zip_code": "67211", "country": "US", "state": "KS", "display_address": ["1825 S Broadway", "Wichita, KS 67211"]}, "phone": "+13162625281", "display_phone": "(316) 262-5281", "distance": 3598.733463446179}, {"id": "qa50q0xD-uqDN9AK6vMzOw", "alias": "thai-house-wichita", "name": "Thai House", "image_url": "https://s3-media1.fl.yelpcdn.com/bphoto/5HYHXHfv0VoKby0PGTjIUg/o.jpg", "is_closed": false, "url": "https://www.yelp.com/biz/thai-house-wichita?adjust_creative=vyhy616UjsMTA_hrWyg_5w&utm_campaign=yelp_api_v3&utm_medium=api_v3_business_search&utm_source=vyhy616UjsMTA_hrWyg_5w", "review_count": 116, "categories": [{"alias": "thai", "title": "Thai"}], "rating": 4.5, "coordinates": {"latitude": 37.7010753256815, "longitude": -97.3903742035057}, "transactions": ["delivery"], "price": "$", "location": {"address1": "969 N West St", "address2": "", "address3": "", "city": "Wichita", "zip_code": "67203", "country": "US", "state": "KS", "display_address": ["969 N West St", "Wichita, KS 67203"]}, "phone": "+13169414777", "display_phone": "(316) 941-4777", "distance": 5724.527408819205}, {"id": "zFaVfN7K-T5uNQF9J-Qpyw", "alias": "thai-tradition-wichita", "name": "Thai Tradition", "image_url": "https://s3-media4.fl.yelpcdn.com/bphoto/Y8F-H717Kwt5-lEyG1MMaA/o.jpg", "is_closed": false, "url": "https://www.yelp.com/biz/thai-tradition-wichita?adjust_creative=vyhy616UjsMTA_hrWyg_5w&utm_campaign=yelp_api_v3&utm_medium=api_v3_business_search&utm_source=vyhy616UjsMTA_hrWyg_5w", "review_count": 161, "categories": [{"alias": "thai", "title": "Thai"}], "rating": 4.0, "coordinates": {"latitude": 37.69697, "longitude": -97.267979}, "transactions": ["delivery"], "price": "$$", "location": {"address1": "650 N Carriage", "address2": "", "address3": "", "city": "Wichita", "zip_code": "67208", "country": "US", "state": "KS", "display_address": ["650 N Carriage", "Wichita, KS 67208"]}, "phone": "+13166871500", "display_phone": "(316) 687-1500", "distance": 5188.898689637615}, {"id": "hXYtQDuGnQRG0dwk047tpg", "alias": "asian-bistro-wichita", "name": "Asian Bistro", "image_url": "https://s3-media1.fl.yelpcdn.com/bphoto/jzQf51GJvNXV62a6X_8Daw/o.jpg", "is_closed": false, "url": "https://www.yelp.com/biz/asian-bistro-wichita?adjust_creative=vyhy616UjsMTA_hrWyg_5w&utm_campaign=yelp_api_v3&utm_medium=api_v3_business_search&utm_source=vyhy616UjsMTA_hrWyg_5w", "review_count": 58, "categories": [{"alias": "vietnamese", "title": "Vietnamese"}], "rating": 4.0, "coordinates": {"latitude": 37.666165, "longitude": -97.225414}, "transactions": ["delivery"], "price": "$", "location": {"address1": "1520 S Webb Rd", "address2": "Ste 180", "address3": "", "city": "Wichita", "zip_code": "67207", "country": "US", "state": "KS", "display_address": ["1520 S Webb Rd", "Ste 180", "Wichita, KS 67207"]}, "phone": "+13164256208", "display_phone": "(316) 425-6208", "distance": 9323.718389146898}, {"id": "cxyelU1Fo9-AXV7iKOvI2w", "alias": "grace-market-wichita-3", "name": "Grace Market", "image_url": "https://s3-media2.fl.yelpcdn.com/bphoto/gEhNCnyLKPGZsAf6jK8lLg/o.jpg", "is_closed": false, "url": "https://www.yelp.com/biz/grace-market-wichita-3?adjust_creative=vyhy616UjsMTA_hrWyg_5w&utm_campaign=yelp_api_v3&utm_medium=api_v3_business_search&utm_source=vyhy616UjsMTA_hrWyg_5w", "review_count": 42, "categories": [{"alias": "korean", "title": "Korean"}, {"alias": "asianfusion", "title": "Asian Fusion"}, {"alias": "intlgrocery", "title": "International Grocery"}], "rating": 4.5, "coordinates": {"latitude": 37.6685461, "longitude": -97.2796345}, "transactions": [], "price": "$", "location": {"address1": "1030 S Oliver St", "address2": "", "address3": "", "city": "Wichita", "zip_code": "67218", "country": "US", "state": "KS", "display_address": ["1030 S Oliver St", "Wichita, KS 67218"]}, "phone": "+13162603111", "display_phone": "(316) 260-3111", "distance": 4836.137878130516}, {"id": "6CKU3WBpjxWylLVcbVqDMA", "alias": "dragon-city-chinese-restaurant-wichita", "name": "Dragon City Chinese Restaurant", "image_url": "https://s3-media1.fl.yelpcdn.com/bphoto/xJu6FORRlJwChDnTYOVgDw/o.jpg", "is_closed": false, "url": "https://www.yelp.com/biz/dragon-city-chinese-restaurant-wichita?adjust_creative=vyhy616UjsMTA_hrWyg_5w&utm_campaign=yelp_api_v3&utm_medium=api_v3_business_search&utm_source=vyhy616UjsMTA_hrWyg_5w", "review_count": 69, "categories": [{"alias": "chinese", "title": "Chinese"}], "rating": 4.0, "coordinates": {"latitude": 37.69525, "longitude": -97.37734}, "transactions": ["delivery"], "price": "$", "location": {"address1": "3008 W Central Ave", "address2": "", "address3": "", "city": "Wichita", "zip_code": "67203", "country": "US", "state": "KS", "display_address": ["3008 W Central Ave", "Wichita, KS 67203"]}, "phone": "+13169419966", "display_phone": "(316) 941-9966", "distance": 4497.246092307102}, {"id": "b30nRwJPikvWR27lCGzCag", "alias": "lemongrass-taste-of-vietnam-wichita", "name": "Lemongrass Taste of Vietnam", "image_url": "https://s3-media1.fl.yelpcdn.com/bphoto/woHFXLwRE379sQIjBgT7bQ/o.jpg", "is_closed": false, "url": "https://www.yelp.com/biz/lemongrass-taste-of-vietnam-wichita?adjust_creative=vyhy616UjsMTA_hrWyg_5w&utm_campaign=yelp_api_v3&utm_medium=api_v3_business_search&utm_source=vyhy616UjsMTA_hrWyg_5w", "review_count": 142, "categories": [{"alias": "vietnamese", "title": "Vietnamese"}, {"alias": "bars", "title": "Bars"}, {"alias": "seafood", "title": "Seafood"}], "rating": 4.0, "coordinates": {"latitude": 37.690111, "longitude": -97.328523}, "transactions": ["delivery"], "price": "$$", "location": {"address1": "300 N Mead", "address2": "Ste 108", "address3": "", "city": "Wichita", "zip_code": "67202", "country": "US", "state": "KS", "display_address": ["300 N Mead", "Ste 108", "Wichita, KS 67202"]}, "phone": "+13162269127", "display_phone": "(316) 226-9127", "distance": 217.82481880695542}, {"id": "GhqVM2M0abkKPZ_yOs9ddQ", "alias": "tasty-house-wichita", "name": "Tasty House", "image_url": "https://s3-media3.fl.yelpcdn.com/bphoto/slUwmBD3zlNT5fJ8ABAmAA/o.jpg", "is_closed": false, "url": "https://www.yelp.com/biz/tasty-house-wichita?adjust_creative=vyhy616UjsMTA_hrWyg_5w&utm_campaign=yelp_api_v3&utm_medium=api_v3_business_search&utm_source=vyhy616UjsMTA_hrWyg_5w", "review_count": 55, "categories": [{"alias": "asianfusion", "title": "Asian Fusion"}], "rating": 3.5, "coordinates": {"latitude": 37.7276097913364, "longitude": -97.2106180591236}, "transactions": ["delivery"], "price": "$$", "location": {"address1": "2431 N Greenwich Rd", "address2": "", "address3": "", "city": "Wichita", "zip_code": "67226", "country": "US", "state": "KS", "display_address": ["2431 N Greenwich Rd", "Wichita, KS 67226"]}, "phone": "+13162602727", "display_phone": "(316) 260-2727", "distance": 10967.148179927866}, {"id": "A0Ig9_tdXMV8tCS07yh67A", "alias": "chiang-mai-thai-restaurant-wichita", "name": "Chiang MAI Thai Restaurant", "image_url": "https://s3-media1.fl.yelpcdn.com/bphoto/dI27P-aZS279J12hpfEfuQ/o.jpg", "is_closed": false, "url": "https://www.yelp.com/biz/chiang-mai-thai-restaurant-wichita?adjust_creative=vyhy616UjsMTA_hrWyg_5w&utm_campaign=yelp_api_v3&utm_medium=api_v3_business_search&utm_source=vyhy616UjsMTA_hrWyg_5w", "review_count": 106, "categories": [{"alias": "thai", "title": "Thai"}], "rating": 4.0, "coordinates": {"latitude": 37.63615, "longitude": -97.29934}, "transactions": ["delivery"], "price": "$", "location": {"address1": "3141 S Hillside St", "address2": "", "address3": "", "city": "Wichita", "zip_code": "67216", "country": "US", "state": "KS", "display_address": ["3141 S Hillside St", "Wichita, KS 67216"]}, "phone": "+13166528910", "display_phone": "(316) 652-8910", "distance": 6578.552513062762}, {"id": "zRL8YzDR1IaLiHdplUZHuA", "alias": "gangnam-korean-bbq-and-sushi-bar-wichita-2", "name": "GangNam Korean BBQ and Sushi bar", "image_url": "https://s3-media3.fl.yelpcdn.com/bphoto/7HpW6v6LHsTdBTMJe3oFQA/o.jpg", "is_closed": false, "url": "https://www.yelp.com/biz/gangnam-korean-bbq-and-sushi-bar-wichita-2?adjust_creative=vyhy616UjsMTA_hrWyg_5w&utm_campaign=yelp_api_v3&utm_medium=api_v3_business_search&utm_source=vyhy616UjsMTA_hrWyg_5w", "review_count": 112, "categories": [{"alias": "korean", "title": "Korean"}, {"alias": "sushi", "title": "Sushi Bars"}, {"alias": "bbq", "title": "Barbeque"}], "rating": 4.0, "coordinates": {"latitude": 37.6880978736768, "longitude": -97.3261363676665}, "transactions": ["delivery"], "price": "$$", "location": {"address1": "210 N Washington St", "address2": null, "address3": "", "city": "Wichita", "zip_code": "67202", "country": "US", "state": "KS", "display_address": ["210 N Washington St", "Wichita, KS 67202"]}, "phone": "+13162016400", "display_phone": "(316) 201-6400", "distance": 351.85261986184076}, {"id": "iOPdZwEVAT412tbLuKnHew", "alias": "kimchi-wichita", "name": "Kimchi", "image_url": "https://s3-media1.fl.yelpcdn.com/bphoto/1y2aHqk09UR5yvgpRNSoUQ/o.jpg", "is_closed": false, "url": "https://www.yelp.com/biz/kimchi-wichita?adjust_creative=vyhy616UjsMTA_hrWyg_5w&utm_campaign=yelp_api_v3&utm_medium=api_v3_business_search&utm_source=vyhy616UjsMTA_hrWyg_5w", "review_count": 54, "categories": [{"alias": "korean", "title": "Korean"}], "rating": 4.5, "coordinates": {"latitude": 37.7363799, "longitude": -97.2458599}, "transactions": ["delivery"], "price": "$", "location": {"address1": "2929 N Rock Rd", "address2": "Ste 150", "address3": "", "city": "Wichita", "zip_code": "67226", "country": "US", "state": "KS", "display_address": ["2929 N Rock Rd", "Ste 150", "Wichita, KS 67226"]}, "phone": "+13166190909", "display_phone": "(316) 619-0909", "distance": 8694.126993773796}, {"id": "YfVHSOUVf0pqKWXhA3ZKOQ", "alias": "bai-wei-wichita", "name": "Bai Wei", "image_url": "https://s3-media4.fl.yelpcdn.com/bphoto/0yToKt4NW320LrhXUkjLzA/o.jpg", "is_closed": false, "url": "https://www.yelp.com/biz/bai-wei-wichita?adjust_creative=vyhy616UjsMTA_hrWyg_5w&utm_campaign=yelp_api_v3&utm_medium=api_v3_business_search&utm_source=vyhy616UjsMTA_hrWyg_5w", "review_count": 54, "categories": [{"alias": "chinese", "title": "Chinese"}, {"alias": "seafood", "title": "Seafood"}, {"alias": "soup", "title": "Soup"}], "rating": 4.0, "coordinates": {"latitude": 37.66032, "longitude": -97.24491}, "transactions": ["delivery"], "price": "$$", "location": {"address1": "1845 S Rock Rd", "address2": "Ste 105", "address3": null, "city": "Wichita", "zip_code": "67207", "country": "US", "state": "KS", "display_address": ["1845 S Rock Rd", "Ste 105", "Wichita, KS 67207"]}, "phone": "+13166898900", "display_phone": "(316) 689-8900", "distance": 7954.855261175421}, {"id": "INLL4JVCmeF8Uk1zy5eyEA", "alias": "japan-express-wichita", "name": "Japan Express", "image_url": "https://s3-media1.fl.yelpcdn.com/bphoto/odnHtdgVCA5eIZSXGhyucw/o.jpg", "is_closed": false, "url": "https://www.yelp.com/biz/japan-express-wichita?adjust_creative=vyhy616UjsMTA_hrWyg_5w&utm_campaign=yelp_api_v3&utm_medium=api_v3_business_search&utm_source=vyhy616UjsMTA_hrWyg_5w", "review_count": 75, "categories": [{"alias": "japanese", "title": "Japanese"}, {"alias": "vegetarian", "title": "Vegetarian"}], "rating": 4.5, "coordinates": {"latitude": 37.7249603271484, "longitude": -97.2433624267578}, "transactions": ["delivery"], "price": "$", "location": {"address1": "2250 N Rock Rd", "address2": "Ste 126", "address3": "", "city": "Wichita", "zip_code": "67226", "country": "US", "state": "KS", "display_address": ["2250 N Rock Rd", "Ste 126", "Wichita, KS 67226"]}, "phone": "+13166823183", "display_phone": "(316) 682-3183", "distance": 8233.370721576612}, {"id": "J6X5ysXieuY3r1lZtjddBw", "alias": "thai-village-wichita", "name": "Thai Village", "image_url": "https://s3-media1.fl.yelpcdn.com/bphoto/aaPJeBqYd1HkU93EMvxdvA/o.jpg", "is_closed": false, "url": "https://www.yelp.com/biz/thai-village-wichita?adjust_creative=vyhy616UjsMTA_hrWyg_5w&utm_campaign=yelp_api_v3&utm_medium=api_v3_business_search&utm_source=vyhy616UjsMTA_hrWyg_5w", "review_count": 63, "categories": [{"alias": "thai", "title": "Thai"}, {"alias": "diners", "title": "Diners"}, {"alias": "seafood", "title": "Seafood"}], "rating": 4.5, "coordinates": {"latitude": 37.656944, "longitude": -97.24382}, "transactions": ["delivery", "pickup"], "price": "$$", "location": {"address1": "2020 S Rock Rd", "address2": "Ste 50", "address3": "", "city": "Wichita", "zip_code": "67207", "country": "US", "state": "KS", "display_address": ["2020 S Rock Rd", "Ste 50", "Wichita, KS 67207"]}, "phone": "+13166856333", "display_phone": "(316) 685-6333", "distance": 8216.486900210446}, {"id": "NBb03HML94nmmemOnBivag", "alias": "hot-stone-korean-grill-wichita", "name": "Hot Stone Korean Grill", "image_url": "https://s3-media3.fl.yelpcdn.com/bphoto/PhJlRd_QNco6_uvEVf2rVQ/o.jpg", "is_closed": false, "url": "https://www.yelp.com/biz/hot-stone-korean-grill-wichita?adjust_creative=vyhy616UjsMTA_hrWyg_5w&utm_campaign=yelp_api_v3&utm_medium=api_v3_business_search&utm_source=vyhy616UjsMTA_hrWyg_5w", "review_count": 47, "categories": [{"alias": "korean", "title": "Korean"}], "rating": 4.0, "coordinates": {"latitude": 37.7509803771973, "longitude": -97.2452850341797}, "transactions": ["delivery"], "price": "$$", "location": {"address1": "3743 N Rock Rd", "address2": "", "address3": "", "city": "Wichita", "zip_code": "67226", "country": "US", "state": "KS", "display_address": ["3743 N Rock Rd", "Wichita, KS 67226"]}, "phone": "+13164257082", "display_phone": "(316) 425-7082", "distance": 9748.004451279108}, {"id": "nVF77lKO36R-T_i_SazG8Q", "alias": "les-noodles-and-sandwiches-wichita", "name": "Le's Noodles & Sandwiches", "image_url": "https://s3-media1.fl.yelpcdn.com/bphoto/e8QkYrFhegSdiLF2_vqFGg/o.jpg", "is_closed": false, "url": "https://www.yelp.com/biz/les-noodles-and-sandwiches-wichita?adjust_creative=vyhy616UjsMTA_hrWyg_5w&utm_campaign=yelp_api_v3&utm_medium=api_v3_business_search&utm_source=vyhy616UjsMTA_hrWyg_5w", "review_count": 53, "categories": [{"alias": "vietnamese", "title": "Vietnamese"}, {"alias": "noodles", "title": "Noodles"}, {"alias": "sandwiches", "title": "Sandwiches"}], "rating": 4.0, "coordinates": {"latitude": 37.6939449, "longitude": -97.2592774}, "transactions": ["delivery"], "price": "$$", "location": {"address1": "6540 E Central Ave", "address2": "", "address3": "", "city": "Wichita", "zip_code": "67206", "country": "US", "state": "KS", "display_address": ["6540 E Central Ave", "Wichita, KS 67206"]}, "phone": "+13162952883", "display_phone": "(316) 295-2883", "distance": 5802.732240872938}, {"id": "KKpedCa_StwZmKMRzIh4Ow", "alias": "pho-chopstix-wichita", "name": "Pho Chopstix", "image_url": "https://s3-media2.fl.yelpcdn.com/bphoto/3MhlEvHW1OIv6PjeRKpenQ/o.jpg", "is_closed": false, "url": "https://www.yelp.com/biz/pho-chopstix-wichita?adjust_creative=vyhy616UjsMTA_hrWyg_5w&utm_campaign=yelp_api_v3&utm_medium=api_v3_business_search&utm_source=vyhy616UjsMTA_hrWyg_5w", "review_count": 82, "categories": [{"alias": "vietnamese", "title": "Vietnamese"}, {"alias": "chinese", "title": "Chinese"}, {"alias": "korean", "title": "Korean"}], "rating": 4.5, "coordinates": {"latitude": 37.72421, "longitude": -97.42674}, "transactions": ["delivery"], "price": "$", "location": {"address1": "2233 N Ridge Rd", "address2": "Ste 103", "address3": "", "city": "Wichita", "zip_code": "67205", "country": "US", "state": "KS", "display_address": ["2233 N Ridge Rd", "Ste 103", "Wichita, KS 67205"]}, "phone": "+13167298088", "display_phone": "(316) 729-8088", "distance": 9567.168971627492}, {"id": "YDyYx68QQO961xUaOG9erw", "alias": "my-tho-wichita", "name": "My Tho", "image_url": "https://s3-media4.fl.yelpcdn.com/bphoto/ZYy6p2qV_NzVRFWJBbXDwA/o.jpg", "is_closed": false, "url": "https://www.yelp.com/biz/my-tho-wichita?adjust_creative=vyhy616UjsMTA_hrWyg_5w&utm_campaign=yelp_api_v3&utm_medium=api_v3_business_search&utm_source=vyhy616UjsMTA_hrWyg_5w", "review_count": 139, "categories": [{"alias": "vietnamese", "title": "Vietnamese"}], "rating": 4.5, "coordinates": {"latitude": 37.69366, "longitude": -97.33277}, "transactions": ["delivery"], "price": "$", "location": {"address1": "500 E Central Ave", "address2": "", "address3": "", "city": "Wichita", "zip_code": "67214", "country": "US", "state": "KS", "display_address": ["500 E Central Ave", "Wichita, KS 67214"]}, "phone": "+13162625452", "display_phone": "(316) 262-5452", "distance": 614.1691823775866}, {"id": "Hrs_MiVr8tWjlcPoWjk_Vw", "alias": "ah-so-oriental-restaurant-wichita", "name": "Ah-So Oriental Restaurant", "image_url": "https://s3-media2.fl.yelpcdn.com/bphoto/tptn71zKw68kCajRaT5uWA/o.jpg", "is_closed": false, "url": "https://www.yelp.com/biz/ah-so-oriental-restaurant-wichita?adjust_creative=vyhy616UjsMTA_hrWyg_5w&utm_campaign=yelp_api_v3&utm_medium=api_v3_business_search&utm_source=vyhy616UjsMTA_hrWyg_5w", "review_count": 26, "categories": [{"alias": "korean", "title": "Korean"}], "rating": 4.0, "coordinates": {"latitude": 37.672252, "longitude": -97.2808905}, "transactions": ["delivery"], "price": "$", "location": {"address1": "855 S Oliver St", "address2": "", "address3": "", "city": "Wichita", "zip_code": "67218", "country": "US", "state": "KS", "display_address": ["855 S Oliver St", "Wichita, KS 67218"]}, "phone": "+13166852091", "display_phone": "(316) 685-2091", "distance": 4536.195334062869}, {"id": "2kjGrmNucty4SCl6a4rV9w", "alias": "promise-thai-cuisine-wichita", "name": "Promise Thai Cuisine", "image_url": "https://s3-media4.fl.yelpcdn.com/bphoto/B_28uUb2JRNlOvvXjWC5_w/o.jpg", "is_closed": false, "url": "https://www.yelp.com/biz/promise-thai-cuisine-wichita?adjust_creative=vyhy616UjsMTA_hrWyg_5w&utm_campaign=yelp_api_v3&utm_medium=api_v3_business_search&utm_source=vyhy616UjsMTA_hrWyg_5w", "review_count": 83, "categories": [{"alias": "thai", "title": "Thai"}], "rating": 4.0, "coordinates": {"latitude": 37.68258, "longitude": -97.20854}, "transactions": ["delivery"], "price": "$$", "location": {"address1": "313 S Greenwich Rd", "address2": "", "address3": "", "city": "Wichita", "zip_code": "67207", "country": "US", "state": "KS", "display_address": ["313 S Greenwich Rd", "Wichita, KS 67207"]}, "phone": "+13164404555", "display_phone": "(316) 440-4555", "distance": 10421.910737191776}, {"id": "UFvzg_QxCEoCLbL85fpxIw", "alias": "manna-wok-oriental-restaurant-wichita", "name": "Manna Wok Oriental Restaurant", "image_url": "https://s3-media2.fl.yelpcdn.com/bphoto/OLEDx8sSDe9lvYA9UfRjtw/o.jpg", "is_closed": false, "url": "https://www.yelp.com/biz/manna-wok-oriental-restaurant-wichita?adjust_creative=vyhy616UjsMTA_hrWyg_5w&utm_campaign=yelp_api_v3&utm_medium=api_v3_business_search&utm_source=vyhy616UjsMTA_hrWyg_5w", "review_count": 62, "categories": [{"alias": "korean", "title": "Korean"}], "rating": 4.5, "coordinates": {"latitude": 37.6643333435059, "longitude": -97.2783203125}, "transactions": ["delivery"], "price": "$", "location": {"address1": "4865 E Harry St", "address2": "", "address3": "", "city": "Wichita", "zip_code": "67218", "country": "US", "state": "KS", "display_address": ["4865 E Harry St", "Wichita, KS 67218"]}, "phone": "+13166845512", "display_phone": "(316) 684-5512", "distance": 5186.53897497584}, {"id": "er8O_JP_E2S_hl7myv9Dag", "alias": "saigon-restaurant-wichita", "name": "Saigon Restaurant", "image_url": "https://s3-media4.fl.yelpcdn.com/bphoto/O9eku_ItX4BLVmlPGsEh7w/o.jpg", "is_closed": false, "url": "https://www.yelp.com/biz/saigon-restaurant-wichita?adjust_creative=vyhy616UjsMTA_hrWyg_5w&utm_campaign=yelp_api_v3&utm_medium=api_v3_business_search&utm_source=vyhy616UjsMTA_hrWyg_5w", "review_count": 84, "categories": [{"alias": "vietnamese", "title": "Vietnamese"}, {"alias": "sandwiches", "title": "Sandwiches"}], "rating": 4.5, "coordinates": {"latitude": 37.7027626037598, "longitude": -97.3359451293945}, "transactions": ["delivery"], "price": "$", "location": {"address1": "1103 N Broadway St", "address2": "", "address3": "", "city": "Wichita", "zip_code": "67214", "country": "US", "state": "KS", "display_address": ["1103 N Broadway St", "Wichita, KS 67214"]}, "phone": "+13162628134", "display_phone": "(316) 262-8134", "distance": 1515.7095581680603}, {"id": "B2FRXXpuCRXcdvfKTMTuIA", "alias": "tutas-teriyaki-wichita", "name": "Tuta's Teriyaki", "image_url": "https://s3-media1.fl.yelpcdn.com/bphoto/Jb8846jLggzAwTcawZn02Q/o.jpg", "is_closed": false, "url": "https://www.yelp.com/biz/tutas-teriyaki-wichita?adjust_creative=vyhy616UjsMTA_hrWyg_5w&utm_campaign=yelp_api_v3&utm_medium=api_v3_business_search&utm_source=vyhy616UjsMTA_hrWyg_5w", "review_count": 30, "categories": [{"alias": "japanese", "title": "Japanese"}], "rating": 4.5, "coordinates": {"latitude": 37.6720809936523, "longitude": -97.4433059692383}, "transactions": ["delivery"], "price": "$", "location": {"address1": "1212 S Tyler Rd", "address2": null, "address3": null, "city": "Wichita", "zip_code": "67209", "country": "US", "state": "KS", "display_address": ["1212 S Tyler Rd", "Wichita, KS 67209"]}, "phone": "+13167299003", "display_phone": "(316) 729-9003", "distance": 10507.16249762572}, {"id": "oYNbHIN6UgkaG-04c086cQ", "alias": "lees-chinese-restaurant-wichita-2", "name": "Lee's Chinese Restaurant", "image_url": "https://s3-media2.fl.yelpcdn.com/bphoto/ZQLNfD7zrbH1I3ejOlsdKA/o.jpg", "is_closed": false, "url": "https://www.yelp.com/biz/lees-chinese-restaurant-wichita-2?adjust_creative=vyhy616UjsMTA_hrWyg_5w&utm_campaign=yelp_api_v3&utm_medium=api_v3_business_search&utm_source=vyhy616UjsMTA_hrWyg_5w", "review_count": 119, "categories": [{"alias": "chinese", "title": "Chinese"}], "rating": 3.5, "coordinates": {"latitude": 37.67216, "longitude": -97.41489}, "transactions": ["delivery", "pickup"], "price": "$$", "location": {"address1": "6215 W Kellogg Dr", "address2": "", "address3": "", "city": "Wichita", "zip_code": "67209", "country": "US", "state": "KS", "display_address": ["6215 W Kellogg Dr", "Wichita, KS 67209"]}, "phone": "+13169428822", "display_phone": "(316) 942-8822", "distance": 8049.927016998739}, {"id": "tIe_EeydBrstSHQAumbc_w", "alias": "bds-mongolian-grill-wichita", "name": "bd's Mongolian Grill", "image_url": "https://s3-media3.fl.yelpcdn.com/bphoto/uknaZo1dIvMJUhQoTFoJyA/o.jpg", "is_closed": false, "url": "https://www.yelp.com/biz/bds-mongolian-grill-wichita?adjust_creative=vyhy616UjsMTA_hrWyg_5w&utm_campaign=yelp_api_v3&utm_medium=api_v3_business_search&utm_source=vyhy616UjsMTA_hrWyg_5w", "review_count": 9, "categories": [{"alias": "mongolian", "title": "Mongolian"}, {"alias": "asianfusion", "title": "Asian Fusion"}], "rating": 4.5, "coordinates": {"latitude": 37.68604, "longitude": -97.24507}, "transactions": ["delivery"], "location": {"address1": "111 S Rock Rd", "address2": null, "address3": "", "city": "Wichita", "zip_code": "67207", "country": "US", "state": "KS", "display_address": ["111 S Rock Rd", "Wichita, KS 67207"]}, "phone": "+13162027326", "display_phone": "(316) 202-7326", "distance": 7186.759189504915}, {"id": "n27-30LG0BNTnEOVWWMFQw", "alias": "pho-special-wichita-2", "name": "Pho Special", "image_url": "https://s3-media3.fl.yelpcdn.com/bphoto/qJgrzPJpdUIHv1vZFUMOmg/o.jpg", "is_closed": false, "url": "https://www.yelp.com/biz/pho-special-wichita-2?adjust_creative=vyhy616UjsMTA_hrWyg_5w&utm_campaign=yelp_api_v3&utm_medium=api_v3_business_search&utm_source=vyhy616UjsMTA_hrWyg_5w", "review_count": 71, "categories": [{"alias": "vietnamese", "title": "Vietnamese"}, {"alias": "bubbletea", "title": "Bubble Tea"}, {"alias": "juicebars", "title": "Juice Bars & Smoothies"}], "rating": 4.0, "coordinates": {"latitude": 37.64964, "longitude": -97.30765}, "transactions": ["delivery", "pickup"], "price": "$", "location": {"address1": "2409 E Pawnee", "address2": "", "address3": "", "city": "Wichita", "zip_code": "67211", "country": "US", "state": "KS", "display_address": ["2409 E Pawnee", "Wichita, KS 67211"]}, "phone": "+13166874000", "display_phone": "(316) 687-4000", "distance": 4928.465341998846}, {"id": "pCEcAWln7lC3ws5KDB6pjw", "alias": "springro-wichita-2", "name": "SpringRo", "image_url": "https://s3-media2.fl.yelpcdn.com/bphoto/T6IHAMvWLXYFHoaAU3R9sw/o.jpg", "is_closed": false, "url": "https://www.yelp.com/biz/springro-wichita-2?adjust_creative=vyhy616UjsMTA_hrWyg_5w&utm_campaign=yelp_api_v3&utm_medium=api_v3_business_search&utm_source=vyhy616UjsMTA_hrWyg_5w", "review_count": 51, "categories": [{"alias": "vietnamese", "title": "Vietnamese"}], "rating": 4.0, "coordinates": {"latitude": 37.752851, "longitude": -97.264127}, "transactions": ["delivery"], "price": "$$", "location": {"address1": "6254 E 37th St N", "address2": "Ste 180", "address3": "", "city": "Wichita", "zip_code": "67220", "country": "US", "state": "KS", "display_address": ["6254 E 37th St N", "Ste 180", "Wichita, KS 67220"]}, "phone": "+13162269123", "display_phone": "(316) 226-9123", "distance": 8776.312702983263}, {"id": "5gZsB_D5oWGDrbrmWreYbg", "alias": "vietnom-nom-wichita", "name": "Vietnom Nom", "image_url": "https://s3-media2.fl.yelpcdn.com/bphoto/wL21NCTWdSvWDQf1JnI11w/o.jpg", "is_closed": false, "url": "https://www.yelp.com/biz/vietnom-nom-wichita?adjust_creative=vyhy616UjsMTA_hrWyg_5w&utm_campaign=yelp_api_v3&utm_medium=api_v3_business_search&utm_source=vyhy616UjsMTA_hrWyg_5w", "review_count": 69, "categories": [{"alias": "vietnamese", "title": "Vietnamese"}], "rating": 4.0, "coordinates": {"latitude": 37.7086419, "longitude": -97.442541}, "transactions": ["delivery"], "price": "$", "location": {"address1": "8641 W 13th St N", "address2": "Ste 103", "address3": null, "city": "Wichita", "zip_code": "67212", "country": "US", "state": "KS", "display_address": ["8641 W 13th St N", "Ste 103", "Wichita, KS 67212"]}, "phone": "+13162608812", "display_phone": "(316) 260-8812", "distance": 10334.09891592903}, {"id": "PdewO6dbCN_IZaH_eXQ74A", "alias": "bann-thai-wichita", "name": "Bann Thai", "image_url": "https://s3-media3.fl.yelpcdn.com/bphoto/zGQ_r3HZbyb-2d8-s6oQNA/o.jpg", "is_closed": false, "url": "https://www.yelp.com/biz/bann-thai-wichita?adjust_creative=vyhy616UjsMTA_hrWyg_5w&utm_campaign=yelp_api_v3&utm_medium=api_v3_business_search&utm_source=vyhy616UjsMTA_hrWyg_5w", "review_count": 47, "categories": [{"alias": "thai", "title": "Thai"}, {"alias": "noodles", "title": "Noodles"}, {"alias": "salad", "title": "Salad"}], "rating": 4.0, "coordinates": {"latitude": 37.7084035578517, "longitude": -97.3883097066689}, "transactions": ["delivery"], "price": "$", "location": {"address1": "3811 W 13th St N", "address2": "", "address3": "", "city": "Wichita", "zip_code": "67212", "country": "US", "state": "KS", "display_address": ["3811 W 13th St N", "Wichita, KS 67212"]}, "phone": "+13166652402", "display_phone": "(316) 665-2402", "distance": 5762.261523013201}, {"id": "S5uRRytEV8tF3tRWZJkfvg", "alias": "oh-yeah-china-bistro-wichita", "name": "Oh Yeah! China Bistro", "image_url": "https://s3-media4.fl.yelpcdn.com/bphoto/_KnvQANNuPKu31kDIizBRA/o.jpg", "is_closed": false, "url": "https://www.yelp.com/biz/oh-yeah-china-bistro-wichita?adjust_creative=vyhy616UjsMTA_hrWyg_5w&utm_campaign=yelp_api_v3&utm_medium=api_v3_business_search&utm_source=vyhy616UjsMTA_hrWyg_5w", "review_count": 94, "categories": [{"alias": "chinese", "title": "Chinese"}], "rating": 4.0, "coordinates": {"latitude": 37.740166, "longitude": -97.245624}, "transactions": ["delivery", "pickup"], "price": "$$", "location": {"address1": "3101 N Rock Rd", "address2": "Ste 150", "address3": "", "city": "Wichita", "zip_code": "67226", "country": "US", "state": "KS", "display_address": ["3101 N Rock Rd", "Ste 150", "Wichita, KS 67226"]}, "phone": "+13164257700", "display_phone": "(316) 425-7700", "distance": 8945.764944520548}, {"id": "aq9ei26VHz1UsnpZAgceRg", "alias": "tokyo-japanese-cuisine-wichita", "name": "Tokyo Japanese Cuisine", "image_url": "https://s3-media3.fl.yelpcdn.com/bphoto/fjJBEq3XKGGuAHnAYWuyfQ/o.jpg", "is_closed": false, "url": "https://www.yelp.com/biz/tokyo-japanese-cuisine-wichita?adjust_creative=vyhy616UjsMTA_hrWyg_5w&utm_campaign=yelp_api_v3&utm_medium=api_v3_business_search&utm_source=vyhy616UjsMTA_hrWyg_5w", "review_count": 115, "categories": [{"alias": "sushi", "title": "Sushi Bars"}, {"alias": "japanese", "title": "Japanese"}, {"alias": "steak", "title": "Steakhouses"}], "rating": 4.0, "coordinates": {"latitude": 37.6909521169304, "longitude": -97.3890829822687}, "transactions": ["delivery", "pickup"], "price": "$$", "location": {"address1": "446 N West St", "address2": "", "address3": "", "city": "Wichita", "zip_code": "67203", "country": "US", "state": "KS", "display_address": ["446 N West St", "Wichita, KS 67203"]}, "phone": "+13166367777", "display_phone": "(316) 636-7777", "distance": 5506.140873110782}, {"id": "3BAvMqom_xmTNY4tcNZXiA", "alias": "malaysia-cafe-wichita", "name": "Malaysia Cafe", "image_url": "https://s3-media3.fl.yelpcdn.com/bphoto/T5Ny4nj__2LvAnXQ2w2tTA/o.jpg", "is_closed": false, "url": "https://www.yelp.com/biz/malaysia-cafe-wichita?adjust_creative=vyhy616UjsMTA_hrWyg_5w&utm_campaign=yelp_api_v3&utm_medium=api_v3_business_search&utm_source=vyhy616UjsMTA_hrWyg_5w", "review_count": 46, "categories": [{"alias": "malaysian", "title": "Malaysian"}], "rating": 3.5, "coordinates": {"latitude": 37.72256, "longitude": -97.24676}, "transactions": ["delivery", "pickup"], "price": "$", "location": {"address1": "7777 E 21st St N", "address2": "Ste 150", "address3": "", "city": "Wichita", "zip_code": "67206", "country": "US", "state": "KS", "display_address": ["7777 E 21st St N", "Ste 150", "Wichita, KS 67206"]}, "phone": "+13166858838", "display_phone": "(316) 685-8838", "distance": 7828.741751278088}, {"id": "FQ60oJe0V9uAPVcmuEDWoA", "alias": "wok-hey-wichita", "name": "Wok Hey", "image_url": "https://s3-media4.fl.yelpcdn.com/bphoto/nfW22i3vkiFcrB-UrcW_2Q/o.jpg", "is_closed": false, "url": "https://www.yelp.com/biz/wok-hey-wichita?adjust_creative=vyhy616UjsMTA_hrWyg_5w&utm_campaign=yelp_api_v3&utm_medium=api_v3_business_search&utm_source=vyhy616UjsMTA_hrWyg_5w", "review_count": 39, "categories": [{"alias": "chinese", "title": "Chinese"}], "rating": 4.0, "coordinates": {"latitude": 37.709213, "longitude": -97.46212}, "transactions": ["delivery", "pickup"], "price": "$", "location": {"address1": "1444 N Maize Rd", "address2": "Ste 600", "address3": "", "city": "Wichita", "zip_code": "67212", "country": "US", "state": "KS", "display_address": ["1444 N Maize Rd", "Ste 600", "Wichita, KS 67212"]}, "phone": "+13167213838", "display_phone": "(316) 721-3838", "distance": 12097.199999737662}, {"id": "9MkBOZ4W6fw5mhFDDRk9AQ", "alias": "sakura-japanese-cuisine-wichita-2", "name": "Sakura Japanese Cuisine", "image_url": "https://s3-media2.fl.yelpcdn.com/bphoto/veH3BRoGzG_6K7ipZ5z5IA/o.jpg", "is_closed": false, "url": "https://www.yelp.com/biz/sakura-japanese-cuisine-wichita-2?adjust_creative=vyhy616UjsMTA_hrWyg_5w&utm_campaign=yelp_api_v3&utm_medium=api_v3_business_search&utm_source=vyhy616UjsMTA_hrWyg_5w", "review_count": 90, "categories": [{"alias": "teppanyaki", "title": "Teppanyaki"}, {"alias": "sushi", "title": "Sushi Bars"}, {"alias": "ramen", "title": "Ramen"}], "rating": 4.0, "coordinates": {"latitude": 37.6836815, "longitude": -97.3472672}, "transactions": ["delivery"], "price": "$$", "location": {"address1": "605 W Douglas Ave", "address2": "", "address3": "", "city": "Wichita", "zip_code": "67213", "country": "US", "state": "KS", "display_address": ["605 W Douglas Ave", "Wichita, KS 67213"]}, "phone": "+13169272898", "display_phone": "(316) 927-2898", "distance": 1996.7487372624532}, {"id": "CxFOPzMKZgRWPtzH_-hDOw", "alias": "rice-and-roll-by-xing-xing-wichita", "name": "Rice & Roll by Xing Xing", "image_url": "https://s3-media3.fl.yelpcdn.com/bphoto/rcYlHelrYAkkYM0itdtPug/o.jpg", "is_closed": false, "url": "https://www.yelp.com/biz/rice-and-roll-by-xing-xing-wichita?adjust_creative=vyhy616UjsMTA_hrWyg_5w&utm_campaign=yelp_api_v3&utm_medium=api_v3_business_search&utm_source=vyhy616UjsMTA_hrWyg_5w", "review_count": 30, "categories": [{"alias": "asianfusion", "title": "Asian Fusion"}], "rating": 4.0, "coordinates": {"latitude": 37.6502636, "longitude": -97.3140538}, "transactions": ["delivery"], "location": {"address1": "1920 E Pawnee", "address2": null, "address3": "", "city": "Wichita", "zip_code": "67217", "country": "US", "state": "KS", "display_address": ["1920 E Pawnee", "Wichita, KS 67217"]}, "phone": "+13167895060", "display_phone": "(316) 789-5060", "distance": 4687.2722308385655}, {"id": "fz-bTrblaJbqk-m8kw0GFw", "alias": "hana-cafe-wichita-2", "name": "Hana Cafe", "image_url": "https://s3-media2.fl.yelpcdn.com/bphoto/Atbfw_0gtSQNAfwvPoQAlQ/o.jpg", "is_closed": false, "url": "https://www.yelp.com/biz/hana-cafe-wichita-2?adjust_creative=vyhy616UjsMTA_hrWyg_5w&utm_campaign=yelp_api_v3&utm_medium=api_v3_business_search&utm_source=vyhy616UjsMTA_hrWyg_5w", "review_count": 72, "categories": [{"alias": "japanese", "title": "Japanese"}, {"alias": "sushi", "title": "Sushi Bars"}, {"alias": "korean", "title": "Korean"}], "rating": 3.5, "coordinates": {"latitude": 37.6905363306373, "longitude": -97.3295909494985}, "transactions": ["delivery"], "price": "$$", "location": {"address1": "325 N Mead St", "address2": "", "address3": "", "city": "Wichita", "zip_code": "67202", "country": "US", "state": "KS", "display_address": ["325 N Mead St", "Wichita, KS 67202"]}, "phone": "+13162673766", "display_phone": "(316) 267-3766", "distance": 282.6297439250154}, {"id": "IbjM1gSzaxsWpMpzo-vo8Q", "alias": "red-8-chinese-wichita", "name": "Red 8 Chinese", "image_url": "https://s3-media1.fl.yelpcdn.com/bphoto/8RVDqkWoMzzrwI9nUcKj4w/o.jpg", "is_closed": false, "url": "https://www.yelp.com/biz/red-8-chinese-wichita?adjust_creative=vyhy616UjsMTA_hrWyg_5w&utm_campaign=yelp_api_v3&utm_medium=api_v3_business_search&utm_source=vyhy616UjsMTA_hrWyg_5w", "review_count": 52, "categories": [{"alias": "chinese", "title": "Chinese"}, {"alias": "asianfusion", "title": "Asian Fusion"}, {"alias": "gelato", "title": "Gelato"}], "rating": 4.0, "coordinates": {"latitude": 37.6826953025429, "longitude": -97.2085554642208}, "transactions": ["delivery"], "price": "$", "location": {"address1": "303 S Greenwich Rd", "address2": "", "address3": "", "city": "Wichita", "zip_code": "67207", "country": "US", "state": "KS", "display_address": ["303 S Greenwich Rd", "Wichita, KS 67207"]}, "phone": "+13166181818", "display_phone": "(316) 618-1818", "distance": 10422.725621919495}, {"id": "PZFVAQbXtCiTuiwsZgihCA", "alias": "toms-lotus-garden-wichita", "name": "Tom's Lotus Garden", "image_url": "https://s3-media1.fl.yelpcdn.com/bphoto/ZKk9XgGVsSjO7AF7T_gIAg/o.jpg", "is_closed": false, "url": "https://www.yelp.com/biz/toms-lotus-garden-wichita?adjust_creative=vyhy616UjsMTA_hrWyg_5w&utm_campaign=yelp_api_v3&utm_medium=api_v3_business_search&utm_source=vyhy616UjsMTA_hrWyg_5w", "review_count": 24, "categories": [{"alias": "dimsum", "title": "Dim Sum"}], "rating": 3.0, "coordinates": {"latitude": 37.6766, "longitude": -97.33519}, "transactions": ["delivery"], "price": "$$", "location": {"address1": "822 S Broadway St", "address2": "", "address3": "", "city": "Wichita", "zip_code": "67211", "country": "US", "state": "KS", "display_address": ["822 S Broadway St", "Wichita, KS 67211"]}, "phone": "+13162638888", "display_phone": "(316) 263-8888", "distance": 1803.4613689961366}, {"id": "fmPWTchwq3HyBKzU6AzMRA", "alias": "blue-fin-sake-bar-wichita", "name": "Blue Fin Sake Bar", "image_url": "https://s3-media4.fl.yelpcdn.com/bphoto/noS0iRPBMDmqAgYLelJC1A/o.jpg", "is_closed": false, "url": "https://www.yelp.com/biz/blue-fin-sake-bar-wichita?adjust_creative=vyhy616UjsMTA_hrWyg_5w&utm_campaign=yelp_api_v3&utm_medium=api_v3_business_search&utm_source=vyhy616UjsMTA_hrWyg_5w", "review_count": 118, "categories": [{"alias": "sushi", "title": "Sushi Bars"}, {"alias": "asianfusion", "title": "Asian Fusion"}, {"alias": "japanese", "title": "Japanese"}], "rating": 4.0, "coordinates": {"latitude": 37.68942, "longitude": -97.3272}, "transactions": ["delivery"], "price": "$$", "location": {"address1": "255 N Washington Ave", "address2": null, "address3": "", "city": "Wichita", "zip_code": "67202", "country": "US", "state": "KS", "display_address": ["255 N Washington Ave", "Wichita, KS 67202"]}, "phone": "+13162954219", "display_phone": "(316) 295-4219", "distance": 181.67495605418372}, {"id": "o3zrpOE9yubY3L4B_arHhg", "alias": "yokohama-ramen-joint-wichita", "name": "Yokohama Ramen Joint", "image_url": "https://s3-media3.fl.yelpcdn.com/bphoto/XFiVVhUbUIslyxp5wQLwdw/o.jpg", "is_closed": false, "url": "https://www.yelp.com/biz/yokohama-ramen-joint-wichita?adjust_creative=vyhy616UjsMTA_hrWyg_5w&utm_campaign=yelp_api_v3&utm_medium=api_v3_business_search&utm_source=vyhy616UjsMTA_hrWyg_5w", "review_count": 190, "categories": [{"alias": "ramen", "title": "Ramen"}], "rating": 4.0, "coordinates": {"latitude": 37.683959237683, "longitude": -97.3474967964336}, "transactions": ["delivery"], "price": "$$", "location": {"address1": "613 W Douglas Ave", "address2": "Ste A", "address3": null, "city": "Wichita", "zip_code": "67213", "country": "US", "state": "KS", "display_address": ["613 W Douglas Ave", "Ste A", "Wichita, KS 67213"]}, "phone": "+13162607031", "display_phone": "(316) 260-7031", "distance": 2019.444150332196}, {"id": "d3r-C4Gz6J2DfFmvLxuy6Q", "alias": "emperors-japanese-grill-wichita-2", "name": "Emperor's Japanese Grill", "image_url": "https://s3-media3.fl.yelpcdn.com/bphoto/bZa3-URM9pnmUbRG5DB8Kg/o.jpg", "is_closed": false, "url": "https://www.yelp.com/biz/emperors-japanese-grill-wichita-2?adjust_creative=vyhy616UjsMTA_hrWyg_5w&utm_campaign=yelp_api_v3&utm_medium=api_v3_business_search&utm_source=vyhy616UjsMTA_hrWyg_5w", "review_count": 45, "categories": [{"alias": "japanese", "title": "Japanese"}], "rating": 3.5, "coordinates": {"latitude": 37.69445, "longitude": -97.20628}, "transactions": ["delivery"], "price": "$", "location": {"address1": "11330 E Central", "address2": "Ste 100", "address3": "", "city": "Wichita", "zip_code": "67206", "country": "US", "state": "KS", "display_address": ["11330 E Central", "Ste 100", "Wichita, KS 67206"]}, "phone": "+13166822600", "display_phone": "(316) 682-2600", "distance": 10589.596134010004}, {"id": "wxNHSKEXZBuKYIyfP4Tktg", "alias": "nippon-japanese-grill-maize", "name": "Nippon Japanese Grill", "image_url": "https://s3-media4.fl.yelpcdn.com/bphoto/JWdP3zzQqdD0f2sNJy5edg/o.jpg", "is_closed": false, "url": "https://www.yelp.com/biz/nippon-japanese-grill-maize?adjust_creative=vyhy616UjsMTA_hrWyg_5w&utm_campaign=yelp_api_v3&utm_medium=api_v3_business_search&utm_source=vyhy616UjsMTA_hrWyg_5w", "review_count": 47, "categories": [{"alias": "japanese", "title": "Japanese"}], "rating": 4.0, "coordinates": {"latitude": 37.7570478, "longitude": -97.4638102}, "transactions": ["delivery"], "price": "$", "location": {"address1": "4041 N Maize Rd", "address2": "", "address3": "", "city": "Maize", "zip_code": "67101", "country": "US", "state": "KS", "display_address": ["4041 N Maize Rd", "Maize, KS 67101"]}, "phone": "+13167221022", "display_phone": "(316) 722-1022", "distance": 14119.492346119283}, {"id": "2kL01cAWL-f9EPpabXgrMw", "alias": "pho-ong-8-wichita-2", "name": "Pho Ong 8", "image_url": "https://s3-media3.fl.yelpcdn.com/bphoto/hdsinVMISopHbeqzpHmKuA/o.jpg", "is_closed": false, "url": "https://www.yelp.com/biz/pho-ong-8-wichita-2?adjust_creative=vyhy616UjsMTA_hrWyg_5w&utm_campaign=yelp_api_v3&utm_medium=api_v3_business_search&utm_source=vyhy616UjsMTA_hrWyg_5w", "review_count": 55, "categories": [{"alias": "vietnamese", "title": "Vietnamese"}, {"alias": "noodles", "title": "Noodles"}], "rating": 4.5, "coordinates": {"latitude": 37.663974, "longitude": -97.291532}, "transactions": [], "price": "$", "location": {"address1": "3801 E Harry St", "address2": "Ste 101", "address3": "", "city": "Wichita", "zip_code": "67218", "country": "US", "state": "KS", "display_address": ["3801 E Harry St", "Ste 101", "Wichita, KS 67218"]}, "phone": "+13166132373", "display_phone": "(316) 613-2373", "distance": 4318.3360088646405}, {"id": "Mef_3ScJu-sctHXV2MCmGw", "alias": "sapporo-japanese-sushi-restaurant-wichita", "name": "Sapporo Japanese Sushi Restaurant", "image_url": "https://s3-media4.fl.yelpcdn.com/bphoto/7G9LQPS3IMkUsejWs4nrhg/o.jpg", "is_closed": false, "url": "https://www.yelp.com/biz/sapporo-japanese-sushi-restaurant-wichita?adjust_creative=vyhy616UjsMTA_hrWyg_5w&utm_campaign=yelp_api_v3&utm_medium=api_v3_business_search&utm_source=vyhy616UjsMTA_hrWyg_5w", "review_count": 154, "categories": [{"alias": "japanese", "title": "Japanese"}, {"alias": "sushi", "title": "Sushi Bars"}, {"alias": "thai", "title": "Thai"}], "rating": 4.5, "coordinates": {"latitude": 37.6800805833278, "longitude": -97.2435723245144}, "transactions": ["delivery"], "price": "$$", "location": {"address1": "8065 E Peachtree Ln", "address2": "", "address3": null, "city": "Wichita", "zip_code": "67207", "country": "US", "state": "KS", "display_address": ["8065 E Peachtree Ln", "Wichita, KS 67207"]}, "phone": "+13169778808", "display_phone": "(316) 977-8808", "distance": 7402.946556468133}, {"id": "vYlPXiEHp-V2q0TkXuNbKg", "alias": "pho-cuong-wichita", "name": "Pho Cuong", "image_url": "https://s3-media2.fl.yelpcdn.com/bphoto/TRfSs1L6nElR9Qhe67JbcA/o.jpg", "is_closed": false, "url": "https://www.yelp.com/biz/pho-cuong-wichita?adjust_creative=vyhy616UjsMTA_hrWyg_5w&utm_campaign=yelp_api_v3&utm_medium=api_v3_business_search&utm_source=vyhy616UjsMTA_hrWyg_5w", "review_count": 69, "categories": [{"alias": "vietnamese", "title": "Vietnamese"}], "rating": 4.0, "coordinates": {"latitude": 37.75171, "longitude": -97.25954}, "transactions": ["delivery"], "price": "$", "location": {"address1": "6605 E 37th St N", "address2": "", "address3": "", "city": "Wichita", "zip_code": "67226", "country": "US", "state": "KS", "display_address": ["6605 E 37th St N", "Wichita, KS 67226"]}, "phone": "+13162608218", "display_phone": "(316) 260-8218", "distance": 8922.062969334902}, {"id": "LChQI6i1tYUSoN-X2n1xRg", "alias": "ninza-sushi-bar-wichita", "name": "Ninza Sushi Bar", "image_url": "https://s3-media4.fl.yelpcdn.com/bphoto/CuBcOWFaIsDdzjbeS6ZIIQ/o.jpg", "is_closed": false, "url": "https://www.yelp.com/biz/ninza-sushi-bar-wichita?adjust_creative=vyhy616UjsMTA_hrWyg_5w&utm_campaign=yelp_api_v3&utm_medium=api_v3_business_search&utm_source=vyhy616UjsMTA_hrWyg_5w", "review_count": 123, "categories": [{"alias": "japanese", "title": "Japanese"}, {"alias": "sushi", "title": "Sushi Bars"}], "rating": 4.5, "coordinates": {"latitude": 37.7101029, "longitude": -97.440704}, "transactions": ["delivery"], "price": "$$", "location": {"address1": "8428 W 13th St N", "address2": "Ste 100", "address3": "", "city": "Wichita", "zip_code": "67212", "country": "US", "state": "KS", "display_address": ["8428 W 13th St N", "Ste 100", "Wichita, KS 67212"]}, "phone": "+13165585111", "display_phone": "(316) 558-5111", "distance": 10263.314708433909}, {"id": "-_s2FboADuIhEbaAh57nkg", "alias": "journey-east-asia-grill-wichita", "name": "Journey East Asia Grill", "image_url": "https://s3-media3.fl.yelpcdn.com/bphoto/4F6xuYCzX0sEy5zQBGysUw/o.jpg", "is_closed": false, "url": "https://www.yelp.com/biz/journey-east-asia-grill-wichita?adjust_creative=vyhy616UjsMTA_hrWyg_5w&utm_campaign=yelp_api_v3&utm_medium=api_v3_business_search&utm_source=vyhy616UjsMTA_hrWyg_5w", "review_count": 11, "categories": [{"alias": "asianfusion", "title": "Asian Fusion"}, {"alias": "bubbletea", "title": "Bubble Tea"}, {"alias": "juicebars", "title": "Juice Bars & Smoothies"}], "rating": 4.5, "coordinates": {"latitude": 37.721678, "longitude": -97.283712}, "transactions": ["delivery", "pickup"], "location": {"address1": "4510 E19 St N", "address2": "Ste 108", "address3": null, "city": "WICHITA", "zip_code": "67208", "country": "US", "state": "KS", "display_address": ["4510 E19 St N", "Ste 108", "WICHITA, KS 67208"]}, "phone": "+13169782828", "display_phone": "(316) 978-2828", "distance": 5061.882928888312}, {"id": "NJqzBDVgWy1BDFmmLzaEuQ", "alias": "emperors-japanese-grill-west-wichita", "name": "Emperor's Japanese Grill West", "image_url": "https://s3-media3.fl.yelpcdn.com/bphoto/8Jh2-gKXCL2vfEaJbGFSsA/o.jpg", "is_closed": false, "url": "https://www.yelp.com/biz/emperors-japanese-grill-west-wichita?adjust_creative=vyhy616UjsMTA_hrWyg_5w&utm_campaign=yelp_api_v3&utm_medium=api_v3_business_search&utm_source=vyhy616UjsMTA_hrWyg_5w", "review_count": 24, "categories": [{"alias": "japanese", "title": "Japanese"}], "rating": 3.5, "coordinates": {"latitude": 37.7249399, "longitude": -97.42569}, "transactions": ["delivery"], "price": "$", "location": {"address1": "2250 N Ridge Rd", "address2": "Ste 200", "address3": null, "city": "Wichita", "zip_code": "67205", "country": "US", "state": "KS", "display_address": ["2250 N Ridge Rd", "Ste 200", "Wichita, KS 67205"]}, "phone": "+13167227900", "display_phone": "(316) 722-7900", "distance": 9489.995684704823}], "total": 94, "region": {"center": {"longitude": -97.32650756835938, "latitude": 37.691248500086644}}}