{"businesses": [{"id": "WAE6bvQZdogSp27oXFePug", "alias": "gogi-1055-korean-bbq-louisville", "name": "GOGi 1055 Korean BBQ", "image_url": "https://s3-media2.fl.yelpcdn.com/bphoto/NCK6La39a2Yxo1ek8EUPkQ/o.jpg", "is_closed": false, "url": "https://www.yelp.com/biz/gogi-1055-korean-bbq-louisville?adjust_creative=vyhy616UjsMTA_hrWyg_5w&utm_campaign=yelp_api_v3&utm_medium=api_v3_business_search&utm_source=vyhy616UjsMTA_hrWyg_5w", "review_count": 56, "categories": [{"alias": "korean", "title": "Korean"}, {"alias": "bbq", "title": "Barbeque"}, {"alias": "cocktailbars", "title": "Cocktail Bars"}], "rating": 4.5, "coordinates": {"latitude": 38.239238, "longitude": -85.722162}, "transactions": [], "location": {"address1": "1055 Bardstown Rd", "address2": null, "address3": "", "city": "Louisville", "zip_code": "40204", "country": "US", "state": "KY", "display_address": ["1055 Bardstown Rd", "Louisville, KY 40204"]}, "phone": "+15027474644", "display_phone": "(502) 747-4644", "distance": 4253.158044735463}, {"id": "JQR94Qeh7Ge2cYgvVtNq3g", "alias": "district-6-louisville", "name": "District 6", "image_url": "https://s3-media4.fl.yelpcdn.com/bphoto/pm6RozYxDdM1csZAN0i0hQ/o.jpg", "is_closed": false, "url": "https://www.yelp.com/biz/district-6-louisville?adjust_creative=vyhy616UjsMTA_hrWyg_5w&utm_campaign=yelp_api_v3&utm_medium=api_v3_business_search&utm_source=vyhy616UjsMTA_hrWyg_5w", "review_count": 175, "categories": [{"alias": "gastropubs", "title": "Gastropubs"}, {"alias": "vietnamese", "title": "Vietnamese"}], "rating": 4.5, "coordinates": {"latitude": 38.252528, "longitude": -85.653736}, "transactions": ["pickup", "delivery"], "price": "$$", "location": {"address1": "3930 Shelbyville Rd", "address2": null, "address3": "", "city": "Louisville", "zip_code": "40207", "country": "US", "state": "KY", "display_address": ["3930 Shelbyville Rd", "Louisville, KY 40207"]}, "phone": "+15028735561", "display_phone": "(502) 873-5561", "distance": 3663.012685755459}, {"id": "jTzrazuoo2bVApDaLRVdKw", "alias": "the-joy-luck-louisville", "name": "The Joy Luck", "image_url": "https://s3-media2.fl.yelpcdn.com/bphoto/MnWcjfG-LXgKHoSYka7Sgg/o.jpg", "is_closed": false, "url": "https://www.yelp.com/biz/the-joy-luck-louisville?adjust_creative=vyhy616UjsMTA_hrWyg_5w&utm_campaign=yelp_api_v3&utm_medium=api_v3_business_search&utm_source=vyhy616UjsMTA_hrWyg_5w", "review_count": 351, "categories": [{"alias": "taiwanese", "title": "Taiwanese"}, {"alias": "cocktailbars", "title": "Cocktail Bars"}, {"alias": "chinese", "title": "Chinese"}], "rating": 4.0, "coordinates": {"latitude": 38.235929, "longitude": -85.71571}, "transactions": ["pickup", "delivery"], "price": "$$", "location": {"address1": "1285 Bardstown Rd", "address2": "", "address3": "", "city": "Louisville", "zip_code": "40204", "country": "US", "state": "KY", "display_address": ["1285 Bardstown Rd", "Louisville, KY 40204"]}, "phone": "+15022383070", "display_phone": "(502) 238-3070", "distance": 3600.7525183777075}, {"id": "1Jo4IsnbVv8qEa2ByBs39g", "alias": "oriental-house-louisville", "name": "Oriental House", "image_url": "https://s3-media2.fl.yelpcdn.com/bphoto/VPkg2hgx0FortH3TpJ8YMQ/o.jpg", "is_closed": false, "url": "https://www.yelp.com/biz/oriental-house-louisville?adjust_creative=vyhy616UjsMTA_hrWyg_5w&utm_campaign=yelp_api_v3&utm_medium=api_v3_business_search&utm_source=vyhy616UjsMTA_hrWyg_5w", "review_count": 240, "categories": [{"alias": "chinese", "title": "Chinese"}], "rating": 4.0, "coordinates": {"latitude": 38.25069, "longitude": -85.63507}, "transactions": ["delivery"], "price": "$$", "location": {"address1": "4302 Shelbyville Rd", "address2": "", "address3": "", "city": "Louisville", "zip_code": "40207", "country": "US", "state": "KY", "display_address": ["4302 Shelbyville Rd", "Louisville, KY 40207"]}, "phone": "+15028971017", "display_phone": "(502) 897-1017", "distance": 4594.089302832943}, {"id": "ErY_UnC3seOOAy2LJe6Wow", "alias": "vietnam-kitchen-louisville", "name": "Vietnam Kitchen", "image_url": "https://s3-media4.fl.yelpcdn.com/bphoto/J-nqIBJ7ceHdYo5CV4CGtw/o.jpg", "is_closed": false, "url": "https://www.yelp.com/biz/vietnam-kitchen-louisville?adjust_creative=vyhy616UjsMTA_hrWyg_5w&utm_campaign=yelp_api_v3&utm_medium=api_v3_business_search&utm_source=vyhy616UjsMTA_hrWyg_5w", "review_count": 494, "categories": [{"alias": "vietnamese", "title": "Vietnamese"}, {"alias": "vegetarian", "title": "Vegetarian"}], "rating": 4.5, "coordinates": {"latitude": 38.1704758774329, "longitude": -85.770054406197}, "transactions": ["delivery"], "price": "$$", "location": {"address1": "5339 Mitscher Ave", "address2": "", "address3": "", "city": "Louisville", "zip_code": "40214", "country": "US", "state": "KY", "display_address": ["5339 Mitscher Ave", "Louisville, KY 40214"]}, "phone": "+15023637535", "display_phone": "(502) 363-7535", "distance": 10155.119247879065}, {"id": "YpPvG4tYrw95P2J1COxO_Q", "alias": "sarang-louisville", "name": "Sarang", "image_url": "https://s3-media2.fl.yelpcdn.com/bphoto/x_E5yPZ5jTXvKvGuH55CZA/o.jpg", "is_closed": false, "url": "https://www.yelp.com/biz/sarang-louisville?adjust_creative=vyhy616UjsMTA_hrWyg_5w&utm_campaign=yelp_api_v3&utm_medium=api_v3_business_search&utm_source=vyhy616UjsMTA_hrWyg_5w", "review_count": 177, "categories": [{"alias": "korean", "title": "Korean"}, {"alias": "bubbletea", "title": "Bubble Tea"}, {"alias": "chicken_wings", "title": "Chicken Wings"}], "rating": 4.5, "coordinates": {"latitude": 38.2317207328535, "longitude": -85.7094144067373}, "transactions": ["delivery"], "price": "$", "location": {"address1": "1908 Eastern Pkwy", "address2": "", "address3": "", "city": "Louisville", "zip_code": "40204", "country": "US", "state": "KY", "display_address": ["1908 Eastern Pkwy", "Louisville, KY 40204"]}, "phone": "+15027094282", "display_phone": "(502) 709-4282", "distance": 2936.9218527694316}, {"id": "Nbi4of7YYzgfQJddNcXgsg", "alias": "lees-korean-restaurant-louisville-2", "name": "Lee's Korean Restaurant", "image_url": "https://s3-media4.fl.yelpcdn.com/bphoto/otQP5cA-7vZY3Spgt1gGMA/o.jpg", "is_closed": false, "url": "https://www.yelp.com/biz/lees-korean-restaurant-louisville-2?adjust_creative=vyhy616UjsMTA_hrWyg_5w&utm_campaign=yelp_api_v3&utm_medium=api_v3_business_search&utm_source=vyhy616UjsMTA_hrWyg_5w", "review_count": 127, "categories": [{"alias": "korean", "title": "Korean"}], "rating": 4.5, "coordinates": {"latitude": 38.2029724121094, "longitude": -85.6836166381836}, "transactions": ["delivery"], "price": "$$", "location": {"address1": "1941 Bishop Ln", "address2": "Ste 107", "address3": "", "city": "Louisville", "zip_code": "40218", "country": "US", "state": "KY", "display_address": ["1941 Bishop Ln", "Ste 107", "Louisville, KY 40218"]}, "phone": "+15024569714", "display_phone": "(502) 456-9714", "distance": 2518.2844009337023}, {"id": "u8UjdNWvk96knvahkuZiSQ", "alias": "chikn-and-mi-louisville-2", "name": "Chik'n & Mi", "image_url": "https://s3-media1.fl.yelpcdn.com/bphoto/ZzB_bZdewIQhECHl-BIsyA/o.jpg", "is_closed": false, "url": "https://www.yelp.com/biz/chikn-and-mi-louisville-2?adjust_creative=vyhy616UjsMTA_hrWyg_5w&utm_campaign=yelp_api_v3&utm_medium=api_v3_business_search&utm_source=vyhy616UjsMTA_hrWyg_5w", "review_count": 299, "categories": [{"alias": "chickenshop", "title": "Chicken Shop"}, {"alias": "ramen", "title": "Ramen"}, {"alias": "bars", "title": "Bars"}], "rating": 4.5, "coordinates": {"latitude": 38.260367, "longitude": -85.717014}, "transactions": ["delivery"], "price": "$$", "location": {"address1": "1765 Mellwood Ave", "address2": "", "address3": null, "city": "Louisville", "zip_code": "40206", "country": "US", "state": "KY", "display_address": ["1765 Mellwood Ave", "Louisville, KY 40206"]}, "phone": "+15028905731", "display_phone": "(502) 890-5731", "distance": 5263.2904211997275}, {"id": "FefTRjIBogC243gcqdRHjg", "alias": "pho-ba-luu-louisville", "name": "Pho Ba Luu", "image_url": "https://s3-media3.fl.yelpcdn.com/bphoto/ofLF4xeo6o5z2zLvrzswKA/o.jpg", "is_closed": false, "url": "https://www.yelp.com/biz/pho-ba-luu-louisville?adjust_creative=vyhy616UjsMTA_hrWyg_5w&utm_campaign=yelp_api_v3&utm_medium=api_v3_business_search&utm_source=vyhy616UjsMTA_hrWyg_5w", "review_count": 266, "categories": [{"alias": "vietnamese", "title": "Vietnamese"}, {"alias": "soup", "title": "Soup"}, {"alias": "sandwiches", "title": "Sandwiches"}], "rating": 4.0, "coordinates": {"latitude": 38.25426, "longitude": -85.73285}, "transactions": ["pickup", "delivery"], "price": "$$", "location": {"address1": "1019 E Main St", "address2": "", "address3": null, "city": "Louisville", "zip_code": "40206", "country": "US", "state": "KY", "display_address": ["1019 E Main St", "Louisville, KY 40206"]}, "phone": "+15023846822", "display_phone": "(502) 384-6822", "distance": 5867.4442178899135}, {"id": "irKb304_kp6mFPp_SwfCJA", "alias": "aji-sushi-and-asian-cuisine-louisville-2", "name": "Aji Sushi and Asian Cuisine", "image_url": "https://s3-media3.fl.yelpcdn.com/bphoto/kBJvIuJCt4M933pN5wH61A/o.jpg", "is_closed": false, "url": "https://www.yelp.com/biz/aji-sushi-and-asian-cuisine-louisville-2?adjust_creative=vyhy616UjsMTA_hrWyg_5w&utm_campaign=yelp_api_v3&utm_medium=api_v3_business_search&utm_source=vyhy616UjsMTA_hrWyg_5w", "review_count": 72, "categories": [{"alias": "sushi", "title": "Sushi Bars"}, {"alias": "asianfusion", "title": "Asian Fusion"}, {"alias": "bubbletea", "title": "Bubble Tea"}], "rating": 4.5, "coordinates": {"latitude": 38.1385054238008, "longitude": -85.656331}, "transactions": ["pickup", "delivery"], "price": "$$", "location": {"address1": "5610 Outer Lp", "address2": null, "address3": null, "city": "Louisville", "zip_code": "40219", "country": "US", "state": "KY", "display_address": ["5610 Outer Lp", "Louisville, KY 40219"]}, "phone": "+15026181781", "display_phone": "(502) 618-1781", "distance": 9790.053531232103}, {"id": "F0qp_8jP3MNHG6uOAdzouQ", "alias": "koreana-ii-louisville", "name": "Koreana II", "image_url": "https://s3-media2.fl.yelpcdn.com/bphoto/ozNRyJDfoO-GqMmrnyHsLA/o.jpg", "is_closed": false, "url": "https://www.yelp.com/biz/koreana-ii-louisville?adjust_creative=vyhy616UjsMTA_hrWyg_5w&utm_campaign=yelp_api_v3&utm_medium=api_v3_business_search&utm_source=vyhy616UjsMTA_hrWyg_5w", "review_count": 141, "categories": [{"alias": "korean", "title": "Korean"}], "rating": 4.0, "coordinates": {"latitude": 38.176464, "longitude": -85.712177}, "transactions": ["pickup", "delivery"], "price": "$$", "location": {"address1": "5009 Preston Hwy", "address2": null, "address3": "", "city": "Louisville", "zip_code": "40213", "country": "US", "state": "KY", "display_address": ["5009 Preston Hwy", "Louisville, KY 40213"]}, "phone": "+15029689686", "display_phone": "(502) 968-9686", "distance": 6221.462081398799}, {"id": "fbRAxDjUMknGNiKwHpf5XA", "alias": "dragon-kings-daughter-louisville", "name": "Dragon King's Daughter", "image_url": "https://s3-media1.fl.yelpcdn.com/bphoto/IlIXUiYGDQmC_nAWFrzTdg/o.jpg", "is_closed": false, "url": "https://www.yelp.com/biz/dragon-kings-daughter-louisville?adjust_creative=vyhy616UjsMTA_hrWyg_5w&utm_campaign=yelp_api_v3&utm_medium=api_v3_business_search&utm_source=vyhy616UjsMTA_hrWyg_5w", "review_count": 470, "categories": [{"alias": "asianfusion", "title": "Asian Fusion"}, {"alias": "gluten_free", "title": "Gluten-Free"}, {"alias": "sushi", "title": "Sushi Bars"}], "rating": 4.0, "coordinates": {"latitude": 38.23771, "longitude": -85.72013}, "transactions": ["delivery"], "price": "$$", "location": {"address1": "1126 Bardstown Rd", "address2": "", "address3": "", "city": "Louisville", "zip_code": "40204", "country": "US", "state": "KY", "display_address": ["1126 Bardstown Rd", "Louisville, KY 40204"]}, "phone": "+15022081626", "display_phone": "(502) 208-1626", "distance": 4031.181206898848}, {"id": "Ezl-fV7ucmNZVfIGBe4zTA", "alias": "ramen-house-louisville-4", "name": "Ramen House", "image_url": "https://s3-media4.fl.yelpcdn.com/bphoto/4SLW6MZKltfNoirQMijVaw/o.jpg", "is_closed": false, "url": "https://www.yelp.com/biz/ramen-house-louisville-4?adjust_creative=vyhy616UjsMTA_hrWyg_5w&utm_campaign=yelp_api_v3&utm_medium=api_v3_business_search&utm_source=vyhy616UjsMTA_hrWyg_5w", "review_count": 263, "categories": [{"alias": "ramen", "title": "Ramen"}, {"alias": "soup", "title": "Soup"}, {"alias": "noodles", "title": "Noodles"}], "rating": 4.5, "coordinates": {"latitude": 38.234346, "longitude": -85.718141}, "transactions": ["delivery"], "price": "$$", "location": {"address1": "1250 Bardstown Rd", "address2": "Ste 17A", "address3": "", "city": "Louisville", "zip_code": "40204", "country": "US", "state": "KY", "display_address": ["1250 Bardstown Rd", "Ste 17A", "Louisville, KY 40204"]}, "phone": "+15027095218", "display_phone": "(502) 709-5218", "distance": 3749.198762043011}, {"id": "JqsxxfQxvhK6-dqpM4FIrA", "alias": "thai-noodles-louisville", "name": "Thai Noodles", "image_url": "https://s3-media2.fl.yelpcdn.com/bphoto/OCee_1gnhB9QAPRcL8lxDA/o.jpg", "is_closed": false, "url": "https://www.yelp.com/biz/thai-noodles-louisville?adjust_creative=vyhy616UjsMTA_hrWyg_5w&utm_campaign=yelp_api_v3&utm_medium=api_v3_business_search&utm_source=vyhy616UjsMTA_hrWyg_5w", "review_count": 196, "categories": [{"alias": "thai", "title": "Thai"}, {"alias": "noodles", "title": "Noodles"}], "rating": 4.5, "coordinates": {"latitude": 38.16606, "longitude": -85.70428}, "transactions": ["delivery"], "price": "$", "location": {"address1": "5800 Preston Hwy", "address2": "", "address3": "", "city": "Louisville", "zip_code": "40219", "country": "US", "state": "KY", "display_address": ["5800 Preston Hwy", "Louisville, KY 40219"]}, "phone": "+15029619018", "display_phone": "(502) 961-9018", "distance": 6984.992559286903}, {"id": "gho415k3_6X8Uk609OhnYQ", "alias": "kums-cafe-and-arirang-louisville", "name": "Kum's Cafe & Arirang", "image_url": "https://s3-media4.fl.yelpcdn.com/bphoto/YumEzPmwrko8dBWZJr49RA/o.jpg", "is_closed": false, "url": "https://www.yelp.com/biz/kums-cafe-and-arirang-louisville?adjust_creative=vyhy616UjsMTA_hrWyg_5w&utm_campaign=yelp_api_v3&utm_medium=api_v3_business_search&utm_source=vyhy616UjsMTA_hrWyg_5w", "review_count": 86, "categories": [{"alias": "korean", "title": "Korean"}, {"alias": "hotdogs", "title": "Fast Food"}, {"alias": "cajun", "title": "Cajun/Creole"}], "rating": 4.5, "coordinates": {"latitude": 38.18505, "longitude": -85.70061}, "transactions": ["delivery"], "price": "$$", "location": {"address1": "4544 Poplar Level Rd", "address2": "", "address3": "", "city": "Louisville", "zip_code": "40213", "country": "US", "state": "KY", "display_address": ["4544 Poplar Level Rd", "Louisville, KY 40213"]}, "phone": "+15029646336", "display_phone": "(502) 964-6336", "distance": 4907.782326373526}, {"id": "cJALLtsD_rpOX_scLHZqrA", "alias": "jasmine-asian-bistro-louisville", "name": "Jasmine Asian Bistro", "image_url": "https://s3-media2.fl.yelpcdn.com/bphoto/uqlB51XXjqHiONV-EvuBsA/o.jpg", "is_closed": false, "url": "https://www.yelp.com/biz/jasmine-asian-bistro-louisville?adjust_creative=vyhy616UjsMTA_hrWyg_5w&utm_campaign=yelp_api_v3&utm_medium=api_v3_business_search&utm_source=vyhy616UjsMTA_hrWyg_5w", "review_count": 40, "categories": [{"alias": "chinese", "title": "Chinese"}], "rating": 4.0, "coordinates": {"latitude": 38.287136, "longitude": -85.629304}, "transactions": ["pickup", "delivery"], "location": {"address1": "2420 Lime Kiln Ln", "address2": null, "address3": null, "city": "Louisville", "zip_code": "40222", "country": "US", "state": "KY", "display_address": ["2420 Lime Kiln Ln", "Louisville, KY 40222"]}, "phone": "+15026183000", "display_phone": "(502) 618-3000", "distance": 8053.827005826704}, {"id": "H-fbrqyst5BUXONfImr_JQ", "alias": "asian-wok-louisville", "name": "Asian Wok", "image_url": "https://s3-media3.fl.yelpcdn.com/bphoto/kzrXjeEqi6n1l8Fx5a5_Og/o.jpg", "is_closed": false, "url": "https://www.yelp.com/biz/asian-wok-louisville?adjust_creative=vyhy616UjsMTA_hrWyg_5w&utm_campaign=yelp_api_v3&utm_medium=api_v3_business_search&utm_source=vyhy616UjsMTA_hrWyg_5w", "review_count": 75, "categories": [{"alias": "sushi", "title": "Sushi Bars"}, {"alias": "chinese", "title": "Chinese"}, {"alias": "asianfusion", "title": "Asian Fusion"}], "rating": 4.0, "coordinates": {"latitude": 38.2535474489544, "longitude": -85.704318598571}, "transactions": ["delivery"], "price": "$", "location": {"address1": "2235 Frankfort Ave", "address2": "", "address3": "", "city": "Louisville", "zip_code": "40206", "country": "US", "state": "KY", "display_address": ["2235 Frankfort Ave", "Louisville, KY 40206"]}, "phone": "+15028223385", "display_phone": "(502) 822-3385", "distance": 3972.414089194302}, {"id": "JUx9jgKtR7XPnqQHZgjvaQ", "alias": "ginza-asian-bistro-louisville", "name": "Ginza Asian Bistro", "image_url": "https://s3-media4.fl.yelpcdn.com/bphoto/Iv8_MzAh6zWPHQid-pg_ow/o.jpg", "is_closed": false, "url": "https://www.yelp.com/biz/ginza-asian-bistro-louisville?adjust_creative=vyhy616UjsMTA_hrWyg_5w&utm_campaign=yelp_api_v3&utm_medium=api_v3_business_search&utm_source=vyhy616UjsMTA_hrWyg_5w", "review_count": 122, "categories": [{"alias": "asianfusion", "title": "Asian Fusion"}, {"alias": "sushi", "title": "Sushi Bars"}], "rating": 4.0, "coordinates": {"latitude": 38.2459351067371, "longitude": -85.5756639122625}, "transactions": ["delivery"], "price": "$$", "location": {"address1": "9420 Shelbyville Rd", "address2": "", "address3": "", "city": "Louisville", "zip_code": "40222", "country": "US", "state": "KY", "display_address": ["9420 Shelbyville Rd", "Louisville, KY 40222"]}, "phone": "+15027498878", "display_phone": "(502) 749-8878", "distance": 9140.058370288403}, {"id": "gHUIMXMUsUghagT_wvehTw", "alias": "lemongrass-cafe-and-market-louisville", "name": "Lemongrass Cafe and Market", "image_url": "https://s3-media3.fl.yelpcdn.com/bphoto/T8XxhBtuq9bAzEKH52fmZw/o.jpg", "is_closed": false, "url": "https://www.yelp.com/biz/lemongrass-cafe-and-market-louisville?adjust_creative=vyhy616UjsMTA_hrWyg_5w&utm_campaign=yelp_api_v3&utm_medium=api_v3_business_search&utm_source=vyhy616UjsMTA_hrWyg_5w", "review_count": 64, "categories": [{"alias": "thai", "title": "Thai"}, {"alias": "chinese", "title": "Chinese"}, {"alias": "vietnamese", "title": "Vietnamese"}], "rating": 4.0, "coordinates": {"latitude": 38.2208407457878, "longitude": -85.626489892602}, "transactions": ["pickup", "delivery"], "price": "$", "location": {"address1": "2956 Richland Ave", "address2": "", "address3": null, "city": "Louisville", "zip_code": "40220", "country": "US", "state": "KY", "display_address": ["2956 Richland Ave", "Louisville, KY 40220"]}, "phone": "+15026147448", "display_phone": "(502) 614-7448", "distance": 4426.725896293719}, {"id": "zcOIGyFy3HLG-JbCcx8b4g", "alias": "eatz-vietnamese-restaurant-louisville", "name": "Eatz Vietnamese Restaurant", "image_url": "https://s3-media1.fl.yelpcdn.com/bphoto/YdbHZvzmSvDmi3axa5KJDg/o.jpg", "is_closed": false, "url": "https://www.yelp.com/biz/eatz-vietnamese-restaurant-louisville?adjust_creative=vyhy616UjsMTA_hrWyg_5w&utm_campaign=yelp_api_v3&utm_medium=api_v3_business_search&utm_source=vyhy616UjsMTA_hrWyg_5w", "review_count": 104, "categories": [{"alias": "vietnamese", "title": "Vietnamese"}], "rating": 4.5, "coordinates": {"latitude": 38.237155385450926, "longitude": -85.7290231002681}, "transactions": ["pickup", "delivery"], "price": "$$", "location": {"address1": "974 Barret Ave", "address2": "", "address3": null, "city": "Louisville", "zip_code": "40204", "country": "US", "state": "KY", "display_address": ["974 Barret Ave", "Louisville, KY 40204"]}, "phone": "+15027854450", "display_phone": "(502) 785-4450", "distance": 4749.075011032167}, {"id": "AQ8jufGcowKsTA71NRAUNQ", "alias": "pokehana-louisville", "name": "PokeHana", "image_url": "https://s3-media4.fl.yelpcdn.com/bphoto/Qg0uUCpX6wUCbhTVDlblGw/o.jpg", "is_closed": false, "url": "https://www.yelp.com/biz/pokehana-louisville?adjust_creative=vyhy616UjsMTA_hrWyg_5w&utm_campaign=yelp_api_v3&utm_medium=api_v3_business_search&utm_source=vyhy616UjsMTA_hrWyg_5w", "review_count": 107, "categories": [{"alias": "asianfusion", "title": "Asian Fusion"}, {"alias": "poke", "title": "Poke"}], "rating": 4.5, "coordinates": {"latitude": 38.255216, "longitude": -85.758158}, "transactions": ["delivery"], "price": "$", "location": {"address1": "436 W Market St", "address2": "", "address3": null, "city": "Louisville", "zip_code": "40202", "country": "US", "state": "KY", "display_address": ["436 W Market St", "Louisville, KY 40202"]}, "phone": "+15029967994", "display_phone": "(502) 996-7994", "distance": 7850.8006450920075}, {"id": "LgvVjr1EwC4q6Ai0q_J3mg", "alias": "oriental-cafe-louisville", "name": "Oriental Cafe", "image_url": "https://s3-media2.fl.yelpcdn.com/bphoto/Fco7t0JDbhyipT9L244LRA/o.jpg", "is_closed": false, "url": "https://www.yelp.com/biz/oriental-cafe-louisville?adjust_creative=vyhy616UjsMTA_hrWyg_5w&utm_campaign=yelp_api_v3&utm_medium=api_v3_business_search&utm_source=vyhy616UjsMTA_hrWyg_5w", "review_count": 92, "categories": [{"alias": "japanese", "title": "Japanese"}, {"alias": "chinese", "title": "Chinese"}, {"alias": "soup", "title": "Soup"}], "rating": 4.0, "coordinates": {"latitude": 38.2191199, "longitude": -85.6261899}, "transactions": ["pickup", "delivery"], "price": "$", "location": {"address1": "3360 Hikes Ln", "address2": "", "address3": "", "city": "Louisville", "zip_code": "40220", "country": "US", "state": "KY", "display_address": ["3360 Hikes Ln", "Louisville, KY 40220"]}, "phone": "+15024510077", "display_phone": "(502) 451-0077", "distance": 4476.248309245584}, {"id": "lJsvOhmQQiQQHYVzTBm5Ow", "alias": "the-joy-luck-louisville-2", "name": "The Joy Luck", "image_url": "https://s3-media2.fl.yelpcdn.com/bphoto/okxvnRGldFQXJD-QD-xM-A/o.jpg", "is_closed": false, "url": "https://www.yelp.com/biz/the-joy-luck-louisville-2?adjust_creative=vyhy616UjsMTA_hrWyg_5w&utm_campaign=yelp_api_v3&utm_medium=api_v3_business_search&utm_source=vyhy616UjsMTA_hrWyg_5w", "review_count": 135, "categories": [{"alias": "taiwanese", "title": "Taiwanese"}, {"alias": "cocktailbars", "title": "Cocktail Bars"}, {"alias": "chinese", "title": "Chinese"}], "rating": 4.0, "coordinates": {"latitude": 38.31232, "longitude": -85.56955}, "transactions": ["pickup", "delivery"], "price": "$$", "location": {"address1": "9850 Von Allmen Ct", "address2": "Ste 101", "address3": "", "city": "Louisville", "zip_code": "40241", "country": "US", "state": "KY", "display_address": ["9850 Von Allmen Ct", "Ste 101", "Louisville, KY 40241"]}, "phone": "+15026181601", "display_phone": "(502) 618-1601", "distance": 13510.31939224579}, {"id": "R-fYzx3NB324p3PqqeFxsA", "alias": "simply-thai-louisville", "name": "Simply Thai", "image_url": "https://s3-media4.fl.yelpcdn.com/bphoto/pHZKhAfH1-emfa0IlQL4SQ/o.jpg", "is_closed": false, "url": "https://www.yelp.com/biz/simply-thai-louisville?adjust_creative=vyhy616UjsMTA_hrWyg_5w&utm_campaign=yelp_api_v3&utm_medium=api_v3_business_search&utm_source=vyhy616UjsMTA_hrWyg_5w", "review_count": 412, "categories": [{"alias": "thai", "title": "Thai"}, {"alias": "sushi", "title": "Sushi Bars"}, {"alias": "chinese", "title": "Chinese"}], "rating": 4.0, "coordinates": {"latitude": 38.25207, "longitude": -85.65702}, "transactions": ["pickup", "delivery"], "price": "$$", "location": {"address1": "323 Wallace Ave", "address2": "", "address3": "", "city": "Louisville", "zip_code": "40207", "country": "US", "state": "KY", "display_address": ["323 Wallace Ave", "Louisville, KY 40207"]}, "phone": "+15028999670", "display_phone": "(502) 899-9670", "distance": 3427.371522205949}, {"id": "5rey1IvYK2GR_ph0k_qBiw", "alias": "la-que-louisville", "name": "La Que", "image_url": "https://s3-media1.fl.yelpcdn.com/bphoto/lELeiFNdVI7PxXAUCl_4TQ/o.jpg", "is_closed": false, "url": "https://www.yelp.com/biz/la-que-louisville?adjust_creative=vyhy616UjsMTA_hrWyg_5w&utm_campaign=yelp_api_v3&utm_medium=api_v3_business_search&utm_source=vyhy616UjsMTA_hrWyg_5w", "review_count": 207, "categories": [{"alias": "asianfusion", "title": "Asian Fusion"}, {"alias": "vietnamese", "title": "Vietnamese"}, {"alias": "thai", "title": "Thai"}], "rating": 3.5, "coordinates": {"latitude": 38.24002, "longitude": -85.72342}, "transactions": ["pickup", "delivery"], "price": "$", "location": {"address1": "1019 Bardstown Rd", "address2": "", "address3": "", "city": "Louisville", "zip_code": "40204", "country": "US", "state": "KY", "display_address": ["1019 Bardstown Rd", "Louisville, KY 40204"]}, "phone": "+15022383981", "display_phone": "(502) 238-3981", "distance": 4393.408446934879}, {"id": "nLBJB09UuNwecxb3_1-iwg", "alias": "cafe-thuy-van-louisville", "name": "Cafe Thuy Van", "image_url": "https://s3-media3.fl.yelpcdn.com/bphoto/LddTu1nm8X2Pf6Wc2BA5OA/o.jpg", "is_closed": false, "url": "https://www.yelp.com/biz/cafe-thuy-van-louisville?adjust_creative=vyhy616UjsMTA_hrWyg_5w&utm_campaign=yelp_api_v3&utm_medium=api_v3_business_search&utm_source=vyhy616UjsMTA_hrWyg_5w", "review_count": 76, "categories": [{"alias": "vietnamese", "title": "Vietnamese"}], "rating": 4.0, "coordinates": {"latitude": 38.1493301, "longitude": -85.7617264}, "transactions": ["delivery"], "price": "$", "location": {"address1": "5600 National Tpke", "address2": "", "address3": "", "city": "Louisville", "zip_code": "40214", "country": "US", "state": "KY", "display_address": ["5600 National Tpke", "Louisville, KY 40214"]}, "phone": "+15023666959", "display_phone": "(502) 366-6959", "distance": 11226.335597940102}, {"id": "qY9OjwZvw7bBrf_jNSySZA", "alias": "pho-cafe-louisville", "name": "Pho Cafe", "image_url": "https://s3-media2.fl.yelpcdn.com/bphoto/lBeuyneuAGnS7Ap2A-61QA/o.jpg", "is_closed": false, "url": "https://www.yelp.com/biz/pho-cafe-louisville?adjust_creative=vyhy616UjsMTA_hrWyg_5w&utm_campaign=yelp_api_v3&utm_medium=api_v3_business_search&utm_source=vyhy616UjsMTA_hrWyg_5w", "review_count": 161, "categories": [{"alias": "vietnamese", "title": "Vietnamese"}], "rating": 4.5, "coordinates": {"latitude": 38.22977, "longitude": -85.70371}, "transactions": ["pickup", "delivery"], "price": "$$", "location": {"address1": "1704 Bardstown Rd", "address2": "", "address3": null, "city": "Louisville", "zip_code": "40205", "country": "US", "state": "KY", "display_address": ["1704 Bardstown Rd", "Louisville, KY 40205"]}, "phone": "+15029162129", "display_phone": "(502) 916-2129", "distance": 2393.6815969943336}, {"id": "CBMKrRLK46mfeFPM4F4ieg", "alias": "bento-asian-kitchen-sushi-louisville", "name": "Bento Asian Kitchen + Sushi", "image_url": "https://s3-media3.fl.yelpcdn.com/bphoto/8lzr2F375R9JDWsFy9cdqw/o.jpg", "is_closed": false, "url": "https://www.yelp.com/biz/bento-asian-kitchen-sushi-louisville?adjust_creative=vyhy616UjsMTA_hrWyg_5w&utm_campaign=yelp_api_v3&utm_medium=api_v3_business_search&utm_source=vyhy616UjsMTA_hrWyg_5w", "review_count": 96, "categories": [{"alias": "japanese", "title": "Japanese"}, {"alias": "bubbletea", "title": "Bubble Tea"}, {"alias": "sushi", "title": "Sushi Bars"}], "rating": 4.0, "coordinates": {"latitude": 38.244189, "longitude": -85.510789}, "transactions": ["delivery"], "price": "$$", "location": {"address1": "12951 Shelbyville Rd", "address2": "Ste 114", "address3": null, "city": "Louisville", "zip_code": "40243", "country": "US", "state": "KY", "display_address": ["12951 Shelbyville Rd", "Ste 114", "Louisville, KY 40243"]}, "phone": "+15028221202", "display_phone": "(502) 822-1202", "distance": 14661.834227901934}, {"id": "uIseS-mYSBVD7_6SYkt-Qg", "alias": "time-4-thai-louisville", "name": "Time 4 Thai", "image_url": "https://s3-media2.fl.yelpcdn.com/bphoto/q8wZNwToLQ3necnWMiMEmg/o.jpg", "is_closed": false, "url": "https://www.yelp.com/biz/time-4-thai-louisville?adjust_creative=vyhy616UjsMTA_hrWyg_5w&utm_campaign=yelp_api_v3&utm_medium=api_v3_business_search&utm_source=vyhy616UjsMTA_hrWyg_5w", "review_count": 210, "categories": [{"alias": "thai", "title": "Thai"}, {"alias": "asianfusion", "title": "Asian Fusion"}], "rating": 4.0, "coordinates": {"latitude": 38.2534232717543, "longitude": -85.7057147032217}, "transactions": ["delivery"], "price": "$$", "location": {"address1": "2206 Frankfort Ave", "address2": "", "address3": null, "city": "Louisville", "zip_code": "40206", "country": "US", "state": "KY", "display_address": ["2206 Frankfort Ave", "Louisville, KY 40206"]}, "phone": "+15029967899", "display_phone": "(502) 996-7899", "distance": 4036.339261849486}, {"id": "Qry-UkgqUfQ8N4a4rXEGhg", "alias": "namnam-cafe-st-matthews", "name": "Namnam Cafe", "image_url": "https://s3-media2.fl.yelpcdn.com/bphoto/dAa7n0vfKCGw6mRDRAIHsw/o.jpg", "is_closed": false, "url": "https://www.yelp.com/biz/namnam-cafe-st-matthews?adjust_creative=vyhy616UjsMTA_hrWyg_5w&utm_campaign=yelp_api_v3&utm_medium=api_v3_business_search&utm_source=vyhy616UjsMTA_hrWyg_5w", "review_count": 241, "categories": [{"alias": "vietnamese", "title": "Vietnamese"}, {"alias": "soup", "title": "Soup"}, {"alias": "bubbletea", "title": "Bubble Tea"}], "rating": 4.0, "coordinates": {"latitude": 38.25186, "longitude": -85.65759}, "transactions": ["delivery"], "price": "$$", "location": {"address1": "318 Wallace Ave", "address2": "", "address3": "", "city": "St. Matthews", "zip_code": "40207", "country": "US", "state": "KY", "display_address": ["318 Wallace Ave", "St. Matthews, KY 40207"]}, "phone": "+15028918859", "display_phone": "(502) 891-8859", "distance": 3424.130537382593}, {"id": "u6pUX0LQ2w2JufXfSjhi3A", "alias": "asian-pot-louisville", "name": "Asian Pot", "image_url": "https://s3-media3.fl.yelpcdn.com/bphoto/OepzEiISIeWbogh2bk3XjA/o.jpg", "is_closed": false, "url": "https://www.yelp.com/biz/asian-pot-louisville?adjust_creative=vyhy616UjsMTA_hrWyg_5w&utm_campaign=yelp_api_v3&utm_medium=api_v3_business_search&utm_source=vyhy616UjsMTA_hrWyg_5w", "review_count": 60, "categories": [{"alias": "chinese", "title": "Chinese"}, {"alias": "japanese", "title": "Japanese"}, {"alias": "sushi", "title": "Sushi Bars"}], "rating": 4.0, "coordinates": {"latitude": 38.15622, "longitude": -85.71311}, "transactions": ["delivery"], "price": "$", "location": {"address1": "2801 Packerland Way", "address2": "Ste 100", "address3": "", "city": "Louisville", "zip_code": "40213", "country": "US", "state": "KY", "display_address": ["2801 Packerland Way", "Ste 100", "Louisville, KY 40213"]}, "phone": "+15029696888", "display_phone": "(502) 969-6888", "distance": 8279.348947793087}, {"id": "DDMaR8LnZSTtsnJFZycOnA", "alias": "roots-louisville", "name": "Roots", "image_url": "https://s3-media4.fl.yelpcdn.com/bphoto/5JVDSRvY27CVkuhOVvMHIA/o.jpg", "is_closed": false, "url": "https://www.yelp.com/biz/roots-louisville?adjust_creative=vyhy616UjsMTA_hrWyg_5w&utm_campaign=yelp_api_v3&utm_medium=api_v3_business_search&utm_source=vyhy616UjsMTA_hrWyg_5w", "review_count": 161, "categories": [{"alias": "vegetarian", "title": "Vegetarian"}, {"alias": "asianfusion", "title": "Asian Fusion"}, {"alias": "soup", "title": "Soup"}], "rating": 4.0, "coordinates": {"latitude": 38.2365, "longitude": -85.7179}, "transactions": ["delivery"], "price": "$$", "location": {"address1": "1216 Bardstown Rd", "address2": "", "address3": "", "city": "Louisville", "zip_code": "40204", "country": "US", "state": "KY", "display_address": ["1216 Bardstown Rd", "Louisville, KY 40204"]}, "phone": "+15024526688", "display_phone": "(502) 452-6688", "distance": 3802.4818383436814}, {"id": "4CZMwVJtunHs2O9sS5apuQ", "alias": "sala-thai-louisville", "name": "Sala Thai", "image_url": "https://s3-media2.fl.yelpcdn.com/bphoto/hgFFoMs0KgqU_DjLqJ1Fvw/o.jpg", "is_closed": false, "url": "https://www.yelp.com/biz/sala-thai-louisville?adjust_creative=vyhy616UjsMTA_hrWyg_5w&utm_campaign=yelp_api_v3&utm_medium=api_v3_business_search&utm_source=vyhy616UjsMTA_hrWyg_5w", "review_count": 123, "categories": [{"alias": "thai", "title": "Thai"}], "rating": 4.5, "coordinates": {"latitude": 38.1295906691067, "longitude": -85.5754035575027}, "transactions": ["delivery"], "price": "$", "location": {"address1": "8125 Bardstown Rd", "address2": "", "address3": "", "city": "Louisville", "zip_code": "40291", "country": "US", "state": "KY", "display_address": ["8125 Bardstown Rd", "Louisville, KY 40291"]}, "phone": "+15022311992", "display_phone": "(502) 231-1992", "distance": 13833.297010289181}, {"id": "_kp19jY4iJIz3AZZ1WKwTw", "alias": "masa-japanese-bistro-and-sushi-bar-louisville", "name": "Masa Japanese Bistro & Sushi Bar", "image_url": "https://s3-media3.fl.yelpcdn.com/bphoto/f5MnlalIhIGDrZH9TpZbeQ/o.jpg", "is_closed": false, "url": "https://www.yelp.com/biz/masa-japanese-bistro-and-sushi-bar-louisville?adjust_creative=vyhy616UjsMTA_hrWyg_5w&utm_campaign=yelp_api_v3&utm_medium=api_v3_business_search&utm_source=vyhy616UjsMTA_hrWyg_5w", "review_count": 79, "categories": [{"alias": "asianfusion", "title": "Asian Fusion"}, {"alias": "japanese", "title": "Japanese"}, {"alias": "sushi", "title": "Sushi Bars"}], "rating": 3.5, "coordinates": {"latitude": 38.245765566267366, "longitude": -85.52686729999999}, "transactions": ["restaurant_reservation", "pickup", "delivery"], "price": "$$", "location": {"address1": "12336 Shelbyville Rd", "address2": "", "address3": "", "city": "Louisville", "zip_code": "40243", "country": "US", "state": "KY", "display_address": ["12336 Shelbyville Rd", "Louisville, KY 40243"]}, "phone": "+15024095040", "display_phone": "(502) 409-5040", "distance": 13303.041668836495}, {"id": "B5HgZG4IyGIs-5iQ3TNX_A", "alias": "hiko-a-mon-louisville", "name": "hiko-A-mon", "image_url": "https://s3-media3.fl.yelpcdn.com/bphoto/CcogzTVKAk6R6-oE8pG7QA/o.jpg", "is_closed": false, "url": "https://www.yelp.com/biz/hiko-a-mon-louisville?adjust_creative=vyhy616UjsMTA_hrWyg_5w&utm_campaign=yelp_api_v3&utm_medium=api_v3_business_search&utm_source=vyhy616UjsMTA_hrWyg_5w", "review_count": 223, "categories": [{"alias": "japanese", "title": "Japanese"}, {"alias": "sushi", "title": "Sushi Bars"}], "rating": 4.0, "coordinates": {"latitude": 38.2673844391225, "longitude": -85.6119289865082}, "transactions": ["pickup", "delivery"], "price": "$$", "location": {"address1": "1115 Herr Ln", "address2": "Ste 130", "address3": "", "city": "Louisville", "zip_code": "40222", "country": "US", "state": "KY", "display_address": ["1115 Herr Ln", "Ste 130", "Louisville, KY 40222"]}, "phone": "+15023651651", "display_phone": "(502) 365-1651", "distance": 7370.587678905669}, {"id": "FHIWfM48Sr6MozTZFg25yg", "alias": "august-moon-chinese-bistro-louisville", "name": "August Moon Chinese Bistro", "image_url": "https://s3-media3.fl.yelpcdn.com/bphoto/JpwoKp3XxtMwawJdqy1Juw/o.jpg", "is_closed": false, "url": "https://www.yelp.com/biz/august-moon-chinese-bistro-louisville?adjust_creative=vyhy616UjsMTA_hrWyg_5w&utm_campaign=yelp_api_v3&utm_medium=api_v3_business_search&utm_source=vyhy616UjsMTA_hrWyg_5w", "review_count": 111, "categories": [{"alias": "chinese", "title": "Chinese"}], "rating": 3.5, "coordinates": {"latitude": 38.24586, "longitude": -85.70524}, "transactions": ["delivery"], "price": "$$", "location": {"address1": "2269 Lexington Rd", "address2": "", "address3": "", "city": "Louisville", "zip_code": "40206", "country": "US", "state": "KY", "display_address": ["2269 Lexington Rd", "Louisville, KY 40206"]}, "phone": "+15024566569", "display_phone": "(502) 456-6569", "distance": 3387.723946947613}, {"id": "IOZkH9LKdbMZ9cCZDp7mSg", "alias": "jade-palace-chinese-restaurant-louisville-2", "name": "Jade Palace Chinese Restaurant", "image_url": "https://s3-media2.fl.yelpcdn.com/bphoto/0WnjaV_PPS2p1pxiWFn3vw/o.jpg", "is_closed": false, "url": "https://www.yelp.com/biz/jade-palace-chinese-restaurant-louisville-2?adjust_creative=vyhy616UjsMTA_hrWyg_5w&utm_campaign=yelp_api_v3&utm_medium=api_v3_business_search&utm_source=vyhy616UjsMTA_hrWyg_5w", "review_count": 128, "categories": [{"alias": "dimsum", "title": "Dim Sum"}, {"alias": "seafood", "title": "Seafood"}, {"alias": "noodles", "title": "Noodles"}], "rating": 3.5, "coordinates": {"latitude": 38.2673165219398, "longitude": -85.6124310283112}, "transactions": ["pickup", "delivery"], "price": "$$", "location": {"address1": "1109 Herr Ln", "address2": "", "address3": "", "city": "Louisville", "zip_code": "40222", "country": "US", "state": "KY", "display_address": ["1109 Herr Ln", "Louisville, KY 40222"]}, "phone": "+15024259878", "display_phone": "(502) 425-9878", "distance": 7332.062016392647}, {"id": "rAsP3GSXqa907VueIMtVDQ", "alias": "kim-and-bab-new-albany", "name": "Kim & Bab", "image_url": "https://s3-media2.fl.yelpcdn.com/bphoto/uwxtmKlQs8fCVP7hBhG_Kw/o.jpg", "is_closed": false, "url": "https://www.yelp.com/biz/kim-and-bab-new-albany?adjust_creative=vyhy616UjsMTA_hrWyg_5w&utm_campaign=yelp_api_v3&utm_medium=api_v3_business_search&utm_source=vyhy616UjsMTA_hrWyg_5w", "review_count": 86, "categories": [{"alias": "korean", "title": "Korean"}, {"alias": "asianfusion", "title": "Asian Fusion"}], "rating": 4.5, "coordinates": {"latitude": 38.3509741723537, "longitude": -85.7978300750256}, "transactions": ["delivery"], "price": "$$", "location": {"address1": "3012 Charlestown Crossing Way", "address2": null, "address3": "", "city": "New Albany", "zip_code": "47150", "country": "US", "state": "IN", "display_address": ["3012 Charlestown Crossing Way", "New Albany, IN 47150"]}, "phone": "+18127259844", "display_phone": "(812) 725-9844", "distance": 17440.468505937504}, {"id": "v-WY2l3rR_TYeejizH4K-g", "alias": "annies-cafe-louisville-3", "name": "Annie's Cafe", "image_url": "https://s3-media1.fl.yelpcdn.com/bphoto/32eqOsC8Q8cqFUvJwY3VzA/o.jpg", "is_closed": false, "url": "https://www.yelp.com/biz/annies-cafe-louisville-3?adjust_creative=vyhy616UjsMTA_hrWyg_5w&utm_campaign=yelp_api_v3&utm_medium=api_v3_business_search&utm_source=vyhy616UjsMTA_hrWyg_5w", "review_count": 87, "categories": [{"alias": "vietnamese", "title": "Vietnamese"}], "rating": 3.5, "coordinates": {"latitude": 38.18155, "longitude": -85.7671699}, "transactions": ["delivery"], "price": "$", "location": {"address1": "308 W Woodlawn Ave", "address2": "", "address3": "", "city": "Louisville", "zip_code": "40214", "country": "US", "state": "KY", "display_address": ["308 W Woodlawn Ave", "Louisville, KY 40214"]}, "phone": "+15023634847", "display_phone": "(502) 363-4847", "distance": 9265.309692984716}, {"id": "l78sHc7mBEzUHdmV0nPufg", "alias": "wild-ginger-highland-louisville", "name": "Wild Ginger - Highland", "image_url": "https://s3-media1.fl.yelpcdn.com/bphoto/JkJ_tctJ7fEV1WwSx0qjMQ/o.jpg", "is_closed": false, "url": "https://www.yelp.com/biz/wild-ginger-highland-louisville?adjust_creative=vyhy616UjsMTA_hrWyg_5w&utm_campaign=yelp_api_v3&utm_medium=api_v3_business_search&utm_source=vyhy616UjsMTA_hrWyg_5w", "review_count": 144, "categories": [{"alias": "sushi", "title": "Sushi Bars"}], "rating": 3.5, "coordinates": {"latitude": 38.22993, "longitude": -85.70382}, "transactions": ["pickup", "delivery"], "price": "$$", "location": {"address1": "1700 Bardstown Rd", "address2": "", "address3": "", "city": "Louisville", "zip_code": "40205", "country": "US", "state": "KY", "display_address": ["1700 Bardstown Rd", "Louisville, KY 40205"]}, "phone": "+15023849252", "display_phone": "(502) 384-9252", "distance": 2414.234781243236}, {"id": "CQHPBySEMwgquNo8IDvS4g", "alias": "hibachi-buffet-louisville", "name": "Hibachi Buffet", "image_url": "https://s3-media2.fl.yelpcdn.com/bphoto/GomoQVnR55cE9GV_5V6lVw/o.jpg", "is_closed": false, "url": "https://www.yelp.com/biz/hibachi-buffet-louisville?adjust_creative=vyhy616UjsMTA_hrWyg_5w&utm_campaign=yelp_api_v3&utm_medium=api_v3_business_search&utm_source=vyhy616UjsMTA_hrWyg_5w", "review_count": 58, "categories": [{"alias": "buffets", "title": "Buffets"}, {"alias": "asianfusion", "title": "Asian Fusion"}], "rating": 4.0, "coordinates": {"latitude": 38.1565616375109, "longitude": -85.8362275012763}, "transactions": ["pickup", "delivery"], "price": "$$", "location": {"address1": "5372 Dixie Hwy", "address2": "", "address3": "", "city": "Louisville", "zip_code": "40216", "country": "US", "state": "KY", "display_address": ["5372 Dixie Hwy", "Louisville, KY 40216"]}, "phone": "+15024498688", "display_phone": "(502) 449-8688", "distance": 15872.636633103013}, {"id": "vJRWTenGsi_WKuq5Kv7gTQ", "alias": "dixie-oriental-food-and-gifts-market-louisville", "name": "Dixie Oriental Food & Gifts Market", "image_url": "https://s3-media1.fl.yelpcdn.com/bphoto/mt3tYCjyYz8NLU4LMduYmw/o.jpg", "is_closed": false, "url": "https://www.yelp.com/biz/dixie-oriental-food-and-gifts-market-louisville?adjust_creative=vyhy616UjsMTA_hrWyg_5w&utm_campaign=yelp_api_v3&utm_medium=api_v3_business_search&utm_source=vyhy616UjsMTA_hrWyg_5w", "review_count": 18, "categories": [{"alias": "korean", "title": "Korean"}, {"alias": "intlgrocery", "title": "International Grocery"}], "rating": 4.0, "coordinates": {"latitude": 38.19505, "longitude": -85.65333}, "transactions": [], "price": "$", "location": {"address1": "3900 Bardstown Rd", "address2": "", "address3": "", "city": "Louisville", "zip_code": "40218", "country": "US", "state": "KY", "display_address": ["3900 Bardstown Rd", "Louisville, KY 40218"]}, "phone": "+15024731922", "display_phone": "(502) 473-1922", "distance": 3921.314704637627}, {"id": "9wHPyzkvSut9-8pzCGvk5Q", "alias": "rice-bowl-new-albany", "name": "Rice Bowl", "image_url": "https://s3-media3.fl.yelpcdn.com/bphoto/QUmbrbbDUEA-DOw4e8n-vg/o.jpg", "is_closed": false, "url": "https://www.yelp.com/biz/rice-bowl-new-albany?adjust_creative=vyhy616UjsMTA_hrWyg_5w&utm_campaign=yelp_api_v3&utm_medium=api_v3_business_search&utm_source=vyhy616UjsMTA_hrWyg_5w", "review_count": 114, "categories": [{"alias": "korean", "title": "Korean"}, {"alias": "ramen", "title": "Ramen"}, {"alias": "soup", "title": "Soup"}], "rating": 4.5, "coordinates": {"latitude": 38.3241424424476, "longitude": -85.8193916374768}, "transactions": ["pickup", "delivery"], "price": "$$", "location": {"address1": "3114 Grant Line Rd", "address2": "", "address3": null, "city": "New Albany", "zip_code": "47150", "country": "US", "state": "IN", "display_address": ["3114 Grant Line Rd", "New Albany, IN 47150"]}, "phone": "+18125906786", "display_phone": "(812) 590-6786", "distance": 16618.01535121777}, {"id": "QT45I9vwkAwENvilQCYSug", "alias": "kansai-japanese-steakhouse-louisville", "name": "Kansai Japanese Steakhouse", "image_url": "https://s3-media2.fl.yelpcdn.com/bphoto/rV7-wyxlISug2l_zokGBAw/o.jpg", "is_closed": false, "url": "https://www.yelp.com/biz/kansai-japanese-steakhouse-louisville?adjust_creative=vyhy616UjsMTA_hrWyg_5w&utm_campaign=yelp_api_v3&utm_medium=api_v3_business_search&utm_source=vyhy616UjsMTA_hrWyg_5w", "review_count": 111, "categories": [{"alias": "japanese", "title": "Japanese"}, {"alias": "sushi", "title": "Sushi Bars"}, {"alias": "steak", "title": "Steakhouses"}], "rating": 4.0, "coordinates": {"latitude": 38.2205165420951, "longitude": -85.5844376571472}, "transactions": ["delivery"], "price": "$$", "location": {"address1": "1850 S Hurstbourne Pkwy", "address2": "Ste 166", "address3": "", "city": "Louisville", "zip_code": "40220", "country": "US", "state": "KY", "display_address": ["1850 S Hurstbourne Pkwy", "Ste 166", "Louisville, KY 40220"]}, "phone": "+15026181870", "display_phone": "(502) 618-1870", "distance": 8091.123698712888}, {"id": "KWnbxsUQdIo4xPu5CF9EvQ", "alias": "asiana-sushi-louisville", "name": "Asiana Sushi", "image_url": "https://s3-media4.fl.yelpcdn.com/bphoto/IZl0V-aS6q50OZK6HWH5ZQ/o.jpg", "is_closed": false, "url": "https://www.yelp.com/biz/asiana-sushi-louisville?adjust_creative=vyhy616UjsMTA_hrWyg_5w&utm_campaign=yelp_api_v3&utm_medium=api_v3_business_search&utm_source=vyhy616UjsMTA_hrWyg_5w", "review_count": 4, "categories": [{"alias": "asianfusion", "title": "Asian Fusion"}, {"alias": "sushi", "title": "Sushi Bars"}, {"alias": "japanese", "title": "Japanese"}], "rating": 5.0, "coordinates": {"latitude": 38.15291, "longitude": -85.587013}, "transactions": ["pickup", "delivery"], "location": {"address1": "6435 Bardstown Rd", "address2": "", "address3": null, "city": "Louisville", "zip_code": "40291", "country": "US", "state": "KY", "display_address": ["6435 Bardstown Rd", "Louisville, KY 40291"]}, "phone": "+15026147244", "display_phone": "(502) 614-7244", "distance": 11224.89737286754}, {"id": "9LC1bWD0oOdrRi_75cwujQ", "alias": "china-castle-louisville", "name": "China Castle", "image_url": "https://s3-media4.fl.yelpcdn.com/bphoto/dZaK3LICzYK7RcU5Jrs7Ag/o.jpg", "is_closed": false, "url": "https://www.yelp.com/biz/china-castle-louisville?adjust_creative=vyhy616UjsMTA_hrWyg_5w&utm_campaign=yelp_api_v3&utm_medium=api_v3_business_search&utm_source=vyhy616UjsMTA_hrWyg_5w", "review_count": 14, "categories": [{"alias": "chinese", "title": "Chinese"}], "rating": 3.5, "coordinates": {"latitude": 38.1454887, "longitude": -85.7761307}, "transactions": ["delivery"], "location": {"address1": "7420 3rd Street Rd", "address2": "", "address3": "", "city": "Louisville", "zip_code": "40214", "country": "US", "state": "KY", "display_address": ["7420 3rd Street Rd", "Louisville, KY 40214"]}, "phone": "+15023674272", "display_phone": "(502) 367-4272", "distance": 12401.664867385396}, {"id": "qvY2MN2tJvV3_TmFnXdcow", "alias": "heart-and-soy-louisville", "name": "Heart & Soy", "image_url": "https://s3-media2.fl.yelpcdn.com/bphoto/wL1XAIP_lavaQ5t68wBSGg/o.jpg", "is_closed": false, "url": "https://www.yelp.com/biz/heart-and-soy-louisville?adjust_creative=vyhy616UjsMTA_hrWyg_5w&utm_campaign=yelp_api_v3&utm_medium=api_v3_business_search&utm_source=vyhy616UjsMTA_hrWyg_5w", "review_count": 194, "categories": [{"alias": "vegetarian", "title": "Vegetarian"}, {"alias": "vegan", "title": "Vegan"}, {"alias": "panasian", "title": "Pan Asian"}], "rating": 4.5, "coordinates": {"latitude": 38.236376, "longitude": -85.71803}, "transactions": ["delivery"], "price": "$", "location": {"address1": "1216 Bardstown Rd", "address2": "", "address3": "", "city": "Louisville", "zip_code": "40204", "country": "US", "state": "KY", "display_address": ["1216 Bardstown Rd", "Louisville, KY 40204"]}, "phone": "+15024526678", "display_phone": "(502) 452-6678", "distance": 3808.369280539362}, {"id": "cYEJZMDB64u34F2fUO4CdQ", "alias": "pho-phi-louisville", "name": "Pho Phi", "image_url": "https://s3-media3.fl.yelpcdn.com/bphoto/WjAOldG-TA22V_La9M2tvQ/o.jpg", "is_closed": false, "url": "https://www.yelp.com/biz/pho-phi-louisville?adjust_creative=vyhy616UjsMTA_hrWyg_5w&utm_campaign=yelp_api_v3&utm_medium=api_v3_business_search&utm_source=vyhy616UjsMTA_hrWyg_5w", "review_count": 92, "categories": [{"alias": "soup", "title": "Soup"}, {"alias": "vietnamese", "title": "Vietnamese"}], "rating": 4.0, "coordinates": {"latitude": 38.248167, "longitude": -85.629494}, "transactions": ["pickup", "delivery"], "price": "$$", "location": {"address1": "4600 Shelbyville Rd", "address2": "", "address3": null, "city": "Louisville", "zip_code": "40207", "country": "US", "state": "KY", "display_address": ["4600 Shelbyville Rd", "Louisville, KY 40207"]}, "phone": "+15022903019", "display_phone": "(502) 290-3019", "distance": 4871.634636194469}, {"id": "waD7v5hyqJlKfHmvGaPE1A", "alias": "yen-ching-louisville", "name": "Yen Ching", "image_url": "https://s3-media2.fl.yelpcdn.com/bphoto/IVWBMS-ssCYYAxOzph33vA/o.jpg", "is_closed": false, "url": "https://www.yelp.com/biz/yen-ching-louisville?adjust_creative=vyhy616UjsMTA_hrWyg_5w&utm_campaign=yelp_api_v3&utm_medium=api_v3_business_search&utm_source=vyhy616UjsMTA_hrWyg_5w", "review_count": 44, "categories": [{"alias": "chinese", "title": "Chinese"}], "rating": 3.5, "coordinates": {"latitude": 38.220687442656704, "longitude": -85.583740843296}, "transactions": ["pickup", "delivery"], "price": "$", "location": {"address1": "1850 S Hurstbourne Pkwy", "address2": "Ste 124", "address3": "", "city": "Louisville", "zip_code": "40220", "country": "US", "state": "KY", "display_address": ["1850 S Hurstbourne Pkwy", "Ste 124", "Louisville, KY 40220"]}, "phone": "+15024913581", "display_phone": "(502) 491-3581", "distance": 8150.712858205634}, {"id": "ICStAyR3hniE4P93VUoB2w", "alias": "dalats-gateaux-and-cafe-louisville", "name": "DaLat's Gateaux and Cafe", "image_url": "https://s3-media3.fl.yelpcdn.com/bphoto/mi3OcylfmM4fkAEt-cmkBg/o.jpg", "is_closed": false, "url": "https://www.yelp.com/biz/dalats-gateaux-and-cafe-louisville?adjust_creative=vyhy616UjsMTA_hrWyg_5w&utm_campaign=yelp_api_v3&utm_medium=api_v3_business_search&utm_source=vyhy616UjsMTA_hrWyg_5w", "review_count": 47, "categories": [{"alias": "vietnamese", "title": "Vietnamese"}, {"alias": "coffee", "title": "Coffee & Tea"}, {"alias": "bakeries", "title": "Bakeries"}], "rating": 4.0, "coordinates": {"latitude": 38.15674, "longitude": -85.76365}, "transactions": ["delivery"], "price": "$", "location": {"address1": "6915 Southside Dr", "address2": "", "address3": "", "city": "Louisville", "zip_code": "40214", "country": "US", "state": "KY", "display_address": ["6915 Southside Dr", "Louisville, KY 40214"]}, "phone": "+15023689280", "display_phone": "(502) 368-9280", "distance": 10746.465520540956}], "total": 158, "region": {"center": {"longitude": -85.6768798828125, "latitude": 38.22505524218758}}}