{"businesses": [{"id": "3Nbs9f7DxP3siSu1pjLj1w", "alias": "takoi-detroit", "name": "Takoi", "image_url": "https://s3-media1.fl.yelpcdn.com/bphoto/OuI6ac4SRIl5HP4ku1C5Tg/o.jpg", "is_closed": false, "url": "https://www.yelp.com/biz/takoi-detroit?adjust_creative=vyhy616UjsMTA_hrWyg_5w&utm_campaign=yelp_api_v3&utm_medium=api_v3_business_search&utm_source=vyhy616UjsMTA_hrWyg_5w", "review_count": 557, "categories": [{"alias": "thai", "title": "Thai"}, {"alias": "panasian", "title": "Pan Asian"}, {"alias": "cocktailbars", "title": "Cocktail Bars"}], "rating": 4.5, "coordinates": {"latitude": 42.3316432369511, "longitude": -83.0808343566223}, "transactions": ["pickup", "delivery"], "price": "$$", "location": {"address1": "2520 Michigan Ave", "address2": "", "address3": "", "city": "Detroit", "zip_code": "48216", "country": "US", "state": "MI", "display_address": ["2520 Michigan Ave", "Detroit, MI 48216"]}, "phone": "+13138552864", "display_phone": "(313) 855-2864", "distance": 3522.0292933785536}, {"id": "qa70o0JbMVMQJf4fvWiZaw", "alias": "johnny-noodle-king-detroit", "name": "Johnny Noodle King", "image_url": "https://s3-media2.fl.yelpcdn.com/bphoto/cnuNKJ_dlkFV2zi2YDTsEw/o.jpg", "is_closed": false, "url": "https://www.yelp.com/biz/johnny-noodle-king-detroit?adjust_creative=vyhy616UjsMTA_hrWyg_5w&utm_campaign=yelp_api_v3&utm_medium=api_v3_business_search&utm_source=vyhy616UjsMTA_hrWyg_5w", "review_count": 732, "categories": [{"alias": "ramen", "title": "Ramen"}, {"alias": "chinese", "title": "Chinese"}, {"alias": "noodles", "title": "Noodles"}], "rating": 4.0, "coordinates": {"latitude": 42.3188542, "longitude": -83.0743694}, "transactions": ["delivery"], "price": "$$", "location": {"address1": "2601 W Fort", "address2": "", "address3": "", "city": "Detroit", "zip_code": "48216", "country": "US", "state": "MI", "display_address": ["2601 W Fort", "Detroit, MI 48216"]}, "phone": "+13133097946", "display_phone": "(313) 309-7946", "distance": 5032.677558138477}, {"id": "XMieCaQ9NofNrzSl9FsOqg", "alias": "pao-detroit-detroit", "name": "PAO Detroit", "image_url": "https://s3-media1.fl.yelpcdn.com/bphoto/aQrq6VMFFcJ8PeyFHpEaHw/o.jpg", "is_closed": false, "url": "https://www.yelp.com/biz/pao-detroit-detroit?adjust_creative=vyhy616UjsMTA_hrWyg_5w&utm_campaign=yelp_api_v3&utm_medium=api_v3_business_search&utm_source=vyhy616UjsMTA_hrWyg_5w", "review_count": 160, "categories": [{"alias": "asianfusion", "title": "Asian Fusion"}, {"alias": "panasian", "title": "Pan Asian"}], "rating": 4.0, "coordinates": {"latitude": 42.33632, "longitude": -83.053074}, "transactions": ["pickup", "delivery"], "price": "$$", "location": {"address1": "114 West Adams Ave", "address2": "Ste 200", "address3": "", "city": "Detroit", "zip_code": "48226", "country": "US", "state": "MI", "display_address": ["114 West Adams Ave", "Ste 200", "Detroit, MI 48226"]}, "phone": "+13138160000", "display_phone": "(313) 816-0000", "distance": 4257.164592441742}, {"id": "YtWT6_MKURJKEpNKbO-nzg", "alias": "ima-detroit", "name": "ima", "image_url": "https://s3-media2.fl.yelpcdn.com/bphoto/8igmEIU6BJWDS79z94aB2w/o.jpg", "is_closed": false, "url": "https://www.yelp.com/biz/ima-detroit?adjust_creative=vyhy616UjsMTA_hrWyg_5w&utm_campaign=yelp_api_v3&utm_medium=api_v3_business_search&utm_source=vyhy616UjsMTA_hrWyg_5w", "review_count": 479, "categories": [{"alias": "noodles", "title": "Noodles"}, {"alias": "soup", "title": "Soup"}], "rating": 4.5, "coordinates": {"latitude": 42.3311424255371, "longitude": -83.0737609863281}, "transactions": ["delivery"], "price": "$$", "location": {"address1": "2015 Michigan Ave", "address2": "", "address3": null, "city": "Detroit", "zip_code": "48216", "country": "US", "state": "MI", "display_address": ["2015 Michigan Ave", "Detroit, MI 48216"]}, "phone": "+13135025959", "display_phone": "(313) 502-5959", "distance": 3749.5603026604144}, {"id": "cVqtIOgBM7NPuK0IQGloaQ", "alias": "flowers-of-vietnam-detroit-2", "name": "Flowers of Vietnam", "image_url": "https://s3-media3.fl.yelpcdn.com/bphoto/s8AKDUnmtYZwQePBt0vtiw/o.jpg", "is_closed": false, "url": "https://www.yelp.com/biz/flowers-of-vietnam-detroit-2?adjust_creative=vyhy616UjsMTA_hrWyg_5w&utm_campaign=yelp_api_v3&utm_medium=api_v3_business_search&utm_source=vyhy616UjsMTA_hrWyg_5w", "review_count": 202, "categories": [{"alias": "vietnamese", "title": "Vietnamese"}], "rating": 4.0, "coordinates": {"latitude": 42.32025, "longitude": -83.096543}, "transactions": ["pickup", "delivery"], "price": "$$", "location": {"address1": "4440 W Vernor Hwy", "address2": null, "address3": "", "city": "Detroit", "zip_code": "48209", "country": "US", "state": "MI", "display_address": ["4440 W Vernor Hwy", "Detroit, MI 48209"]}, "phone": "+13135542085", "display_phone": "(313) 554-2085", "distance": 4711.219899773416}, {"id": "YzaGq6tIR4pGdc7BGPh78w", "alias": "bangkok-96-street-food-detroit", "name": "Bangkok 96 Street Food", "image_url": "https://s3-media4.fl.yelpcdn.com/bphoto/x9PbohVkQVLq4bcOTn2bcg/o.jpg", "is_closed": false, "url": "https://www.yelp.com/biz/bangkok-96-street-food-detroit?adjust_creative=vyhy616UjsMTA_hrWyg_5w&utm_campaign=yelp_api_v3&utm_medium=api_v3_business_search&utm_source=vyhy616UjsMTA_hrWyg_5w", "review_count": 94, "categories": [{"alias": "asianfusion", "title": "Asian Fusion"}, {"alias": "thai", "title": "Thai"}, {"alias": "foodstands", "title": "Food Stands"}], "rating": 4.5, "coordinates": {"latitude": 42.34422, "longitude": -83.06156}, "transactions": ["pickup", "delivery"], "price": "$", "location": {"address1": "474 Peterboro St", "address2": null, "address3": "", "city": "Detroit", "zip_code": "48201", "country": "US", "state": "MI", "display_address": ["474 Peterboro St", "Detroit, MI 48201"]}, "phone": "+12489340496", "display_phone": "(248) 934-0496", "distance": 3164.2451463510847}, {"id": "y5f0TpePJ-vOxEjzNvQuwA", "alias": "the-peterboro-detroit-2", "name": "The Peterboro", "image_url": "https://s3-media4.fl.yelpcdn.com/bphoto/Sv6vVx0Ho17nVLWYOAIR2A/o.jpg", "is_closed": false, "url": "https://www.yelp.com/biz/the-peterboro-detroit-2?adjust_creative=vyhy616UjsMTA_hrWyg_5w&utm_campaign=yelp_api_v3&utm_medium=api_v3_business_search&utm_source=vyhy616UjsMTA_hrWyg_5w", "review_count": 345, "categories": [{"alias": "chinese", "title": "Chinese"}, {"alias": "cocktailbars", "title": "Cocktail Bars"}], "rating": 3.5, "coordinates": {"latitude": 42.3441819101572, "longitude": -83.0605640262365}, "transactions": ["pickup", "delivery"], "price": "$$", "location": {"address1": "420 Peterboro St", "address2": "", "address3": "", "city": "Detroit", "zip_code": "48201", "country": "US", "state": "MI", "display_address": ["420 Peterboro St", "Detroit, MI 48201"]}, "phone": "+13138331111", "display_phone": "(313) 833-1111", "distance": 3200.5694208840764}, {"id": "YPW37XWMlTZx3y7r80o8rA", "alias": "urban-ramen-detroit-2", "name": "Urban Ramen", "image_url": "https://s3-media4.fl.yelpcdn.com/bphoto/Pu2PQRLlWY5YtRWB_W0NKw/o.jpg", "is_closed": false, "url": "https://www.yelp.com/biz/urban-ramen-detroit-2?adjust_creative=vyhy616UjsMTA_hrWyg_5w&utm_campaign=yelp_api_v3&utm_medium=api_v3_business_search&utm_source=vyhy616UjsMTA_hrWyg_5w", "review_count": 583, "categories": [{"alias": "ramen", "title": "Ramen"}, {"alias": "poke", "title": "Poke"}, {"alias": "noodles", "title": "Noodles"}], "rating": 4.0, "coordinates": {"latitude": 42.351869835986, "longitude": -83.060804657327}, "transactions": ["pickup", "delivery"], "price": "$$", "location": {"address1": "4206 Woodward Ave", "address2": null, "address3": "", "city": "Detroit", "zip_code": "48201", "country": "US", "state": "MI", "display_address": ["4206 Woodward Ave", "Detroit, MI 48201"]}, "phone": "+13132859869", "display_phone": "(313) 285-9869", "distance": 2747.1157491390354}, {"id": "CEEMOAb23oemjDpNEiGStw", "alias": "midtown-shangri-la-detroit", "name": "Midtown Shangri-La", "image_url": "https://s3-media4.fl.yelpcdn.com/bphoto/8o8BT9hkxW69QkBesOvWmA/o.jpg", "is_closed": false, "url": "https://www.yelp.com/biz/midtown-shangri-la-detroit?adjust_creative=vyhy616UjsMTA_hrWyg_5w&utm_campaign=yelp_api_v3&utm_medium=api_v3_business_search&utm_source=vyhy616UjsMTA_hrWyg_5w", "review_count": 261, "categories": [{"alias": "dimsum", "title": "Dim Sum"}, {"alias": "sushi", "title": "Sushi Bars"}], "rating": 3.5, "coordinates": {"latitude": 42.3539857, "longitude": -83.0653095}, "transactions": ["pickup", "delivery"], "price": "$$", "location": {"address1": "4710 Cass Ave", "address2": "", "address3": "", "city": "Detroit", "zip_code": "48201", "country": "US", "state": "MI", "display_address": ["4710 Cass Ave", "Detroit, MI 48201"]}, "phone": "+13139747669", "display_phone": "(313) 974-7669", "distance": 2305.595430115524}, {"id": "ODy5o9SXrnF3svV-6h-P7Q", "alias": "pho-lucky-detroit-detroit", "name": "Pho Lucky - Detroit", "image_url": "https://s3-media3.fl.yelpcdn.com/bphoto/JtboELMf-WXGIDxPDHJOhg/o.jpg", "is_closed": false, "url": "https://www.yelp.com/biz/pho-lucky-detroit-detroit?adjust_creative=vyhy616UjsMTA_hrWyg_5w&utm_campaign=yelp_api_v3&utm_medium=api_v3_business_search&utm_source=vyhy616UjsMTA_hrWyg_5w", "review_count": 234, "categories": [{"alias": "vietnamese", "title": "Vietnamese"}], "rating": 4.0, "coordinates": {"latitude": 42.3444318, "longitude": -83.0560773}, "transactions": ["pickup", "delivery"], "price": "$$", "location": {"address1": "3111 Woodward Ave", "address2": null, "address3": "", "city": "Detroit", "zip_code": "48201", "country": "US", "state": "MI", "display_address": ["3111 Woodward Ave", "Detroit, MI 48201"]}, "phone": "+13133383895", "display_phone": "(313) 338-3895", "distance": 3491.631537921861}, {"id": "NDXjCEmXErMO92ZS8KOlZA", "alias": "kimchi-box-sterling-heights", "name": "Kimchi Box", "image_url": "https://s3-media4.fl.yelpcdn.com/bphoto/lUTzcLxJEcrzKLMObeAnRg/o.jpg", "is_closed": false, "url": "https://www.yelp.com/biz/kimchi-box-sterling-heights?adjust_creative=vyhy616UjsMTA_hrWyg_5w&utm_campaign=yelp_api_v3&utm_medium=api_v3_business_search&utm_source=vyhy616UjsMTA_hrWyg_5w", "review_count": 50, "categories": [{"alias": "korean", "title": "Korean"}, {"alias": "chicken_wings", "title": "Chicken Wings"}, {"alias": "bbq", "title": "Barbeque"}], "rating": 4.5, "coordinates": {"latitude": 42.62611205425076, "longitude": -82.98777410000001}, "transactions": ["pickup", "delivery"], "location": {"address1": "13937 Lakeside Cir", "address2": null, "address3": "", "city": "Sterling Heights", "zip_code": "48313", "country": "US", "state": "MI", "display_address": ["13937 Lakeside Cir", "Sterling Heights, MI 48313"]}, "phone": "+15869916907", "display_phone": "(586) 991-6907", "distance": 30517.734673872466}, {"id": "hiycv628sqdJGgJbIoiy9g", "alias": "go-sy-thai-detroit-3", "name": "Go! Sy Thai", "image_url": "https://s3-media1.fl.yelpcdn.com/bphoto/g1xt0Jkup5D_eFCEOWxQnQ/o.jpg", "is_closed": false, "url": "https://www.yelp.com/biz/go-sy-thai-detroit-3?adjust_creative=vyhy616UjsMTA_hrWyg_5w&utm_campaign=yelp_api_v3&utm_medium=api_v3_business_search&utm_source=vyhy616UjsMTA_hrWyg_5w", "review_count": 329, "categories": [{"alias": "thai", "title": "Thai"}], "rating": 3.5, "coordinates": {"latitude": 42.3515228901568, "longitude": -83.0637845178604}, "transactions": ["pickup", "delivery"], "price": "$", "location": {"address1": "4240 Cass Ave", "address2": "Ste 103", "address3": "", "city": "Detroit", "zip_code": "48201", "country": "US", "state": "MI", "display_address": ["4240 Cass Ave", "Ste 103", "Detroit, MI 48201"]}, "phone": "+13136381467", "display_phone": "(313) 638-1467", "distance": 2541.404815688016}, {"id": "IHJJRx8QWCS-Q7uz25ySvQ", "alias": "got-pho-ferndale", "name": "Got Pho", "image_url": "https://s3-media3.fl.yelpcdn.com/bphoto/AOlaec6MseUtMJQB1_fL_w/o.jpg", "is_closed": false, "url": "https://www.yelp.com/biz/got-pho-ferndale?adjust_creative=vyhy616UjsMTA_hrWyg_5w&utm_campaign=yelp_api_v3&utm_medium=api_v3_business_search&utm_source=vyhy616UjsMTA_hrWyg_5w", "review_count": 33, "categories": [{"alias": "thai", "title": "Thai"}, {"alias": "vietnamese", "title": "Vietnamese"}, {"alias": "asianfusion", "title": "Asian Fusion"}], "rating": 4.0, "coordinates": {"latitude": 42.460826, "longitude": -83.1358961}, "transactions": ["pickup", "delivery"], "location": {"address1": "172 W Nine Mile", "address2": "", "address3": null, "city": "Ferndale", "zip_code": "48220", "country": "US", "state": "MI", "display_address": ["172 W Nine Mile", "Ferndale, MI 48220"]}, "phone": "+12487801164", "display_phone": "(248) 780-1164", "distance": 11547.202030003655}, {"id": "gQgNAWX3iMrH3I-oKO6NNg", "alias": "tjs-shanghai-dumplings-madison-heights", "name": "Tj's Shanghai Dumplings", "image_url": "https://s3-media1.fl.yelpcdn.com/bphoto/uZHa3fbPnLpxJLROXOqmQQ/o.jpg", "is_closed": false, "url": "https://www.yelp.com/biz/tjs-shanghai-dumplings-madison-heights?adjust_creative=vyhy616UjsMTA_hrWyg_5w&utm_campaign=yelp_api_v3&utm_medium=api_v3_business_search&utm_source=vyhy616UjsMTA_hrWyg_5w", "review_count": 29, "categories": [{"alias": "chinese", "title": "Chinese"}], "rating": 5.0, "coordinates": {"latitude": 42.493448, "longitude": -83.1050526153044}, "transactions": [], "location": {"address1": "27312 John R Rd", "address2": "", "address3": null, "city": "Madison Heights", "zip_code": "48071", "country": "US", "state": "MI", "display_address": ["27312 John R Rd", "Madison Heights, MI 48071"]}, "phone": "+12485869588", "display_phone": "(248) 586-9588", "distance": 14615.549796185762}, {"id": "oH0DNTb6gSQHWGKZLi14OA", "alias": "noodle-art-detroit", "name": "Noodle Art", "image_url": "https://s3-media4.fl.yelpcdn.com/bphoto/zBk6oo4JfnTrmvac4k4l7A/o.jpg", "is_closed": false, "url": "https://www.yelp.com/biz/noodle-art-detroit?adjust_creative=vyhy616UjsMTA_hrWyg_5w&utm_campaign=yelp_api_v3&utm_medium=api_v3_business_search&utm_source=vyhy616UjsMTA_hrWyg_5w", "review_count": 88, "categories": [{"alias": "ramen", "title": "Ramen"}, {"alias": "noodles", "title": "Noodles"}], "rating": 4.0, "coordinates": {"latitude": 42.33451, "longitude": -83.04123}, "transactions": ["delivery"], "price": "$$", "location": {"address1": "555 E Lafayette Ave", "address2": null, "address3": "", "city": "Detroit", "zip_code": "48226", "country": "US", "state": "MI", "display_address": ["555 E Lafayette Ave", "Detroit, MI 48226"]}, "phone": "+13133095245", "display_phone": "(313) 309-5245", "distance": 5124.169253696117}, {"id": "9rqmoNhTI5Sd7zI2UYe-mA", "alias": "tai-fai-restaurant-oak-park", "name": "Tai Fai Restaurant", "image_url": "https://s3-media2.fl.yelpcdn.com/bphoto/iIHMPge4bZwvjQhrzAIYcA/o.jpg", "is_closed": false, "url": "https://www.yelp.com/biz/tai-fai-restaurant-oak-park?adjust_creative=vyhy616UjsMTA_hrWyg_5w&utm_campaign=yelp_api_v3&utm_medium=api_v3_business_search&utm_source=vyhy616UjsMTA_hrWyg_5w", "review_count": 421, "categories": [{"alias": "sushi", "title": "Sushi Bars"}, {"alias": "asianfusion", "title": "Asian Fusion"}, {"alias": "catering", "title": "Caterers"}], "rating": 4.0, "coordinates": {"latitude": 42.45988, "longitude": -83.15765}, "transactions": ["pickup", "delivery"], "price": "$", "location": {"address1": "8505 W Nine Mile Rd", "address2": "", "address3": "", "city": "Oak Park", "zip_code": "48237", "country": "US", "state": "MI", "display_address": ["8505 W Nine Mile Rd", "Oak Park, MI 48237"]}, "phone": "+12483369622", "display_phone": "(248) 336-9622", "distance": 12136.84583970361}, {"id": "uoov7S2PH2LYcMYyRHOI5g", "alias": "eros-asian-eatery-windsor-2", "name": "Eros Asian Eatery", "image_url": "https://s3-media4.fl.yelpcdn.com/bphoto/YFloNjZQm2Fy_JQiHJtLXg/o.jpg", "is_closed": false, "url": "https://www.yelp.com/biz/eros-asian-eatery-windsor-2?adjust_creative=vyhy616UjsMTA_hrWyg_5w&utm_campaign=yelp_api_v3&utm_medium=api_v3_business_search&utm_source=vyhy616UjsMTA_hrWyg_5w", "review_count": 19, "categories": [{"alias": "thai", "title": "Thai"}, {"alias": "chinese", "title": "Chinese"}, {"alias": "japanese", "title": "Japanese"}], "rating": 4.5, "coordinates": {"latitude": 42.3055405, "longitude": -83.0620016}, "transactions": [], "price": "$$", "location": {"address1": "2270 Wyandotte Street W", "address2": "", "address3": "", "city": "Windsor", "zip_code": "N9B 1K2", "country": "CA", "state": "ON", "display_address": ["2270 Wyandotte Street W", "Windsor, ON N9B 1K2", "Canada"]}, "phone": "+15199771104", "display_phone": "+1 519-977-1104", "distance": 6760.97057913516}, {"id": "ioFyTODz0m_z8dTIidyq5A", "alias": "bash-original-izakaya-detroit", "name": "Bash Original Izakaya", "image_url": "https://s3-media2.fl.yelpcdn.com/bphoto/LfqegmAe4K28ASyyQVXAzA/o.jpg", "is_closed": false, "url": "https://www.yelp.com/biz/bash-original-izakaya-detroit?adjust_creative=vyhy616UjsMTA_hrWyg_5w&utm_campaign=yelp_api_v3&utm_medium=api_v3_business_search&utm_source=vyhy616UjsMTA_hrWyg_5w", "review_count": 41, "categories": [{"alias": "sushi", "title": "Sushi Bars"}, {"alias": "izakaya", "title": "Izakaya"}], "rating": 4.5, "coordinates": {"latitude": 42.352967, "longitude": -83.079469}, "transactions": ["pickup", "delivery"], "location": {"address1": "5069 Trumbull St", "address2": "", "address3": null, "city": "Detroit", "zip_code": "48208", "country": "US", "state": "MI", "display_address": ["5069 Trumbull St", "Detroit, MI 48208"]}, "phone": "+13137887208", "display_phone": "(313) 788-7208", "distance": 1413.5139305560344}, {"id": "s8x1eRJyIKX0xrjNLTFG7w", "alias": "the-himalayan-flames-dearborn", "name": "The Himalayan Flames", "image_url": "https://s3-media3.fl.yelpcdn.com/bphoto/3yOa07EA7g9E1wPO4MIoUw/o.jpg", "is_closed": false, "url": "https://www.yelp.com/biz/the-himalayan-flames-dearborn?adjust_creative=vyhy616UjsMTA_hrWyg_5w&utm_campaign=yelp_api_v3&utm_medium=api_v3_business_search&utm_source=vyhy616UjsMTA_hrWyg_5w", "review_count": 130, "categories": [{"alias": "himalayan", "title": "Himalayan/Nepalese"}, {"alias": "indpak", "title": "Indian"}], "rating": 4.5, "coordinates": {"latitude": 42.305171, "longitude": -83.249325}, "transactions": ["pickup", "delivery"], "location": {"address1": "22266 Michigan Ave", "address2": "", "address3": null, "city": "Dearborn", "zip_code": "48124", "country": "US", "state": "MI", "display_address": ["22266 Michigan Ave", "Dearborn, MI 48124"]}, "phone": "+13139081193", "display_phone": "(313) 908-1193", "distance": 14489.55936191067}, {"id": "Icsr0pRHfGtECsdZDz1-pw", "alias": "satay-house-madison-heights", "name": "Satay House", "image_url": "https://s3-media2.fl.yelpcdn.com/bphoto/ehxadUbPQo9YJwSn9uI7BA/o.jpg", "is_closed": false, "url": "https://www.yelp.com/biz/satay-house-madison-heights?adjust_creative=vyhy616UjsMTA_hrWyg_5w&utm_campaign=yelp_api_v3&utm_medium=api_v3_business_search&utm_source=vyhy616UjsMTA_hrWyg_5w", "review_count": 232, "categories": [{"alias": "thai", "title": "Thai"}, {"alias": "malaysian", "title": "Malaysian"}, {"alias": "singaporean", "title": "Singaporean"}], "rating": 4.0, "coordinates": {"latitude": 42.5210934807895, "longitude": -83.0867022159385}, "transactions": ["delivery"], "price": "$", "location": {"address1": "31101 Dequindre Rd", "address2": "", "address3": "", "city": "Madison Heights", "zip_code": "48071", "country": "US", "state": "MI", "display_address": ["31101 Dequindre Rd", "Madison Heights, MI 48071"]}, "phone": "+12485881738", "display_phone": "(248) 588-1738", "distance": 17647.306995100123}, {"id": "lZyf7m2XxI5b3YM0vOLCXw", "alias": "maru-sushi-and-grill-detroit-detroit", "name": "Maru Sushi & Grill Detroit", "image_url": "https://s3-media3.fl.yelpcdn.com/bphoto/vlBsRwer3d4IyptgysvSVA/o.jpg", "is_closed": false, "url": "https://www.yelp.com/biz/maru-sushi-and-grill-detroit-detroit?adjust_creative=vyhy616UjsMTA_hrWyg_5w&utm_campaign=yelp_api_v3&utm_medium=api_v3_business_search&utm_source=vyhy616UjsMTA_hrWyg_5w", "review_count": 424, "categories": [{"alias": "sushi", "title": "Sushi Bars"}, {"alias": "seafood", "title": "Seafood"}, {"alias": "desserts", "title": "Desserts"}], "rating": 4.0, "coordinates": {"latitude": 42.3305584, "longitude": -83.0486197}, "transactions": ["pickup", "delivery"], "price": "$$", "location": {"address1": "160 W Fort St", "address2": null, "address3": "", "city": "Detroit", "zip_code": "48226", "country": "US", "state": "MI", "display_address": ["160 W Fort St", "Detroit, MI 48226"]}, "phone": "+13133153100", "display_phone": "(313) 315-3100", "distance": 4966.466507510566}, {"id": "hcsrMuyPsVqaRQQU39bqmw", "alias": "kong-kow-restaurant-dearborn", "name": "Kong Kow Restaurant", "image_url": "https://s3-media3.fl.yelpcdn.com/bphoto/Hh036bR2LL5DGgnEI-EJEQ/o.jpg", "is_closed": false, "url": "https://www.yelp.com/biz/kong-kow-restaurant-dearborn?adjust_creative=vyhy616UjsMTA_hrWyg_5w&utm_campaign=yelp_api_v3&utm_medium=api_v3_business_search&utm_source=vyhy616UjsMTA_hrWyg_5w", "review_count": 78, "categories": [{"alias": "chinese", "title": "Chinese"}], "rating": 4.0, "coordinates": {"latitude": 42.32239, "longitude": -83.17415}, "transactions": ["delivery"], "price": "$", "location": {"address1": "13337 Michigan Ave", "address2": "", "address3": "", "city": "Dearborn", "zip_code": "48126", "country": "US", "state": "MI", "display_address": ["13337 Michigan Ave", "Dearborn, MI 48126"]}, "phone": "+13135815576", "display_phone": "(313) 581-5576", "distance": 8153.803599751994}, {"id": "lesXZSVQXKDL7YOJPW5A7w", "alias": "korea-palace-sterling-heights", "name": "Korea Palace", "image_url": "https://s3-media2.fl.yelpcdn.com/bphoto/sIW2DtKsaDtrB6UsO2DKng/o.jpg", "is_closed": false, "url": "https://www.yelp.com/biz/korea-palace-sterling-heights?adjust_creative=vyhy616UjsMTA_hrWyg_5w&utm_campaign=yelp_api_v3&utm_medium=api_v3_business_search&utm_source=vyhy616UjsMTA_hrWyg_5w", "review_count": 201, "categories": [{"alias": "korean", "title": "Korean"}], "rating": 4.0, "coordinates": {"latitude": 42.5478254, "longitude": -83.0878112}, "transactions": ["delivery"], "price": "$$", "location": {"address1": "34744 Dequindre Rd", "address2": "", "address3": "", "city": "Sterling Heights", "zip_code": "48310", "country": "US", "state": "MI", "display_address": ["34744 Dequindre Rd", "Sterling Heights, MI 48310"]}, "phone": "+15869780500", "display_phone": "(586) 978-0500", "distance": 20625.540837969358}, {"id": "jbN9U4dRN_EyLDpFTXvIuQ", "alias": "shanghai-bistro-windsor-2", "name": "Shanghai Bistro", "image_url": "https://s3-media2.fl.yelpcdn.com/bphoto/LoXVSBJfqeQWFU8SfMqvSg/o.jpg", "is_closed": false, "url": "https://www.yelp.com/biz/shanghai-bistro-windsor-2?adjust_creative=vyhy616UjsMTA_hrWyg_5w&utm_campaign=yelp_api_v3&utm_medium=api_v3_business_search&utm_source=vyhy616UjsMTA_hrWyg_5w", "review_count": 30, "categories": [{"alias": "chinese", "title": "Chinese"}], "rating": 4.5, "coordinates": {"latitude": 42.30596, "longitude": -83.05935}, "transactions": [], "price": "$", "location": {"address1": "2045 Wyandotte Street W", "address2": "", "address3": null, "city": "Windsor", "zip_code": "N9B 1J8", "country": "CA", "state": "ON", "display_address": ["2045 Wyandotte Street W", "Windsor, ON N9B 1J8", "Canada"]}, "phone": "+15192538880", "display_phone": "+1 519-253-8880", "distance": 6794.637797935885}, {"id": "0YMiirK-kYB9_05wYPaVeQ", "alias": "que-huong-restaurant-madison-heights", "name": "Que Huong Restaurant", "image_url": "https://s3-media2.fl.yelpcdn.com/bphoto/kXX8_8kScWVvL3ZuLEzvGg/o.jpg", "is_closed": false, "url": "https://www.yelp.com/biz/que-huong-restaurant-madison-heights?adjust_creative=vyhy616UjsMTA_hrWyg_5w&utm_campaign=yelp_api_v3&utm_medium=api_v3_business_search&utm_source=vyhy616UjsMTA_hrWyg_5w", "review_count": 431, "categories": [{"alias": "vietnamese", "title": "Vietnamese"}, {"alias": "noodles", "title": "Noodles"}, {"alias": "soup", "title": "Soup"}], "rating": 4.5, "coordinates": {"latitude": 42.5190025, "longitude": -83.106191}, "transactions": ["delivery"], "price": "$", "location": {"address1": "30820 John R Rd", "address2": "", "address3": "", "city": "Madison Heights", "zip_code": "48071", "country": "US", "state": "MI", "display_address": ["30820 John R Rd", "Madison Heights, MI 48071"]}, "phone": "+12485880998", "display_phone": "(248) 588-0998", "distance": 17457.667426524175}, {"id": "3QMhnxYleG43BLS86ltP1g", "alias": "orchid-thai-restaurant-detroit", "name": "Orchid Thai Restaurant", "image_url": "https://s3-media1.fl.yelpcdn.com/bphoto/digJeyAhH692IARqBskmTg/o.jpg", "is_closed": false, "url": "https://www.yelp.com/biz/orchid-thai-restaurant-detroit?adjust_creative=vyhy616UjsMTA_hrWyg_5w&utm_campaign=yelp_api_v3&utm_medium=api_v3_business_search&utm_source=vyhy616UjsMTA_hrWyg_5w", "review_count": 116, "categories": [{"alias": "thai", "title": "Thai"}], "rating": 3.5, "coordinates": {"latitude": 42.3336201, "longitude": -83.0453661}, "transactions": ["pickup", "delivery"], "price": "$", "location": {"address1": "115 Monroe St", "address2": "", "address3": "", "city": "Detroit", "zip_code": "48226", "country": "US", "state": "MI", "display_address": ["115 Monroe St", "Detroit, MI 48226"]}, "phone": "+13139620225", "display_phone": "(313) 962-0225", "distance": 4929.677299753447}, {"id": "-niJiIyxntNfZcLpyQ7cXA", "alias": "wasabi-korean-and-japanese-cuisine-detroit", "name": "Wasabi Korean and Japanese Cuisine", "image_url": "https://s3-media3.fl.yelpcdn.com/bphoto/vImbYWAHrxqyKKbnDU3m2g/o.jpg", "is_closed": false, "url": "https://www.yelp.com/biz/wasabi-korean-and-japanese-cuisine-detroit?adjust_creative=vyhy616UjsMTA_hrWyg_5w&utm_campaign=yelp_api_v3&utm_medium=api_v3_business_search&utm_source=vyhy616UjsMTA_hrWyg_5w", "review_count": 308, "categories": [{"alias": "japanese", "title": "Japanese"}, {"alias": "korean", "title": "Korean"}, {"alias": "sushi", "title": "Sushi Bars"}], "rating": 3.0, "coordinates": {"latitude": 42.36054, "longitude": -83.06595}, "transactions": ["pickup", "delivery"], "price": "$$", "location": {"address1": "15 E Kirby St", "address2": "", "address3": "", "city": "Detroit", "zip_code": "48202", "country": "US", "state": "MI", "display_address": ["15 E Kirby St", "Detroit, MI 48202"]}, "phone": "+13136381272", "display_phone": "(313) 638-1272", "distance": 2054.138659464874}, {"id": "vzmiwERb2-0V9fB6m7cquw", "alias": "asian-corner-waterford-township", "name": "Asian Corner", "image_url": "https://s3-media3.fl.yelpcdn.com/bphoto/Na1ZLCfmmJEB3sIFI0nOrA/o.jpg", "is_closed": false, "url": "https://www.yelp.com/biz/asian-corner-waterford-township?adjust_creative=vyhy616UjsMTA_hrWyg_5w&utm_campaign=yelp_api_v3&utm_medium=api_v3_business_search&utm_source=vyhy616UjsMTA_hrWyg_5w", "review_count": 1, "categories": [{"alias": "chinese", "title": "Chinese"}, {"alias": "thai", "title": "Thai"}], "rating": 5.0, "coordinates": {"latitude": 42.664269, "longitude": -83.330992}, "transactions": [], "location": {"address1": "2045 Dixie Hwy", "address2": "", "address3": null, "city": "Waterford Township", "zip_code": "48328", "country": "US", "state": "MI", "display_address": ["2045 Dixie Hwy", "Waterford Township, MI 48328"]}, "phone": "", "display_phone": "", "distance": 38903.22288216207}, {"id": "klkmynuK91fbGMjmP_TSYw", "alias": "xushi-ko-dearborn", "name": "Xushi Ko", "image_url": "https://s3-media1.fl.yelpcdn.com/bphoto/Gbc2qgLt7bs1e6SC7OKrfA/o.jpg", "is_closed": false, "url": "https://www.yelp.com/biz/xushi-ko-dearborn?adjust_creative=vyhy616UjsMTA_hrWyg_5w&utm_campaign=yelp_api_v3&utm_medium=api_v3_business_search&utm_source=vyhy616UjsMTA_hrWyg_5w", "review_count": 408, "categories": [{"alias": "japanese", "title": "Japanese"}, {"alias": "sushi", "title": "Sushi Bars"}], "rating": 3.5, "coordinates": {"latitude": 42.3275496948766, "longitude": -83.2033735513687}, "transactions": ["delivery"], "price": "$$", "location": {"address1": "16351 Ford Rd", "address2": "Ste C-118", "address3": "", "city": "Dearborn", "zip_code": "48126", "country": "US", "state": "MI", "display_address": ["16351 Ford Rd", "Ste C-118", "Dearborn, MI 48126"]}, "phone": "+13139821730", "display_phone": "(313) 982-1730", "distance": 10018.269704393895}, {"id": "39xIvLftmPsvJ27XJaJWhg", "alias": "bai-mai-thai-detroit", "name": "Bai Mai Thai", "image_url": "https://s3-media3.fl.yelpcdn.com/bphoto/MCPp5ZX4iS_iGJyNPUm75A/o.jpg", "is_closed": false, "url": "https://www.yelp.com/biz/bai-mai-thai-detroit?adjust_creative=vyhy616UjsMTA_hrWyg_5w&utm_campaign=yelp_api_v3&utm_medium=api_v3_business_search&utm_source=vyhy616UjsMTA_hrWyg_5w", "review_count": 143, "categories": [{"alias": "thai", "title": "Thai"}], "rating": 3.5, "coordinates": {"latitude": 42.3385381, "longitude": -83.032995}, "transactions": ["pickup", "delivery"], "price": "$$", "location": {"address1": "1541 E Lafayette St", "address2": "", "address3": "", "city": "Detroit", "zip_code": "48207", "country": "US", "state": "MI", "display_address": ["1541 E Lafayette St", "Detroit, MI 48207"]}, "phone": "+13135678424", "display_phone": "(313) 567-8424", "distance": 5454.459843964687}, {"id": "4bB8bCaRvXryWHbhOMex7A", "alias": "oyaki-sushi-dearborn-heights", "name": "Oyaki Sushi", "image_url": "https://s3-media4.fl.yelpcdn.com/bphoto/UgnwzOP4FA3lRGh3Qo9G6Q/o.jpg", "is_closed": false, "url": "https://www.yelp.com/biz/oyaki-sushi-dearborn-heights?adjust_creative=vyhy616UjsMTA_hrWyg_5w&utm_campaign=yelp_api_v3&utm_medium=api_v3_business_search&utm_source=vyhy616UjsMTA_hrWyg_5w", "review_count": 342, "categories": [{"alias": "sushi", "title": "Sushi Bars"}, {"alias": "japanese", "title": "Japanese"}], "rating": 4.5, "coordinates": {"latitude": 42.3274534025516, "longitude": -83.2991201190005}, "transactions": ["delivery"], "price": "$$", "location": {"address1": "26354 Ford Rd", "address2": "", "address3": "", "city": "Dearborn Heights", "zip_code": "48127", "country": "US", "state": "MI", "display_address": ["26354 Ford Rd", "Dearborn Heights, MI 48127"]}, "phone": "+13136339742", "display_phone": "(313) 633-9742", "distance": 17542.714243689887}, {"id": "dSa7-h_EX2HR2kYdLnBWcw", "alias": "blue-fish-dearborn", "name": "Blue Fish", "image_url": "https://s3-media4.fl.yelpcdn.com/bphoto/mrLE2Y3SJL_Krtd-R3fsLw/o.jpg", "is_closed": false, "url": "https://www.yelp.com/biz/blue-fish-dearborn?adjust_creative=vyhy616UjsMTA_hrWyg_5w&utm_campaign=yelp_api_v3&utm_medium=api_v3_business_search&utm_source=vyhy616UjsMTA_hrWyg_5w", "review_count": 25, "categories": [{"alias": "asianfusion", "title": "Asian Fusion"}], "rating": 4.0, "coordinates": {"latitude": 42.3060012, "longitude": -83.2441482}, "transactions": ["pickup", "delivery"], "location": {"address1": "22001 Michigan Ave", "address2": "Ste 160", "address3": "", "city": "Dearborn", "zip_code": "48124", "country": "US", "state": "MI", "display_address": ["22001 Michigan Ave", "Ste 160", "Dearborn, MI 48124"]}, "phone": "+13137577995", "display_phone": "(313) 757-7995", "distance": 14067.050530702458}, {"id": "4t-EFW4iGXuyBZeaF7m9AQ", "alias": "may-wah-inn-chinese-cuisine-windsor", "name": "May Wah Inn Chinese Cuisine", "image_url": "https://s3-media4.fl.yelpcdn.com/bphoto/tjCZvqNrSi4ptUuBXa6UdQ/o.jpg", "is_closed": false, "url": "https://www.yelp.com/biz/may-wah-inn-chinese-cuisine-windsor?adjust_creative=vyhy616UjsMTA_hrWyg_5w&utm_campaign=yelp_api_v3&utm_medium=api_v3_business_search&utm_source=vyhy616UjsMTA_hrWyg_5w", "review_count": 79, "categories": [{"alias": "chinese", "title": "Chinese"}], "rating": 4.0, "coordinates": {"latitude": 42.31135, "longitude": -83.05818}, "transactions": [], "price": "$$", "location": {"address1": "1689 University Ave W", "address2": "", "address3": "", "city": "Windsor", "zip_code": "N9B 1C3", "country": "CA", "state": "ON", "display_address": ["1689 University Ave W", "Windsor, ON N9B 1C3", "Canada"]}, "phone": "+15192564755", "display_phone": "+1 519-256-4755", "distance": 6276.8701640272475}, {"id": "rhIeD_fAOoSblI7CQ0Msvg", "alias": "kitchen-hanzo-west-bloomfield", "name": "Kitchen Hanzo", "image_url": "https://s3-media1.fl.yelpcdn.com/bphoto/RRAoKTvvHHHhe5FEWTd_LQ/o.jpg", "is_closed": false, "url": "https://www.yelp.com/biz/kitchen-hanzo-west-bloomfield?adjust_creative=vyhy616UjsMTA_hrWyg_5w&utm_campaign=yelp_api_v3&utm_medium=api_v3_business_search&utm_source=vyhy616UjsMTA_hrWyg_5w", "review_count": 85, "categories": [{"alias": "izakaya", "title": "Izakaya"}], "rating": 4.5, "coordinates": {"latitude": 42.54719, "longitude": -83.437724}, "transactions": ["delivery"], "price": "$$", "location": {"address1": "6073 Haggerty Rd", "address2": "", "address3": "", "city": "West Bloomfield", "zip_code": "48323", "country": "US", "state": "MI", "display_address": ["6073 Haggerty Rd", "West Bloomfield, MI 48323"]}, "phone": "+12486248666", "display_phone": "(248) 624-8666", "distance": 35091.16298897062}, {"id": "-4jkn3iLxX3lysd2J9i64g", "alias": "koi-nu-asian-grosse-pointe", "name": "Koi Nu Asian", "image_url": "https://s3-media2.fl.yelpcdn.com/bphoto/nMQ6CR5KouruV2Q0EGfJUA/o.jpg", "is_closed": false, "url": "https://www.yelp.com/biz/koi-nu-asian-grosse-pointe?adjust_creative=vyhy616UjsMTA_hrWyg_5w&utm_campaign=yelp_api_v3&utm_medium=api_v3_business_search&utm_source=vyhy616UjsMTA_hrWyg_5w", "review_count": 89, "categories": [{"alias": "sushi", "title": "Sushi Bars"}, {"alias": "asianfusion", "title": "Asian Fusion"}, {"alias": "japanese", "title": "Japanese"}], "rating": 4.0, "coordinates": {"latitude": 42.390330758316, "longitude": -82.9161662105074}, "transactions": ["pickup", "delivery"], "price": "$$", "location": {"address1": "17043 Kercheval Ave", "address2": "", "address3": null, "city": "Grosse Pointe", "zip_code": "48230", "country": "US", "state": "MI", "display_address": ["17043 Kercheval Ave", "Grosse Pointe, MI 48230"]}, "phone": "+13139224760", "display_phone": "(313) 922-4760", "distance": 14690.793894883078}, {"id": "lHZhbZSLfyACTGzXueMoag", "alias": "lao-pot-madison-heights", "name": "Lao Pot", "image_url": "https://s3-media1.fl.yelpcdn.com/bphoto/VIW52xpflMqkNP2tRMx2Pg/o.jpg", "is_closed": false, "url": "https://www.yelp.com/biz/lao-pot-madison-heights?adjust_creative=vyhy616UjsMTA_hrWyg_5w&utm_campaign=yelp_api_v3&utm_medium=api_v3_business_search&utm_source=vyhy616UjsMTA_hrWyg_5w", "review_count": 73, "categories": [{"alias": "hotpot", "title": "Hot Pot"}, {"alias": "juicebars", "title": "Juice Bars & Smoothies"}, {"alias": "seafood", "title": "Seafood"}], "rating": 4.0, "coordinates": {"latitude": 42.5321129, "longitude": -83.10737}, "transactions": ["pickup", "delivery"], "location": {"address1": "32707 John R Rd", "address2": "", "address3": null, "city": "Madison Heights", "zip_code": "48071", "country": "US", "state": "MI", "display_address": ["32707 John R Rd", "Madison Heights, MI 48071"]}, "phone": "+12486899888", "display_phone": "(248) 689-9888", "distance": 18917.032251705034}, {"id": "HQUhdgArBEqToyrbD8-7kg", "alias": "pho-nguyen-hoang-windsor", "name": "Pho Nguyen Hoang", "image_url": "https://s3-media4.fl.yelpcdn.com/bphoto/GIY4JuQZn-HDmAb5KlICgA/o.jpg", "is_closed": false, "url": "https://www.yelp.com/biz/pho-nguyen-hoang-windsor?adjust_creative=vyhy616UjsMTA_hrWyg_5w&utm_campaign=yelp_api_v3&utm_medium=api_v3_business_search&utm_source=vyhy616UjsMTA_hrWyg_5w", "review_count": 59, "categories": [{"alias": "vietnamese", "title": "Vietnamese"}], "rating": 4.5, "coordinates": {"latitude": 42.31217, "longitude": -83.04283}, "transactions": [], "price": "$", "location": {"address1": "510 Wyandotte Street W", "address2": "", "address3": "", "city": "Windsor", "zip_code": "N9A 5X4", "country": "CA", "state": "ON", "display_address": ["510 Wyandotte Street W", "Windsor, ON N9A 5X4", "Canada"]}, "phone": "+15199770852", "display_phone": "+1 519-977-0852", "distance": 6854.722446201966}, {"id": "fI_pdB0PMpc23pc7fsdTgA", "alias": "hola-seoul-troy", "name": "Hola Seoul", "image_url": "https://s3-media4.fl.yelpcdn.com/bphoto/vFgTbODRLnrh-wIqBh33nQ/o.jpg", "is_closed": false, "url": "https://www.yelp.com/biz/hola-seoul-troy?adjust_creative=vyhy616UjsMTA_hrWyg_5w&utm_campaign=yelp_api_v3&utm_medium=api_v3_business_search&utm_source=vyhy616UjsMTA_hrWyg_5w", "review_count": 32, "categories": [{"alias": "korean", "title": "Korean"}], "rating": 4.0, "coordinates": {"latitude": 42.565549, "longitude": -83.091003}, "transactions": ["pickup", "delivery"], "location": {"address1": "2947 E Big Beaver Rd", "address2": null, "address3": "", "city": "Troy", "zip_code": "48083", "country": "US", "state": "MI", "display_address": ["2947 E Big Beaver Rd", "Troy, MI 48083"]}, "phone": "", "display_phone": "", "distance": 22581.879482729582}, {"id": "cZTATKwEZ-BNhikQZ_Bg-g", "alias": "little-saigon-madison-heights", "name": "Little Saigon", "image_url": "https://s3-media4.fl.yelpcdn.com/bphoto/aEuEpsRir2wt5bBmvbwHHw/o.jpg", "is_closed": false, "url": "https://www.yelp.com/biz/little-saigon-madison-heights?adjust_creative=vyhy616UjsMTA_hrWyg_5w&utm_campaign=yelp_api_v3&utm_medium=api_v3_business_search&utm_source=vyhy616UjsMTA_hrWyg_5w", "review_count": 133, "categories": [{"alias": "vietnamese", "title": "Vietnamese"}], "rating": 4.0, "coordinates": {"latitude": 42.5067243755455, "longitude": -83.086743}, "transactions": ["pickup", "delivery"], "price": "$", "location": {"address1": "29083 Dequindre Rd", "address2": "", "address3": "", "city": "Madison Heights", "zip_code": "48071", "country": "US", "state": "MI", "display_address": ["29083 Dequindre Rd", "Madison Heights, MI 48071"]}, "phone": "+12483369185", "display_phone": "(248) 336-9185", "distance": 16049.811731180229}, {"id": "71gCp15Z4afGOLa6J32jKg", "alias": "zao-jun-bloomfield-hills-2", "name": "Zao Jun", "image_url": "https://s3-media4.fl.yelpcdn.com/bphoto/HEfsYbD9YOCs_XqFZDIbGg/o.jpg", "is_closed": false, "url": "https://www.yelp.com/biz/zao-jun-bloomfield-hills-2?adjust_creative=vyhy616UjsMTA_hrWyg_5w&utm_campaign=yelp_api_v3&utm_medium=api_v3_business_search&utm_source=vyhy616UjsMTA_hrWyg_5w", "review_count": 146, "categories": [{"alias": "chinese", "title": "Chinese"}, {"alias": "sushi", "title": "Sushi Bars"}, {"alias": "thai", "title": "Thai"}], "rating": 4.0, "coordinates": {"latitude": 42.54279, "longitude": -83.2852}, "transactions": ["pickup", "delivery"], "price": "$$", "location": {"address1": "6608 Telegraph Rd", "address2": "", "address3": null, "city": "Bloomfield Hills", "zip_code": "48301", "country": "US", "state": "MI", "display_address": ["6608 Telegraph Rd", "Bloomfield Hills, MI 48301"]}, "phone": "+12489499999", "display_phone": "(248) 949-9999", "distance": 25631.36824137548}, {"id": "8fLQn3eTWIjLvW--c5iCWQ", "alias": "jinji-korean-cuisine-and-soju-bar-southfield", "name": "JINJI Korean Cuisine & Soju Bar", "image_url": "https://s3-media2.fl.yelpcdn.com/bphoto/TnXHhUiTjO1rlZWgm09GRQ/o.jpg", "is_closed": false, "url": "https://www.yelp.com/biz/jinji-korean-cuisine-and-soju-bar-southfield?adjust_creative=vyhy616UjsMTA_hrWyg_5w&utm_campaign=yelp_api_v3&utm_medium=api_v3_business_search&utm_source=vyhy616UjsMTA_hrWyg_5w", "review_count": 88, "categories": [{"alias": "korean", "title": "Korean"}, {"alias": "soup", "title": "Soup"}], "rating": 4.5, "coordinates": {"latitude": 42.491652, "longitude": -83.282588}, "transactions": ["pickup", "delivery"], "price": "$$", "location": {"address1": "27566 Northwestern Hwy", "address2": "", "address3": null, "city": "Southfield", "zip_code": "48034", "country": "US", "state": "MI", "display_address": ["27566 Northwestern Hwy", "Southfield, MI 48034"]}, "phone": "+12489968922", "display_phone": "(248) 996-8922", "distance": 21303.60470727814}, {"id": "WuV5IdOVSweWp1vGB0HQrg", "alias": "jiang-nan-noodle-house-farmington-hills-4", "name": "Jiang Nan Noodle House", "image_url": "https://s3-media3.fl.yelpcdn.com/bphoto/JZ-Gh-IDWTH4Q4-mtwJmPQ/o.jpg", "is_closed": false, "url": "https://www.yelp.com/biz/jiang-nan-noodle-house-farmington-hills-4?adjust_creative=vyhy616UjsMTA_hrWyg_5w&utm_campaign=yelp_api_v3&utm_medium=api_v3_business_search&utm_source=vyhy616UjsMTA_hrWyg_5w", "review_count": 343, "categories": [{"alias": "chinese", "title": "Chinese"}, {"alias": "noodles", "title": "Noodles"}], "rating": 4.5, "coordinates": {"latitude": 42.5119202258769, "longitude": -83.3592182808948}, "transactions": ["pickup", "delivery"], "price": "$$", "location": {"address1": "29222 Orchard Lake Rd", "address2": null, "address3": "", "city": "Farmington Hills", "zip_code": "48334", "country": "US", "state": "MI", "display_address": ["29222 Orchard Lake Rd", "Farmington Hills, MI 48334"]}, "phone": "+12487020166", "display_phone": "(248) 702-0166", "distance": 27495.315295593926}, {"id": "X-gzn4k2BGNfQa34ckPq9Q", "alias": "go-sy-thai-detroit-4", "name": "Go! Sy Thai", "image_url": "https://s3-media1.fl.yelpcdn.com/bphoto/DKwLS6wval3DJxxGJqv9gg/o.jpg", "is_closed": false, "url": "https://www.yelp.com/biz/go-sy-thai-detroit-4?adjust_creative=vyhy616UjsMTA_hrWyg_5w&utm_campaign=yelp_api_v3&utm_medium=api_v3_business_search&utm_source=vyhy616UjsMTA_hrWyg_5w", "review_count": 86, "categories": [{"alias": "thai", "title": "Thai"}], "rating": 3.5, "coordinates": {"latitude": 42.3330503, "longitude": -83.0490338}, "transactions": ["pickup", "delivery"], "price": "$$", "location": {"address1": "1226 Griswold St", "address2": "", "address3": null, "city": "Detroit", "zip_code": "48226", "country": "US", "state": "MI", "display_address": ["1226 Griswold St", "Detroit, MI 48226"]}, "phone": "+13136381467", "display_phone": "(313) 638-1467", "distance": 4736.515564695653}, {"id": "_XStA4s3fMi6ouzvMDeyYw", "alias": "easteats-detroit", "name": "EastEats", "image_url": "https://s3-media2.fl.yelpcdn.com/bphoto/OYx_8xOXY_C2zfLAwDCsEA/o.jpg", "is_closed": false, "url": "https://www.yelp.com/biz/easteats-detroit?adjust_creative=vyhy616UjsMTA_hrWyg_5w&utm_campaign=yelp_api_v3&utm_medium=api_v3_business_search&utm_source=vyhy616UjsMTA_hrWyg_5w", "review_count": 36, "categories": [{"alias": "vegan", "title": "Vegan"}, {"alias": "asianfusion", "title": "Asian Fusion"}, {"alias": "tapasmallplates", "title": "Tapas/Small Plates"}], "rating": 4.0, "coordinates": {"latitude": 42.369452, "longitude": -82.957271}, "transactions": [], "location": {"address1": "1018 Navahoe St", "address2": null, "address3": "", "city": "Detroit", "zip_code": "48215", "country": "US", "state": "MI", "display_address": ["1018 Navahoe St", "Detroit, MI 48215"]}, "phone": "", "display_phone": "", "distance": 11011.735938414227}, {"id": "2FPNDGMzmVFKUM5H9B423w", "alias": "chung-ki-wa-sterling-heights-3", "name": "Chung Ki Wa", "image_url": "https://s3-media2.fl.yelpcdn.com/bphoto/WSxqi6BPcveyzIISGDqsfA/o.jpg", "is_closed": false, "url": "https://www.yelp.com/biz/chung-ki-wa-sterling-heights-3?adjust_creative=vyhy616UjsMTA_hrWyg_5w&utm_campaign=yelp_api_v3&utm_medium=api_v3_business_search&utm_source=vyhy616UjsMTA_hrWyg_5w", "review_count": 231, "categories": [{"alias": "korean", "title": "Korean"}, {"alias": "bbq", "title": "Barbeque"}], "rating": 4.0, "coordinates": {"latitude": 42.55046, "longitude": -83.0863}, "transactions": ["pickup", "delivery"], "price": "$$", "location": {"address1": "2101 15 Mile Rd", "address2": "", "address3": "", "city": "Sterling Heights", "zip_code": "48310", "country": "US", "state": "MI", "display_address": ["2101 15 Mile Rd", "Sterling Heights, MI 48310"]}, "phone": "+15862644488", "display_phone": "(586) 264-4488", "distance": 20809.626417328396}, {"id": "fC9zx_OGNaOwBzAVGdtffw", "alias": "trizest-restaurant-sterling-heights", "name": "Trizest Restaurant", "image_url": "https://s3-media1.fl.yelpcdn.com/bphoto/p1HkeKQaESzASn9dKsBFMw/o.jpg", "is_closed": false, "url": "https://www.yelp.com/biz/trizest-restaurant-sterling-heights?adjust_creative=vyhy616UjsMTA_hrWyg_5w&utm_campaign=yelp_api_v3&utm_medium=api_v3_business_search&utm_source=vyhy616UjsMTA_hrWyg_5w", "review_count": 374, "categories": [{"alias": "chinese", "title": "Chinese"}], "rating": 4.0, "coordinates": {"latitude": 42.5361432488216, "longitude": -83.0852162859695}, "transactions": ["delivery"], "price": "$$", "location": {"address1": "33170 Dequindre Rd", "address2": "", "address3": "", "city": "Sterling Heights", "zip_code": "48310", "country": "US", "state": "MI", "display_address": ["33170 Dequindre Rd", "Sterling Heights, MI 48310"]}, "phone": "+15862681450", "display_phone": "(586) 268-1450", "distance": 19323.056422764737}, {"id": "xY-kykMyS_o7tynebDryGg", "alias": "thang-long-thai-and-vietnamese-restaurant-madison-heights", "name": "Thang Long Thai & Vietnamese Restaurant", "image_url": "https://s3-media1.fl.yelpcdn.com/bphoto/eV65ZWx9YHVsNw5ywxTJOg/o.jpg", "is_closed": false, "url": "https://www.yelp.com/biz/thang-long-thai-and-vietnamese-restaurant-madison-heights?adjust_creative=vyhy616UjsMTA_hrWyg_5w&utm_campaign=yelp_api_v3&utm_medium=api_v3_business_search&utm_source=vyhy616UjsMTA_hrWyg_5w", "review_count": 220, "categories": [{"alias": "vietnamese", "title": "Vietnamese"}, {"alias": "thai", "title": "Thai"}], "rating": 4.0, "coordinates": {"latitude": 42.4950688, "longitude": -83.1056387}, "transactions": ["delivery"], "price": "$$", "location": {"address1": "27641 John R Rd", "address2": "", "address3": "", "city": "Madison Heights", "zip_code": "48071", "country": "US", "state": "MI", "display_address": ["27641 John R Rd", "Madison Heights, MI 48071"]}, "phone": "+12485476763", "display_phone": "(248) 547-6763", "distance": 14805.741806672047}, {"id": "QExHeMZmrp1fKipNzkKRpQ", "alias": "so-moon-bowl-and-sushi-livonia", "name": "So Moon Bowl and Sushi", "image_url": "https://s3-media2.fl.yelpcdn.com/bphoto/dMU1-m3nMAMGo3g08OB9uA/o.jpg", "is_closed": false, "url": "https://www.yelp.com/biz/so-moon-bowl-and-sushi-livonia?adjust_creative=vyhy616UjsMTA_hrWyg_5w&utm_campaign=yelp_api_v3&utm_medium=api_v3_business_search&utm_source=vyhy616UjsMTA_hrWyg_5w", "review_count": 52, "categories": [{"alias": "asianfusion", "title": "Asian Fusion"}], "rating": 5.0, "coordinates": {"latitude": 42.3610486977, "longitude": -83.4169177638}, "transactions": ["pickup", "delivery"], "location": {"address1": "38107 Ann Arbor Rd", "address2": "", "address3": "", "city": "Livonia", "zip_code": "48150", "country": "US", "state": "MI", "display_address": ["38107 Ann Arbor Rd", "Livonia, MI 48150"]}, "phone": "+17348554066", "display_phone": "(734) 855-4066", "distance": 26780.846802592176}, {"id": "J0ngl_R1bdpHi-44olMtqw", "alias": "pho-lucky-redford-charter-township-2", "name": "Pho Lucky", "image_url": "https://s3-media1.fl.yelpcdn.com/bphoto/8ycSEW05ZRPwC67L1l3Xpw/o.jpg", "is_closed": false, "url": "https://www.yelp.com/biz/pho-lucky-redford-charter-township-2?adjust_creative=vyhy616UjsMTA_hrWyg_5w&utm_campaign=yelp_api_v3&utm_medium=api_v3_business_search&utm_source=vyhy616UjsMTA_hrWyg_5w", "review_count": 236, "categories": [{"alias": "vietnamese", "title": "Vietnamese"}, {"alias": "gluten_free", "title": "Gluten-Free"}], "rating": 4.5, "coordinates": {"latitude": 42.3571587, "longitude": -83.2733994}, "transactions": ["delivery"], "price": "$", "location": {"address1": "23838 Joy Rd", "address2": null, "address3": "", "city": "Redford Charter Township", "zip_code": "48239", "country": "US", "state": "MI", "display_address": ["23838 Joy Rd", "Redford Charter Township, MI 48239"]}, "phone": "+13135322333", "display_phone": "(313) 532-2333", "distance": 15001.177031664127}, {"id": "QUPAXavtWd6LKnvsWV6ywQ", "alias": "detroit-shipping-company-detroit-2", "name": "Detroit Shipping Company", "image_url": "https://s3-media2.fl.yelpcdn.com/bphoto/c8ezQ0T7bINnKeObXCVENg/o.jpg", "is_closed": false, "url": "https://www.yelp.com/biz/detroit-shipping-company-detroit-2?adjust_creative=vyhy616UjsMTA_hrWyg_5w&utm_campaign=yelp_api_v3&utm_medium=api_v3_business_search&utm_source=vyhy616UjsMTA_hrWyg_5w", "review_count": 277, "categories": [{"alias": "beergardens", "title": "Beer Gardens"}, {"alias": "food_court", "title": "Food Court"}], "rating": 4.0, "coordinates": {"latitude": 42.34401907742649, "longitude": -83.06146026886441}, "transactions": ["delivery"], "price": "$$", "location": {"address1": "474 Peterboro St", "address2": "", "address3": null, "city": "Detroit", "zip_code": "48201", "country": "US", "state": "MI", "display_address": ["474 Peterboro St", "Detroit, MI 48201"]}, "phone": "+13134624973", "display_phone": "(313) 462-4973", "distance": 3172.8866672065283}], "total": 567, "region": {"center": {"longitude": -83.09097290039062, "latitude": 42.36241855567113}}}