{"businesses": [{"id": "A9YP9LyvMsaSWGDN4rAHBQ", "alias": "coconut-thai-saint-paul-saint-paul-2", "name": "Coconut Thai - Saint Paul", "image_url": "https://s3-media3.fl.yelpcdn.com/bphoto/BQuISEEAFYS1kZIneYWNMw/o.jpg", "is_closed": false, "url": "https://www.yelp.com/biz/coconut-thai-saint-paul-saint-paul-2?adjust_creative=vyhy616UjsMTA_hrWyg_5w&utm_campaign=yelp_api_v3&utm_medium=api_v3_business_search&utm_source=vyhy616UjsMTA_hrWyg_5w", "review_count": 23, "categories": [{"alias": "thai", "title": "Thai"}], "rating": 5.0, "coordinates": {"latitude": 44.939778, "longitude": -93.130348}, "transactions": ["delivery", "pickup"], "location": {"address1": "720 Grand Ave", "address2": null, "address3": "", "city": "Saint Paul", "zip_code": "55105", "country": "US", "state": "MN", "display_address": ["720 Grand Ave", "Saint Paul, MN 55105"]}, "phone": "+16513487250", "display_phone": "(651) 348-7250", "distance": 2075.919549031326}, {"id": "0psSArKoqKrBGSrBBcX2gQ", "alias": "cheng-heng-restaurant-saint-paul", "name": "Cheng Heng Restaurant", "image_url": "https://s3-media2.fl.yelpcdn.com/bphoto/fGV9VzwoHMpy8dnJ0oURig/o.jpg", "is_closed": false, "url": "https://www.yelp.com/biz/cheng-heng-restaurant-saint-paul?adjust_creative=vyhy616UjsMTA_hrWyg_5w&utm_campaign=yelp_api_v3&utm_medium=api_v3_business_search&utm_source=vyhy616UjsMTA_hrWyg_5w", "review_count": 230, "categories": [{"alias": "cambodian", "title": "Cambodian"}, {"alias": "desserts", "title": "Desserts"}, {"alias": "laotian", "title": "Laotian"}], "rating": 4.0, "coordinates": {"latitude": 44.95546, "longitude": -93.11943}, "transactions": ["delivery"], "price": "$$", "location": {"address1": "448 University Ave W", "address2": "", "address3": "", "city": "Saint Paul", "zip_code": "55103", "country": "US", "state": "MN", "display_address": ["448 University Ave W", "Saint Paul, MN 55103"]}, "phone": "+16512225577", "display_phone": "(651) 222-5577", "distance": 512.5274016328606}, {"id": "SnmnGS3sXOfE2Ky7S8Sohw", "alias": "tea-house-saint-paul-3", "name": "Tea house", "image_url": "https://s3-media4.fl.yelpcdn.com/bphoto/PGm6rTsl3GVEqsHJRr58Sw/o.jpg", "is_closed": false, "url": "https://www.yelp.com/biz/tea-house-saint-paul-3?adjust_creative=vyhy616UjsMTA_hrWyg_5w&utm_campaign=yelp_api_v3&utm_medium=api_v3_business_search&utm_source=vyhy616UjsMTA_hrWyg_5w", "review_count": 158, "categories": [{"alias": "szechuan", "title": "Szechuan"}], "rating": 4.0, "coordinates": {"latitude": 44.9508214869707, "longitude": -93.0294051257411}, "transactions": ["delivery"], "price": "$$", "location": {"address1": "1676 Suburban Ave", "address2": "", "address3": "", "city": "Saint Paul", "zip_code": "55106", "country": "US", "state": "MN", "display_address": ["1676 Suburban Ave", "Saint Paul, MN 55106"]}, "phone": "+16517711790", "display_phone": "(651) 771-1790", "distance": 6606.982453226756}, {"id": "hzz4N1s4K13jf3pTaz99SA", "alias": "magic-noodle-saint-paul-4", "name": "Magic Noodle", "image_url": "https://s3-media3.fl.yelpcdn.com/bphoto/LyO4TiiExA-RlcJadCL6yQ/o.jpg", "is_closed": false, "url": "https://www.yelp.com/biz/magic-noodle-saint-paul-4?adjust_creative=vyhy616UjsMTA_hrWyg_5w&utm_campaign=yelp_api_v3&utm_medium=api_v3_business_search&utm_source=vyhy616UjsMTA_hrWyg_5w", "review_count": 202, "categories": [{"alias": "chinese", "title": "Chinese"}, {"alias": "noodles", "title": "Noodles"}], "rating": 4.0, "coordinates": {"latitude": 44.9559349, "longitude": -93.1564329}, "transactions": ["delivery", "pickup"], "price": "$$", "location": {"address1": "1337 University Ave W", "address2": null, "address3": "", "city": "Saint Paul", "zip_code": "55104", "country": "US", "state": "MN", "display_address": ["1337 University Ave W", "Saint Paul, MN 55104"]}, "phone": "+16513696688", "display_phone": "(651) 369-6688", "distance": 3418.0569227407677}, {"id": "L9BGV0HUBR1YPXZuT0f5rw", "alias": "thai-garden-saint-paul-2", "name": "Thai Garden", "image_url": "https://s3-media1.fl.yelpcdn.com/bphoto/-dKCqLQXRjkEb4aM5-A9ag/o.jpg", "is_closed": false, "url": "https://www.yelp.com/biz/thai-garden-saint-paul-2?adjust_creative=vyhy616UjsMTA_hrWyg_5w&utm_campaign=yelp_api_v3&utm_medium=api_v3_business_search&utm_source=vyhy616UjsMTA_hrWyg_5w", "review_count": 237, "categories": [{"alias": "thai", "title": "Thai"}], "rating": 4.5, "coordinates": {"latitude": 44.955467, "longitude": -93.11826479999999}, "transactions": ["delivery"], "price": "$", "location": {"address1": "432 University Ave W", "address2": "", "address3": "", "city": "Saint Paul", "zip_code": "55103", "country": "US", "state": "MN", "display_address": ["432 University Ave W", "Saint Paul, MN 55103"]}, "phone": "+16513689431", "display_phone": "(651) 368-9431", "distance": 430.26248338000556}, {"id": "oiV59HR1Js_-rfIN8UWtUw", "alias": "ons-thai-kitchen-saint-paul", "name": "On's Thai Kitchen", "image_url": "https://s3-media3.fl.yelpcdn.com/bphoto/SB5R0RrLbY1powdA5qeFkg/o.jpg", "is_closed": false, "url": "https://www.yelp.com/biz/ons-thai-kitchen-saint-paul?adjust_creative=vyhy616UjsMTA_hrWyg_5w&utm_campaign=yelp_api_v3&utm_medium=api_v3_business_search&utm_source=vyhy616UjsMTA_hrWyg_5w", "review_count": 484, "categories": [{"alias": "thai", "title": "Thai"}], "rating": 4.0, "coordinates": {"latitude": 44.9558464, "longitude": -93.1683905}, "transactions": ["delivery"], "price": "$$", "location": {"address1": "1613 University Ave W", "address2": "", "address3": "", "city": "Saint Paul", "zip_code": "55104", "country": "US", "state": "MN", "display_address": ["1613 University Ave W", "Saint Paul, MN 55104"]}, "phone": "+16513309664", "display_phone": "(651) 330-9664", "distance": 4344.12978122571}, {"id": "5aiJhs_lp17vXSzk79vrAw", "alias": "basil-cafe-thai-cuisine-st-paul", "name": "Basil Cafe Thai Cuisine", "image_url": "https://s3-media4.fl.yelpcdn.com/bphoto/yoqEFuGYUgJlxVFzYrLAfQ/o.jpg", "is_closed": false, "url": "https://www.yelp.com/biz/basil-cafe-thai-cuisine-st-paul?adjust_creative=vyhy616UjsMTA_hrWyg_5w&utm_campaign=yelp_api_v3&utm_medium=api_v3_business_search&utm_source=vyhy616UjsMTA_hrWyg_5w", "review_count": 76, "categories": [{"alias": "thai", "title": "Thai"}], "rating": 4.5, "coordinates": {"latitude": 44.956023, "longitude": -93.124979}, "transactions": ["delivery"], "location": {"address1": "585 University Ave W", "address2": "", "address3": null, "city": "St Paul", "zip_code": "55103", "country": "US", "state": "MN", "display_address": ["585 University Ave W", "St Paul, MN 55103"]}, "phone": "+16514932893", "display_phone": "(651) 493-2893", "distance": 951.9471192425765}, {"id": "ZV27QGqcuBe-YMT3-3CgPw", "alias": "kolap-restaurant-saint-paul", "name": "Kolap Restaurant", "image_url": "https://s3-media3.fl.yelpcdn.com/bphoto/ox51-iqlObP06yUsztAA8w/o.jpg", "is_closed": false, "url": "https://www.yelp.com/biz/kolap-restaurant-saint-paul?adjust_creative=vyhy616UjsMTA_hrWyg_5w&utm_campaign=yelp_api_v3&utm_medium=api_v3_business_search&utm_source=vyhy616UjsMTA_hrWyg_5w", "review_count": 33, "categories": [{"alias": "cambodian", "title": "Cambodian"}, {"alias": "asianfusion", "title": "Asian Fusion"}], "rating": 4.5, "coordinates": {"latitude": 44.9594801, "longitude": -93.1265149}, "transactions": ["delivery", "pickup"], "price": "$", "location": {"address1": "601 Dale St N", "address2": "", "address3": "", "city": "Saint Paul", "zip_code": "55103", "country": "US", "state": "MN", "display_address": ["601 Dale St N", "Saint Paul, MN 55103"]}, "phone": "+16513366108", "display_phone": "(651) 336-6108", "distance": 1212.616196503018}, {"id": "zk3kgzhWiHgB8ff5mgUkXg", "alias": "red-kitchen-blaine", "name": "Red Kitchen", "image_url": "https://s3-media1.fl.yelpcdn.com/bphoto/eXHHpjCgx_tqjGgnFTph_Q/o.jpg", "is_closed": false, "url": "https://www.yelp.com/biz/red-kitchen-blaine?adjust_creative=vyhy616UjsMTA_hrWyg_5w&utm_campaign=yelp_api_v3&utm_medium=api_v3_business_search&utm_source=vyhy616UjsMTA_hrWyg_5w", "review_count": 5, "categories": [{"alias": "asianfusion", "title": "Asian Fusion"}, {"alias": "vietnamese", "title": "Vietnamese"}], "rating": 4.5, "coordinates": {"latitude": 45.169422, "longitude": -93.231791}, "transactions": ["delivery", "pickup"], "location": {"address1": "10950 Club W Pkwy NE", "address2": "Ste 140", "address3": "", "city": "Blaine", "zip_code": "55449", "country": "US", "state": "MN", "display_address": ["10950 Club W Pkwy NE", "Ste 140", "Blaine, MN 55449"]}, "phone": "+17634007064", "display_phone": "(763) 400-7064", "distance": 25712.87122309178}, {"id": "PXDU1hlzwkR--e_DxFg-8g", "alias": "arirang-korea-restaurant-saint-paul", "name": "Arirang Korea Restaurant", "image_url": "https://s3-media3.fl.yelpcdn.com/bphoto/f8rxs3ERobwLXluGnortgg/o.jpg", "is_closed": false, "url": "https://www.yelp.com/biz/arirang-korea-restaurant-saint-paul?adjust_creative=vyhy616UjsMTA_hrWyg_5w&utm_campaign=yelp_api_v3&utm_medium=api_v3_business_search&utm_source=vyhy616UjsMTA_hrWyg_5w", "review_count": 50, "categories": [{"alias": "korean", "title": "Korean"}], "rating": 4.0, "coordinates": {"latitude": 44.96188, "longitude": -93.0654}, "transactions": ["delivery"], "location": {"address1": "828 E 7th St", "address2": "", "address3": null, "city": "Saint Paul", "zip_code": "55106", "country": "US", "state": "MN", "display_address": ["828 E 7th St", "Saint Paul, MN 55106"]}, "phone": "+16513302799", "display_phone": "(651) 330-2799", "distance": 3870.2185834681163}, {"id": "-CKaRMZkXBx_OR-xSPBFsA", "alias": "trieu-chau-restaurant-st-paul", "name": "Trieu Chau Restaurant", "image_url": "https://s3-media3.fl.yelpcdn.com/bphoto/dwK7DoLGSrzpMXwqOF-40Q/o.jpg", "is_closed": false, "url": "https://www.yelp.com/biz/trieu-chau-restaurant-st-paul?adjust_creative=vyhy616UjsMTA_hrWyg_5w&utm_campaign=yelp_api_v3&utm_medium=api_v3_business_search&utm_source=vyhy616UjsMTA_hrWyg_5w", "review_count": 272, "categories": [{"alias": "vietnamese", "title": "Vietnamese"}, {"alias": "seafood", "title": "Seafood"}], "rating": 4.0, "coordinates": {"latitude": 44.95544, "longitude": -93.12155}, "transactions": ["delivery"], "price": "$", "location": {"address1": "500 University Ave W", "address2": "", "address3": "", "city": "St Paul", "zip_code": "55103", "country": "US", "state": "MN", "display_address": ["500 University Ave W", "St Paul, MN 55103"]}, "phone": "+16512226148", "display_phone": "(651) 222-6148", "distance": 668.5737077103352}, {"id": "vi58lz0GLWITkg_r0WieNg", "alias": "kbop-korean-bistro-minneapolis-6", "name": "Kbop Korean Bistro", "image_url": "https://s3-media2.fl.yelpcdn.com/bphoto/PgpVydfQLEog_-s5eXa0zw/o.jpg", "is_closed": false, "url": "https://www.yelp.com/biz/kbop-korean-bistro-minneapolis-6?adjust_creative=vyhy616UjsMTA_hrWyg_5w&utm_campaign=yelp_api_v3&utm_medium=api_v3_business_search&utm_source=vyhy616UjsMTA_hrWyg_5w", "review_count": 270, "categories": [{"alias": "korean", "title": "Korean"}], "rating": 4.5, "coordinates": {"latitude": 44.9819673599659, "longitude": -93.2367731630802}, "transactions": ["delivery", "pickup"], "price": "$", "location": {"address1": "425 13th Ave SE", "address2": "", "address3": null, "city": "Minneapolis", "zip_code": "55414", "country": "US", "state": "MN", "display_address": ["425 13th Ave SE", "Minneapolis, MN 55414"]}, "phone": "+16123314993", "display_phone": "(612) 331-4993", "distance": 10205.651451705047}, {"id": "8iaDvOZUmBXO8kFuedbe8A", "alias": "ipho-by-saigon-saint-paul-2", "name": "iPho by Saigon", "image_url": "https://s3-media1.fl.yelpcdn.com/bphoto/xPgNTPAlQj9SckOmxvuRLQ/o.jpg", "is_closed": false, "url": "https://www.yelp.com/biz/ipho-by-saigon-saint-paul-2?adjust_creative=vyhy616UjsMTA_hrWyg_5w&utm_campaign=yelp_api_v3&utm_medium=api_v3_business_search&utm_source=vyhy616UjsMTA_hrWyg_5w", "review_count": 408, "categories": [{"alias": "vietnamese", "title": "Vietnamese"}], "rating": 4.0, "coordinates": {"latitude": 44.9554681020232, "longitude": -93.1297714405111}, "transactions": ["delivery"], "price": "$", "location": {"address1": "704 University Ave W", "address2": "", "address3": "", "city": "Saint Paul", "zip_code": "55104", "country": "US", "state": "MN", "display_address": ["704 University Ave W", "Saint Paul, MN 55104"]}, "phone": "+16512258751", "display_phone": "(651) 225-8751", "distance": 1311.2900107255384}, {"id": "2GKLUlkplC1sYMhAjcF6zw", "alias": "tay-ho-saint-paul-2", "name": "Tay Ho", "image_url": "https://s3-media2.fl.yelpcdn.com/bphoto/MnIhdkcgiEfbL8wjtaYx0g/o.jpg", "is_closed": false, "url": "https://www.yelp.com/biz/tay-ho-saint-paul-2?adjust_creative=vyhy616UjsMTA_hrWyg_5w&utm_campaign=yelp_api_v3&utm_medium=api_v3_business_search&utm_source=vyhy616UjsMTA_hrWyg_5w", "review_count": 102, "categories": [{"alias": "vietnamese", "title": "Vietnamese"}], "rating": 4.0, "coordinates": {"latitude": 44.9554710388184, "longitude": -93.1126327514648}, "transactions": ["delivery", "pickup"], "price": "$", "location": {"address1": "302 University Ave W", "address2": "", "address3": "", "city": "Saint Paul", "zip_code": "55103", "country": "US", "state": "MN", "display_address": ["302 University Ave W", "Saint Paul, MN 55103"]}, "phone": "+16512287216", "display_phone": "(651) 228-7216", "distance": 180.31826232740607}, {"id": "jUuaav4GIeC4zd3U5Wcoew", "alias": "little-szechuan-hot-pot-saint-paul-3", "name": "Little Szechuan Hot Pot", "image_url": "https://s3-media2.fl.yelpcdn.com/bphoto/DS71lTlFWqNKgHlZiY5iBg/o.jpg", "is_closed": false, "url": "https://www.yelp.com/biz/little-szechuan-hot-pot-saint-paul-3?adjust_creative=vyhy616UjsMTA_hrWyg_5w&utm_campaign=yelp_api_v3&utm_medium=api_v3_business_search&utm_source=vyhy616UjsMTA_hrWyg_5w", "review_count": 236, "categories": [{"alias": "szechuan", "title": "Szechuan"}, {"alias": "hotpot", "title": "Hot Pot"}], "rating": 3.5, "coordinates": {"latitude": 44.95527, "longitude": -93.11756}, "transactions": ["delivery", "pickup"], "price": "$$", "location": {"address1": "422 University Ave W", "address2": "", "address3": "", "city": "Saint Paul", "zip_code": "55103", "country": "US", "state": "MN", "display_address": ["422 University Ave W", "Saint Paul, MN 55103"]}, "phone": "+16512221333", "display_phone": "(651) 222-1333", "distance": 376.8889337452457}, {"id": "gXf2dlvlw-ieHbSdvQpCyw", "alias": "gyu-kaku-japanese-bbq-minneapolis", "name": "Gyu-Kaku Japanese BBQ", "image_url": "https://s3-media4.fl.yelpcdn.com/bphoto/q059XJuyuAfa2LAJOZDKrQ/o.jpg", "is_closed": false, "url": "https://www.yelp.com/biz/gyu-kaku-japanese-bbq-minneapolis?adjust_creative=vyhy616UjsMTA_hrWyg_5w&utm_campaign=yelp_api_v3&utm_medium=api_v3_business_search&utm_source=vyhy616UjsMTA_hrWyg_5w", "review_count": 36, "categories": [{"alias": "japanese", "title": "Japanese"}, {"alias": "asianfusion", "title": "Asian Fusion"}, {"alias": "bbq", "title": "Barbeque"}], "rating": 4.0, "coordinates": {"latitude": 44.947378, "longitude": -93.287683}, "transactions": [], "location": {"address1": "3025 Lyndale Ave S", "address2": "", "address3": null, "city": "Minneapolis", "zip_code": "55408", "country": "US", "state": "MN", "display_address": ["3025 Lyndale Ave S", "Minneapolis, MN 55408"]}, "phone": "+16122249888", "display_phone": "(612) 224-9888", "distance": 13754.739153939288}, {"id": "I8CNZHuzqia4RO2DUaJKCQ", "alias": "pinku-japanese-street-food-minneapolis-4", "name": "PinKU Japanese Street Food", "image_url": "https://s3-media2.fl.yelpcdn.com/bphoto/Z1yTXl3XoJnODvbj9K7CXQ/o.jpg", "is_closed": false, "url": "https://www.yelp.com/biz/pinku-japanese-street-food-minneapolis-4?adjust_creative=vyhy616UjsMTA_hrWyg_5w&utm_campaign=yelp_api_v3&utm_medium=api_v3_business_search&utm_source=vyhy616UjsMTA_hrWyg_5w", "review_count": 250, "categories": [{"alias": "japanese", "title": "Japanese"}, {"alias": "sushi", "title": "Sushi Bars"}, {"alias": "seafood", "title": "Seafood"}], "rating": 4.5, "coordinates": {"latitude": 44.9882191402789, "longitude": -93.2566113262305}, "transactions": ["delivery", "pickup"], "price": "$$", "location": {"address1": "20 University Ave NE", "address2": null, "address3": "", "city": "Minneapolis", "zip_code": "55413", "country": "US", "state": "MN", "display_address": ["20 University Ave NE", "Minneapolis, MN 55413"]}, "phone": "+16125843167", "display_phone": "(612) 584-3167", "distance": 11950.13739229651}, {"id": "3_Hgrbsch6_90RdCQQw4kw", "alias": "thai-street-market-saint-paul", "name": "Thai Street Market", "image_url": "https://s3-media3.fl.yelpcdn.com/bphoto/QJSwPJ7a435cJEl1989QJg/o.jpg", "is_closed": false, "url": "https://www.yelp.com/biz/thai-street-market-saint-paul?adjust_creative=vyhy616UjsMTA_hrWyg_5w&utm_campaign=yelp_api_v3&utm_medium=api_v3_business_search&utm_source=vyhy616UjsMTA_hrWyg_5w", "review_count": 92, "categories": [{"alias": "thai", "title": "Thai"}], "rating": 4.5, "coordinates": {"latitude": 44.9911548, "longitude": -93.1060767}, "transactions": ["delivery"], "price": "$$", "location": {"address1": "1665 Rice St", "address2": null, "address3": "", "city": "Saint Paul", "zip_code": "55117", "country": "US", "state": "MN", "display_address": ["1665 Rice St", "Saint Paul, MN 55117"]}, "phone": "+16514880531", "display_phone": "(651) 488-0531", "distance": 4169.313826303143}, {"id": "UymNBfvZrVTMkIcp-BJvtw", "alias": "just-us-e-a-t-ery-saint-paul", "name": "Just/\u200b\u200bUs \u200bE\u200ba\u200b\u200bt\u200bery\u200b", "image_url": "https://s3-media2.fl.yelpcdn.com/bphoto/jUKf-PhXmRVKcdcJI_tqPg/o.jpg", "is_closed": false, "url": "https://www.yelp.com/biz/just-us-e-a-t-ery-saint-paul?adjust_creative=vyhy616UjsMTA_hrWyg_5w&utm_campaign=yelp_api_v3&utm_medium=api_v3_business_search&utm_source=vyhy616UjsMTA_hrWyg_5w", "review_count": 44, "categories": [{"alias": "asianfusion", "title": "Asian Fusion"}, {"alias": "thai", "title": "Thai"}], "rating": 4.5, "coordinates": {"latitude": 44.949144, "longitude": -93.085532}, "transactions": ["delivery", "pickup"], "price": "$$", "location": {"address1": "275 4th St E", "address2": "Ste 102", "address3": null, "city": "Saint Paul", "zip_code": "55101", "country": "US", "state": "MN", "display_address": ["275 4th St E", "Ste 102", "Saint Paul, MN 55101"]}, "phone": "+17632908431", "display_phone": "(763) 290-8431", "distance": 2243.5748803375395}, {"id": "M-SqKKZt923denxEdKyM_A", "alias": "eastside-thai-restaurant-saint-paul-2", "name": "Eastside Thai Restaurant", "image_url": "https://s3-media1.fl.yelpcdn.com/bphoto/rzD-acnwNEA1pATOz2u31w/o.jpg", "is_closed": false, "url": "https://www.yelp.com/biz/eastside-thai-restaurant-saint-paul-2?adjust_creative=vyhy616UjsMTA_hrWyg_5w&utm_campaign=yelp_api_v3&utm_medium=api_v3_business_search&utm_source=vyhy616UjsMTA_hrWyg_5w", "review_count": 126, "categories": [{"alias": "thai", "title": "Thai"}], "rating": 4.0, "coordinates": {"latitude": 44.9678041, "longitude": -93.0736649}, "transactions": ["delivery", "pickup"], "price": "$", "location": {"address1": "879 Payne Ave", "address2": "", "address3": "", "city": "Saint Paul", "zip_code": "55130", "country": "US", "state": "MN", "display_address": ["879 Payne Ave", "Saint Paul, MN 55130"]}, "phone": "+16517766599", "display_phone": "(651) 776-6599", "distance": 3467.282205562884}, {"id": "p7pWwDlTBZeo_v4FGx_kZQ", "alias": "bonchon-eagan-eagan", "name": "Bonchon Eagan", "image_url": "https://s3-media3.fl.yelpcdn.com/bphoto/0kcS1yFViCwSzHFyFoLfcQ/o.jpg", "is_closed": false, "url": "https://www.yelp.com/biz/bonchon-eagan-eagan?adjust_creative=vyhy616UjsMTA_hrWyg_5w&utm_campaign=yelp_api_v3&utm_medium=api_v3_business_search&utm_source=vyhy616UjsMTA_hrWyg_5w", "review_count": 4, "categories": [{"alias": "korean", "title": "Korean"}, {"alias": "chicken_wings", "title": "Chicken Wings"}, {"alias": "asianfusion", "title": "Asian Fusion"}], "rating": 3.5, "coordinates": {"latitude": 44.830542, "longitude": -93.163625}, "transactions": ["delivery", "pickup"], "location": {"address1": "1348 Town Centre Dr", "address2": "", "address3": null, "city": "Eagan", "zip_code": "55123", "country": "US", "state": "MN", "display_address": ["1348 Town Centre Dr", "Eagan, MN 55123"]}, "phone": "+16513601888", "display_phone": "(651) 360-1888", "distance": 14286.86235820488}, {"id": "QOnUakl25z7iedEzfQcQvQ", "alias": "hoa-bien-vietnamese-restaurant-saint-paul", "name": "Hoa Bien Vietnamese Restaurant", "image_url": "https://s3-media3.fl.yelpcdn.com/bphoto/2L-_e695PagLcPpXBQA2AQ/o.jpg", "is_closed": false, "url": "https://www.yelp.com/biz/hoa-bien-vietnamese-restaurant-saint-paul?adjust_creative=vyhy616UjsMTA_hrWyg_5w&utm_campaign=yelp_api_v3&utm_medium=api_v3_business_search&utm_source=vyhy616UjsMTA_hrWyg_5w", "review_count": 106, "categories": [{"alias": "vietnamese", "title": "Vietnamese"}], "rating": 4.0, "coordinates": {"latitude": 44.95603, "longitude": -93.14748}, "transactions": ["delivery"], "price": "$", "location": {"address1": "1105 University Ave W", "address2": "", "address3": "", "city": "Saint Paul", "zip_code": "55104", "country": "US", "state": "MN", "display_address": ["1105 University Ave W", "Saint Paul, MN 55104"]}, "phone": "+16516471011", "display_phone": "(651) 647-1011", "distance": 2686.2799969502053}, {"id": "npi7hRhGcvhY8VBxkvDyTg", "alias": "indochin-vietnamese-restaurant-saint-paul", "name": "Indochin Vietnamese Restaurant", "image_url": "https://s3-media2.fl.yelpcdn.com/bphoto/OoQR5pjWVqm4j2XH3dBWSw/o.jpg", "is_closed": false, "url": "https://www.yelp.com/biz/indochin-vietnamese-restaurant-saint-paul?adjust_creative=vyhy616UjsMTA_hrWyg_5w&utm_campaign=yelp_api_v3&utm_medium=api_v3_business_search&utm_source=vyhy616UjsMTA_hrWyg_5w", "review_count": 96, "categories": [{"alias": "vietnamese", "title": "Vietnamese"}], "rating": 4.0, "coordinates": {"latitude": 44.9399869232351, "longitude": -93.1724082837998}, "transactions": ["delivery", "pickup"], "price": "$", "location": {"address1": "1702 Grand Ave", "address2": "", "address3": "", "city": "Saint Paul", "zip_code": "55105", "country": "US", "state": "MN", "display_address": ["1702 Grand Ave", "Saint Paul, MN 55105"]}, "phone": "+16516902728", "display_phone": "(651) 690-2728", "distance": 4906.799651134513}, {"id": "6inAt0h5738qHzluMOC9oA", "alias": "pho-mai-dinkytown-minneapolis", "name": "Pho Mai Dinkytown", "image_url": "https://s3-media4.fl.yelpcdn.com/bphoto/Q6KWS7vpctr_BraYFLsdbQ/o.jpg", "is_closed": false, "url": "https://www.yelp.com/biz/pho-mai-dinkytown-minneapolis?adjust_creative=vyhy616UjsMTA_hrWyg_5w&utm_campaign=yelp_api_v3&utm_medium=api_v3_business_search&utm_source=vyhy616UjsMTA_hrWyg_5w", "review_count": 50, "categories": [{"alias": "vietnamese", "title": "Vietnamese"}], "rating": 4.5, "coordinates": {"latitude": 44.98014, "longitude": -93.23644}, "transactions": ["delivery"], "location": {"address1": "319 14th Ave SE", "address2": null, "address3": "", "city": "Minneapolis", "zip_code": "55414", "country": "US", "state": "MN", "display_address": ["319 14th Ave SE", "Minneapolis, MN 55414"]}, "phone": "+16122364538", "display_phone": "(612) 236-4538", "distance": 10120.84492221438}, {"id": "Fmgw3vbYkCTvJAyS5rlEpw", "alias": "mango-thai-saint-paul-2", "name": "Mango Thai", "image_url": "https://s3-media3.fl.yelpcdn.com/bphoto/2LgGeboVza5LjpyQv1tHyg/o.jpg", "is_closed": false, "url": "https://www.yelp.com/biz/mango-thai-saint-paul-2?adjust_creative=vyhy616UjsMTA_hrWyg_5w&utm_campaign=yelp_api_v3&utm_medium=api_v3_business_search&utm_source=vyhy616UjsMTA_hrWyg_5w", "review_count": 197, "categories": [{"alias": "thai", "title": "Thai"}], "rating": 3.5, "coordinates": {"latitude": 44.9464834, "longitude": -93.1257923}, "transactions": ["delivery", "pickup"], "price": "$$", "location": {"address1": "610 Selby Ave", "address2": "", "address3": "", "city": "Saint Paul", "zip_code": "55102", "country": "US", "state": "MN", "display_address": ["610 Selby Ave", "Saint Paul, MN 55102"]}, "phone": "+16512911414", "display_phone": "(651) 291-1414", "distance": 1287.8338390561273}, {"id": "fFmia6sESwXVuwK8MaoCBQ", "alias": "kyatchi-saint-paul-2", "name": "Kyatchi", "image_url": "https://s3-media4.fl.yelpcdn.com/bphoto/lwRA-tj1ZCLROnJMoqkR_Q/o.jpg", "is_closed": false, "url": "https://www.yelp.com/biz/kyatchi-saint-paul-2?adjust_creative=vyhy616UjsMTA_hrWyg_5w&utm_campaign=yelp_api_v3&utm_medium=api_v3_business_search&utm_source=vyhy616UjsMTA_hrWyg_5w", "review_count": 84, "categories": [{"alias": "sushi", "title": "Sushi Bars"}, {"alias": "japanese", "title": "Japanese"}], "rating": 4.0, "coordinates": {"latitude": 44.949265, "longitude": -93.083558}, "transactions": ["delivery"], "price": "$$", "location": {"address1": "308 E Prince St", "address2": "", "address3": null, "city": "Saint Paul", "zip_code": "55101", "country": "US", "state": "MN", "display_address": ["308 E Prince St", "Saint Paul, MN 55101"]}, "phone": "+16513405796", "display_phone": "(651) 340-5796", "distance": 2396.226242215196}, {"id": "Xnsa4CJMPqyHkyISgxrzxg", "alias": "peninsula-malaysian-cuisine-minneapolis-2", "name": "Peninsula Malaysian Cuisine", "image_url": "https://s3-media1.fl.yelpcdn.com/bphoto/xtn41EHDUThZzgIf8Y7vpA/o.jpg", "is_closed": false, "url": "https://www.yelp.com/biz/peninsula-malaysian-cuisine-minneapolis-2?adjust_creative=vyhy616UjsMTA_hrWyg_5w&utm_campaign=yelp_api_v3&utm_medium=api_v3_business_search&utm_source=vyhy616UjsMTA_hrWyg_5w", "review_count": 327, "categories": [{"alias": "malaysian", "title": "Malaysian"}], "rating": 4.0, "coordinates": {"latitude": 44.95511, "longitude": -93.2783199}, "transactions": ["delivery", "pickup"], "price": "$$", "location": {"address1": "2608 Nicollet Ave S", "address2": null, "address3": "", "city": "Minneapolis", "zip_code": "55408", "country": "US", "state": "MN", "display_address": ["2608 Nicollet Ave S", "Minneapolis, MN 55408"]}, "phone": "+16128718282", "display_phone": "(612) 871-8282", "distance": 12978.994152337733}, {"id": "pb_X5mIz2ccgosxg4CLYzQ", "alias": "little-asia-cafe-saint-paul", "name": "Little Asia Cafe", "image_url": "https://s3-media1.fl.yelpcdn.com/bphoto/aD6xvMCPIdgVObABMYahmg/o.jpg", "is_closed": false, "url": "https://www.yelp.com/biz/little-asia-cafe-saint-paul?adjust_creative=vyhy616UjsMTA_hrWyg_5w&utm_campaign=yelp_api_v3&utm_medium=api_v3_business_search&utm_source=vyhy616UjsMTA_hrWyg_5w", "review_count": 51, "categories": [{"alias": "asianfusion", "title": "Asian Fusion"}, {"alias": "thai", "title": "Thai"}], "rating": 3.5, "coordinates": {"latitude": 44.95605, "longitude": -93.14248}, "transactions": ["delivery", "pickup"], "price": "$", "location": {"address1": "995 University Ave W", "address2": "", "address3": "", "city": "Saint Paul", "zip_code": "55104", "country": "US", "state": "MN", "display_address": ["995 University Ave W", "Saint Paul, MN 55104"]}, "phone": "+16512093392", "display_phone": "(651) 209-3392", "distance": 2309.610400734614}, {"id": "VaEY4xoDh1Y5bvmvBb5Bug", "alias": "korean-bowl-minneapolis", "name": "Korean Bowl", "image_url": "https://s3-media2.fl.yelpcdn.com/bphoto/pC_rK9xBmkbb0ghOh8Nh8A/o.jpg", "is_closed": false, "url": "https://www.yelp.com/biz/korean-bowl-minneapolis?adjust_creative=vyhy616UjsMTA_hrWyg_5w&utm_campaign=yelp_api_v3&utm_medium=api_v3_business_search&utm_source=vyhy616UjsMTA_hrWyg_5w", "review_count": 17, "categories": [{"alias": "korean", "title": "Korean"}], "rating": 4.5, "coordinates": {"latitude": 44.97916, "longitude": -93.23471}, "transactions": ["delivery", "pickup"], "location": {"address1": "330 15th Ave SE", "address2": null, "address3": "", "city": "Minneapolis", "zip_code": "55414", "country": "US", "state": "MN", "display_address": ["330 15th Ave SE", "Minneapolis, MN 55414"]}, "phone": "+16126058960", "display_phone": "(612) 605-8960", "distance": 9947.762086217585}, {"id": "t51HT6xj_8Sjoxg5e75kXQ", "alias": "mirror-of-korea-saint-paul", "name": "Mirror of Korea", "image_url": "https://s3-media4.fl.yelpcdn.com/bphoto/7nOl_NIWj5RkGvoSXYa0SA/o.jpg", "is_closed": false, "url": "https://www.yelp.com/biz/mirror-of-korea-saint-paul?adjust_creative=vyhy616UjsMTA_hrWyg_5w&utm_campaign=yelp_api_v3&utm_medium=api_v3_business_search&utm_source=vyhy616UjsMTA_hrWyg_5w", "review_count": 165, "categories": [{"alias": "korean", "title": "Korean"}], "rating": 3.5, "coordinates": {"latitude": 44.963901, "longitude": -93.1672649}, "transactions": ["delivery", "pickup"], "price": "$$", "location": {"address1": "761 Snelling Ave N", "address2": "", "address3": "", "city": "Saint Paul", "zip_code": "55104", "country": "US", "state": "MN", "display_address": ["761 Snelling Ave N", "Saint Paul, MN 55104"]}, "phone": "+16516479004", "display_phone": "(651) 647-9004", "distance": 4408.89586744118}, {"id": "fYlgTzLNx6bcaKAiHMG2wQ", "alias": "hai-hai-minneapolis", "name": "HAI HAI", "image_url": "https://s3-media4.fl.yelpcdn.com/bphoto/eJxoqg6Zi5uNJHP2AhnRtA/o.jpg", "is_closed": false, "url": "https://www.yelp.com/biz/hai-hai-minneapolis?adjust_creative=vyhy616UjsMTA_hrWyg_5w&utm_campaign=yelp_api_v3&utm_medium=api_v3_business_search&utm_source=vyhy616UjsMTA_hrWyg_5w", "review_count": 598, "categories": [{"alias": "vietnamese", "title": "Vietnamese"}, {"alias": "thai", "title": "Thai"}, {"alias": "panasian", "title": "Pan Asian"}], "rating": 4.0, "coordinates": {"latitude": 45.0098625272589, "longitude": -93.2628971288361}, "transactions": ["delivery"], "price": "$$", "location": {"address1": "2121 University Ave NE", "address2": "", "address3": null, "city": "Minneapolis", "zip_code": "55418", "country": "US", "state": "MN", "display_address": ["2121 University Ave NE", "Minneapolis, MN 55418"]}, "phone": "+16122238640", "display_phone": "(612) 223-8640", "distance": 13312.420984479018}, {"id": "rJY7EbVlXPXWgwojyEJq8w", "alias": "lotus-restaurant-minneapolis-3", "name": "Lotus Restaurant", "image_url": "https://s3-media1.fl.yelpcdn.com/bphoto/fUZ-XO6iqV5rmhbUXrUyxg/o.jpg", "is_closed": false, "url": "https://www.yelp.com/biz/lotus-restaurant-minneapolis-3?adjust_creative=vyhy616UjsMTA_hrWyg_5w&utm_campaign=yelp_api_v3&utm_medium=api_v3_business_search&utm_source=vyhy616UjsMTA_hrWyg_5w", "review_count": 739, "categories": [{"alias": "vietnamese", "title": "Vietnamese"}], "rating": 4.5, "coordinates": {"latitude": 44.96961, "longitude": -93.27993}, "transactions": ["delivery"], "price": "$$", "location": {"address1": "113 W Grant St", "address2": "", "address3": "", "city": "Minneapolis", "zip_code": "55403", "country": "US", "state": "MN", "display_address": ["113 W Grant St", "Minneapolis, MN 55403"]}, "phone": "+16128701218", "display_phone": "(612) 870-1218", "distance": 13241.782101802339}, {"id": "cFlg862anPktKoLlZgilQQ", "alias": "bangkok-thai-deli-saint-paul-2", "name": "Bangkok Thai Deli", "image_url": "https://s3-media3.fl.yelpcdn.com/bphoto/odLRL35_yQMxIFyKOzDy8Q/o.jpg", "is_closed": false, "url": "https://www.yelp.com/biz/bangkok-thai-deli-saint-paul-2?adjust_creative=vyhy616UjsMTA_hrWyg_5w&utm_campaign=yelp_api_v3&utm_medium=api_v3_business_search&utm_source=vyhy616UjsMTA_hrWyg_5w", "review_count": 182, "categories": [{"alias": "delis", "title": "Delis"}, {"alias": "thai", "title": "Thai"}], "rating": 3.5, "coordinates": {"latitude": 44.956186, "longitude": -93.113943}, "transactions": ["delivery", "pickup"], "price": "$$", "location": {"address1": "333 University Ave W", "address2": "", "address3": "", "city": "Saint Paul", "zip_code": "55103", "country": "US", "state": "MN", "display_address": ["333 University Ave W", "Saint Paul, MN 55103"]}, "phone": "+16512244300", "display_phone": "(651) 224-4300", "distance": 257.40524979613417}, {"id": "wvXZ6mdNS7KKXnkvQC1Xzw", "alias": "vina-restaurant-saint-paul-2", "name": "Vina Restaurant", "image_url": "https://s3-media2.fl.yelpcdn.com/bphoto/RaLadf8taZ49pyDUQVTp1g/o.jpg", "is_closed": false, "url": "https://www.yelp.com/biz/vina-restaurant-saint-paul-2?adjust_creative=vyhy616UjsMTA_hrWyg_5w&utm_campaign=yelp_api_v3&utm_medium=api_v3_business_search&utm_source=vyhy616UjsMTA_hrWyg_5w", "review_count": 86, "categories": [{"alias": "vietnamese", "title": "Vietnamese"}], "rating": 3.5, "coordinates": {"latitude": 44.918631836772, "longitude": -93.1873125582933}, "transactions": ["delivery", "pickup"], "price": "$", "location": {"address1": "756 Cleveland Ave S", "address2": "", "address3": "", "city": "Saint Paul", "zip_code": "55116", "country": "US", "state": "MN", "display_address": ["756 Cleveland Ave S", "Saint Paul, MN 55116"]}, "phone": "+16516988408", "display_phone": "(651) 698-8408", "distance": 7011.399269303586}, {"id": "eVmVkr4EaoD0T0DldsQl7g", "alias": "manila-sizzling-wok-and-grill-saint-paul-2", "name": "Manila Sizzling Wok And Grill", "image_url": "https://s3-media1.fl.yelpcdn.com/bphoto/Oneop4HqBjGb5mPIo368Tw/o.jpg", "is_closed": false, "url": "https://www.yelp.com/biz/manila-sizzling-wok-and-grill-saint-paul-2?adjust_creative=vyhy616UjsMTA_hrWyg_5w&utm_campaign=yelp_api_v3&utm_medium=api_v3_business_search&utm_source=vyhy616UjsMTA_hrWyg_5w", "review_count": 38, "categories": [{"alias": "asianfusion", "title": "Asian Fusion"}, {"alias": "filipino", "title": "Filipino"}], "rating": 4.5, "coordinates": {"latitude": 44.955439, "longitude": -93.130412}, "transactions": [], "price": "$", "location": {"address1": "712 University Ave W", "address2": "", "address3": null, "city": "Saint Paul", "zip_code": "55104", "country": "US", "state": "MN", "display_address": ["712 University Ave W", "Saint Paul, MN 55104"]}, "phone": "+16514140908", "display_phone": "(651) 414-0908", "distance": 1360.872474259327}, {"id": "uOhavzjBolImpAIOboV4xw", "alias": "thanh-truc-woodbury", "name": "Thanh Truc", "image_url": "https://s3-media3.fl.yelpcdn.com/bphoto/r6ocHPiWwjWRmNv89g2l3g/o.jpg", "is_closed": false, "url": "https://www.yelp.com/biz/thanh-truc-woodbury?adjust_creative=vyhy616UjsMTA_hrWyg_5w&utm_campaign=yelp_api_v3&utm_medium=api_v3_business_search&utm_source=vyhy616UjsMTA_hrWyg_5w", "review_count": 158, "categories": [{"alias": "vietnamese", "title": "Vietnamese"}, {"alias": "chinese", "title": "Chinese"}], "rating": 4.0, "coordinates": {"latitude": 44.915869, "longitude": -92.902405}, "transactions": ["delivery"], "price": "$$", "location": {"address1": "2230 Eagle Creek Ln", "address2": null, "address3": "", "city": "Woodbury", "zip_code": "55129", "country": "US", "state": "MN", "display_address": ["2230 Eagle Creek Ln", "Woodbury, MN 55129"]}, "phone": "+16514363431", "display_phone": "(651) 436-3431", "distance": 17126.116287709356}, {"id": "0ncY4yZMtecq2Ol49yVdcQ", "alias": "lucky-china-saint-paul", "name": "Lucky China", "image_url": "https://s3-media1.fl.yelpcdn.com/bphoto/vuSipdG4uPOQComlJz1p2A/o.jpg", "is_closed": false, "url": "https://www.yelp.com/biz/lucky-china-saint-paul?adjust_creative=vyhy616UjsMTA_hrWyg_5w&utm_campaign=yelp_api_v3&utm_medium=api_v3_business_search&utm_source=vyhy616UjsMTA_hrWyg_5w", "review_count": 61, "categories": [{"alias": "chinese", "title": "Chinese"}, {"alias": "korean", "title": "Korean"}], "rating": 4.0, "coordinates": {"latitude": 44.90456, "longitude": -93.08113}, "transactions": ["delivery"], "price": "$$", "location": {"address1": "1375 S Robert St", "address2": "", "address3": "", "city": "Saint Paul", "zip_code": "55118", "country": "US", "state": "MN", "display_address": ["1375 S Robert St", "Saint Paul, MN 55118"]}, "phone": "+16515527857", "display_phone": "(651) 552-7857", "distance": 6041.4418261480905}, {"id": "SV26cB8TZ9N3hbHwKcxePg", "alias": "wongs-kitchen-south-saint-paul", "name": "Wong's Kitchen", "image_url": "https://s3-media3.fl.yelpcdn.com/bphoto/4GuUoy_A69zSvIp-RQKzbg/o.jpg", "is_closed": false, "url": "https://www.yelp.com/biz/wongs-kitchen-south-saint-paul?adjust_creative=vyhy616UjsMTA_hrWyg_5w&utm_campaign=yelp_api_v3&utm_medium=api_v3_business_search&utm_source=vyhy616UjsMTA_hrWyg_5w", "review_count": 35, "categories": [{"alias": "chinese", "title": "Chinese"}, {"alias": "asianfusion", "title": "Asian Fusion"}], "rating": 4.5, "coordinates": {"latitude": 44.8885, "longitude": -93.0503899}, "transactions": ["delivery"], "price": "$", "location": {"address1": "214 13th Ave S", "address2": "", "address3": "", "city": "South Saint Paul", "zip_code": "55075", "country": "US", "state": "MN", "display_address": ["214 13th Ave S", "South Saint Paul, MN 55075"]}, "phone": "+16514557934", "display_phone": "(651) 455-7934", "distance": 8807.21015202676}, {"id": "9CE0kC2WQr3HajvWncCxtQ", "alias": "asian-deli-saint-paul-2", "name": "Asian Deli", "image_url": "https://s3-media2.fl.yelpcdn.com/bphoto/Y7vt83Yb3U_4QL4iNyG9gw/o.jpg", "is_closed": false, "url": "https://www.yelp.com/biz/asian-deli-saint-paul-2?adjust_creative=vyhy616UjsMTA_hrWyg_5w&utm_campaign=yelp_api_v3&utm_medium=api_v3_business_search&utm_source=vyhy616UjsMTA_hrWyg_5w", "review_count": 31, "categories": [{"alias": "catering", "title": "Caterers"}], "rating": 4.5, "coordinates": {"latitude": 44.9527432, "longitude": -93.115574}, "transactions": ["delivery"], "location": {"address1": "388 Western Ave N", "address2": "Ste D", "address3": "", "city": "Saint Paul", "zip_code": "55103", "country": "US", "state": "MN", "display_address": ["388 Western Ave N", "Ste D", "Saint Paul, MN 55103"]}, "phone": "+16512912928", "display_phone": "(651) 291-2928", "distance": 225.0521683734603}, {"id": "B2EOAVr_MVmJuH60VXRsTQ", "alias": "i-heart-pho-saint-paul", "name": "I Heart Pho", "image_url": "https://s3-media3.fl.yelpcdn.com/bphoto/jrnYEorB54vIeBy23QLaXw/o.jpg", "is_closed": false, "url": "https://www.yelp.com/biz/i-heart-pho-saint-paul?adjust_creative=vyhy616UjsMTA_hrWyg_5w&utm_campaign=yelp_api_v3&utm_medium=api_v3_business_search&utm_source=vyhy616UjsMTA_hrWyg_5w", "review_count": 87, "categories": [{"alias": "vietnamese", "title": "Vietnamese"}], "rating": 4.0, "coordinates": {"latitude": 44.9772682189941, "longitude": -93.0646820068359}, "transactions": ["delivery"], "price": "$", "location": {"address1": "850 Maryland Ave E", "address2": "", "address3": "", "city": "Saint Paul", "zip_code": "55106", "country": "US", "state": "MN", "display_address": ["850 Maryland Ave E", "Saint Paul, MN 55106"]}, "phone": "+16516003724", "display_phone": "(651) 600-3724", "distance": 4611.3162959483625}, {"id": "RoJKyCuYdotltTDP_2nRAA", "alias": "wild-orchid-maplewood", "name": "Wild Orchid", "image_url": "https://s3-media1.fl.yelpcdn.com/bphoto/OYPu_QrOwSnAwdZ6GAttiQ/o.jpg", "is_closed": false, "url": "https://www.yelp.com/biz/wild-orchid-maplewood?adjust_creative=vyhy616UjsMTA_hrWyg_5w&utm_campaign=yelp_api_v3&utm_medium=api_v3_business_search&utm_source=vyhy616UjsMTA_hrWyg_5w", "review_count": 93, "categories": [{"alias": "chinese", "title": "Chinese"}, {"alias": "vietnamese", "title": "Vietnamese"}, {"alias": "asianfusion", "title": "Asian Fusion"}], "rating": 3.5, "coordinates": {"latitude": 44.96240667, "longitude": -92.98532167}, "transactions": ["delivery", "pickup"], "price": "$", "location": {"address1": "705 Century Ave N", "address2": "Ste F", "address3": "", "city": "Maplewood", "zip_code": "55119", "country": "US", "state": "MN", "display_address": ["705 Century Ave N", "Ste F", "Maplewood, MN 55119"]}, "phone": "+16517388116", "display_phone": "(651) 738-8116", "distance": 10104.792985971428}, {"id": "bDqlNxFp0X8CCwPkAvs22g", "alias": "a-and-l-chinese-restaurant-inver-grove-heights", "name": "A & L Chinese Restaurant", "image_url": "https://s3-media2.fl.yelpcdn.com/bphoto/ueoqlLAdN06IrDC1bAingw/o.jpg", "is_closed": false, "url": "https://www.yelp.com/biz/a-and-l-chinese-restaurant-inver-grove-heights?adjust_creative=vyhy616UjsMTA_hrWyg_5w&utm_campaign=yelp_api_v3&utm_medium=api_v3_business_search&utm_source=vyhy616UjsMTA_hrWyg_5w", "review_count": 64, "categories": [{"alias": "cantonese", "title": "Cantonese"}, {"alias": "dimsum", "title": "Dim Sum"}], "rating": 3.5, "coordinates": {"latitude": 44.864723, "longitude": -93.041938}, "transactions": ["delivery"], "price": "$$", "location": {"address1": "5800 Cahill Ave", "address2": "", "address3": "", "city": "Inver Grove Heights", "zip_code": "55076", "country": "US", "state": "MN", "display_address": ["5800 Cahill Ave", "Inver Grove Heights, MN 55076"]}, "phone": "+16514531268", "display_phone": "(651) 453-1268", "distance": 11398.1632326571}, {"id": "Kh8JKH69jmuX6rPQglclIw", "alias": "pad-thai-restaurant-saint-paul-2", "name": "Pad Thai Restaurant", "image_url": "https://s3-media4.fl.yelpcdn.com/bphoto/Fxqlbx4tShGCZFH_81MQJw/o.jpg", "is_closed": false, "url": "https://www.yelp.com/biz/pad-thai-restaurant-saint-paul-2?adjust_creative=vyhy616UjsMTA_hrWyg_5w&utm_campaign=yelp_api_v3&utm_medium=api_v3_business_search&utm_source=vyhy616UjsMTA_hrWyg_5w", "review_count": 157, "categories": [{"alias": "thai", "title": "Thai"}], "rating": 3.5, "coordinates": {"latitude": 44.9401045, "longitude": -93.1715338}, "transactions": ["delivery"], "price": "$$", "location": {"address1": "1681 Grand Ave", "address2": "", "address3": "", "city": "Saint Paul", "zip_code": "55105", "country": "US", "state": "MN", "display_address": ["1681 Grand Ave", "Saint Paul, MN 55105"]}, "phone": "+16516901393", "display_phone": "(651) 690-1393", "distance": 4837.376239809876}, {"id": "YmxWwNkXrerJEujVYGqYgQ", "alias": "pho-ca-dao-saint-paul", "name": "Pho Ca Dao", "image_url": "https://s3-media1.fl.yelpcdn.com/bphoto/c7AGQ3zOSZfvMs9uwD2Uuw/o.jpg", "is_closed": false, "url": "https://www.yelp.com/biz/pho-ca-dao-saint-paul?adjust_creative=vyhy616UjsMTA_hrWyg_5w&utm_campaign=yelp_api_v3&utm_medium=api_v3_business_search&utm_source=vyhy616UjsMTA_hrWyg_5w", "review_count": 143, "categories": [{"alias": "vietnamese", "title": "Vietnamese"}], "rating": 4.0, "coordinates": {"latitude": 44.9559849, "longitude": -93.1184596}, "transactions": ["delivery"], "price": "$", "location": {"address1": "439 University Ave W", "address2": "", "address3": "", "city": "Saint Paul", "zip_code": "55103", "country": "US", "state": "MN", "display_address": ["439 University Ave W", "Saint Paul, MN 55103"]}, "phone": "+16512224615", "display_phone": "(651) 222-4615", "distance": 472.05149501757364}, {"id": "3v6KaKImudiDviXzqk80sg", "alias": "sole-caf\u00e9-saint-paul-3", "name": "Sole Caf\u00e9", "image_url": "https://s3-media1.fl.yelpcdn.com/bphoto/nKO0J6kWmGuTqZ03xSeGdg/o.jpg", "is_closed": false, "url": "https://www.yelp.com/biz/sole-caf%C3%A9-saint-paul-3?adjust_creative=vyhy616UjsMTA_hrWyg_5w&utm_campaign=yelp_api_v3&utm_medium=api_v3_business_search&utm_source=vyhy616UjsMTA_hrWyg_5w", "review_count": 106, "categories": [{"alias": "korean", "title": "Korean"}], "rating": 4.0, "coordinates": {"latitude": 44.96168, "longitude": -93.1668151}, "transactions": ["delivery"], "price": "$$", "location": {"address1": "684 Snelling Ave N", "address2": "", "address3": "", "city": "Saint Paul", "zip_code": "55104", "country": "US", "state": "MN", "display_address": ["684 Snelling Ave N", "Saint Paul, MN 55104"]}, "phone": "+16516442068", "display_phone": "(651) 644-2068", "distance": 4298.368516820817}, {"id": "smrdXQyTcbqOHnK_OuScDw", "alias": "my-huong-kitchen-minneapolis", "name": "My Huong Kitchen", "image_url": "https://s3-media2.fl.yelpcdn.com/bphoto/04dx5oVh7VbIG5YuG0_asw/o.jpg", "is_closed": false, "url": "https://www.yelp.com/biz/my-huong-kitchen-minneapolis?adjust_creative=vyhy616UjsMTA_hrWyg_5w&utm_campaign=yelp_api_v3&utm_medium=api_v3_business_search&utm_source=vyhy616UjsMTA_hrWyg_5w", "review_count": 390, "categories": [{"alias": "vietnamese", "title": "Vietnamese"}, {"alias": "bubbletea", "title": "Bubble Tea"}, {"alias": "creperies", "title": "Creperies"}], "rating": 4.5, "coordinates": {"latitude": 44.953101, "longitude": -93.278291}, "transactions": ["delivery", "pickup"], "price": "$", "location": {"address1": "2718 Nicollet Ave", "address2": "Ste 101B", "address3": "", "city": "Minneapolis", "zip_code": "55408", "country": "US", "state": "MN", "display_address": ["2718 Nicollet Ave", "Ste 101B", "Minneapolis, MN 55408"]}, "phone": "+16127022922", "display_phone": "(612) 702-2922", "distance": 12988.71541840168}, {"id": "N1k9rwt9ATED2ZFE7j_afg", "alias": "korea-restaurant-minneapolis", "name": "Korea Restaurant", "image_url": "https://s3-media1.fl.yelpcdn.com/bphoto/nXRAI2TIANxqXV65P49x0Q/o.jpg", "is_closed": false, "url": "https://www.yelp.com/biz/korea-restaurant-minneapolis?adjust_creative=vyhy616UjsMTA_hrWyg_5w&utm_campaign=yelp_api_v3&utm_medium=api_v3_business_search&utm_source=vyhy616UjsMTA_hrWyg_5w", "review_count": 176, "categories": [{"alias": "korean", "title": "Korean"}], "rating": 4.0, "coordinates": {"latitude": 44.97427, "longitude": -93.22675}, "transactions": ["delivery", "pickup"], "price": "$$", "location": {"address1": "211 Oak St SE", "address2": "", "address3": "", "city": "Minneapolis", "zip_code": "55414", "country": "US", "state": "MN", "display_address": ["211 Oak St SE", "Minneapolis, MN 55414"]}, "phone": "+16127460559", "display_phone": "(612) 746-0559", "distance": 9205.9050387271}, {"id": "1-lPP4b1D0FwwoR4_077vA", "alias": "ruam-mit-thai-lao-food-st-paul-4", "name": "Ruam Mit Thai + Lao Food", "image_url": "https://s3-media3.fl.yelpcdn.com/bphoto/fAkGHp0gBj_n5G1P8L5oxg/o.jpg", "is_closed": false, "url": "https://www.yelp.com/biz/ruam-mit-thai-lao-food-st-paul-4?adjust_creative=vyhy616UjsMTA_hrWyg_5w&utm_campaign=yelp_api_v3&utm_medium=api_v3_business_search&utm_source=vyhy616UjsMTA_hrWyg_5w", "review_count": 244, "categories": [{"alias": "thai", "title": "Thai"}, {"alias": "noodles", "title": "Noodles"}, {"alias": "laotian", "title": "Laotian"}], "rating": 3.5, "coordinates": {"latitude": 44.94783, "longitude": -93.09853}, "transactions": ["delivery", "pickup"], "price": "$$", "location": {"address1": "475 Saint Peter St", "address2": "", "address3": "", "city": "St Paul", "zip_code": "55102", "country": "US", "state": "MN", "display_address": ["475 Saint Peter St", "St Paul, MN 55102"]}, "phone": "+16512227871", "display_phone": "(651) 222-7871", "distance": 1342.892065173138}, {"id": "tm7OxLAOls3XpnZJv3MDcw", "alias": "zen-asia-white-bear-lake", "name": "Zen Asia", "image_url": "https://s3-media2.fl.yelpcdn.com/bphoto/SCdlfKEOQHMFzCaLnYMvCw/o.jpg", "is_closed": false, "url": "https://www.yelp.com/biz/zen-asia-white-bear-lake?adjust_creative=vyhy616UjsMTA_hrWyg_5w&utm_campaign=yelp_api_v3&utm_medium=api_v3_business_search&utm_source=vyhy616UjsMTA_hrWyg_5w", "review_count": 75, "categories": [{"alias": "vietnamese", "title": "Vietnamese"}], "rating": 4.0, "coordinates": {"latitude": 45.080623, "longitude": -93.059805}, "transactions": ["delivery"], "price": "$$", "location": {"address1": "1011 Meadowlands Dr", "address2": "", "address3": "", "city": "White Bear Lake", "zip_code": "55127", "country": "US", "state": "MN", "display_address": ["1011 Meadowlands Dr", "White Bear Lake, MN 55127"]}, "phone": "+16513401748", "display_phone": "(651) 340-1748", "distance": 14701.330743591012}, {"id": "ncPh1l-C41ZTjhY0Tv8E4g", "alias": "rockys-asian-bistro-and-bbq-blaine", "name": "Rockys Asian Bistro & BBQ", "image_url": "https://s3-media4.fl.yelpcdn.com/bphoto/5MTDTQ9wq-yRBIca8wF2Kg/o.jpg", "is_closed": false, "url": "https://www.yelp.com/biz/rockys-asian-bistro-and-bbq-blaine?adjust_creative=vyhy616UjsMTA_hrWyg_5w&utm_campaign=yelp_api_v3&utm_medium=api_v3_business_search&utm_source=vyhy616UjsMTA_hrWyg_5w", "review_count": 10, "categories": [{"alias": "asianfusion", "title": "Asian Fusion"}, {"alias": "chinese", "title": "Chinese"}, {"alias": "thai", "title": "Thai"}], "rating": 4.5, "coordinates": {"latitude": 45.190973, "longitude": -93.212797}, "transactions": ["delivery"], "location": {"address1": "2330 Cloud Dr NE", "address2": null, "address3": "", "city": "Blaine", "zip_code": "55449", "country": "US", "state": "MN", "display_address": ["2330 Cloud Dr NE", "Blaine, MN 55449"]}, "phone": "+17634326659", "display_phone": "(763) 432-6659", "distance": 27494.965689750843}], "total": 755, "region": {"center": {"longitude": -93.11325073242188, "latitude": 44.95392352668159}}}