{"businesses": [{"id": "tuvuXQ4XzlVd2cxoV785gw", "alias": "bangkok-thai-cuisine-ridgeland", "name": "Bangkok Thai Cuisine", "image_url": "https://s3-media3.fl.yelpcdn.com/bphoto/7Nq6Kl-xlRHmBDvuGQhMnw/o.jpg", "is_closed": false, "url": "https://www.yelp.com/biz/bangkok-thai-cuisine-ridgeland?adjust_creative=vyhy616UjsMTA_hrWyg_5w&utm_campaign=yelp_api_v3&utm_medium=api_v3_business_search&utm_source=vyhy616UjsMTA_hrWyg_5w", "review_count": 6, "categories": [{"alias": "thai", "title": "Thai"}], "rating": 5.0, "coordinates": {"latitude": 32.410192, "longitude": -90.105681}, "transactions": ["pickup", "delivery"], "location": {"address1": "6800 Old Canton Rd", "address2": "Ste 104", "address3": null, "city": "Ridgeland", "zip_code": "39157", "country": "US", "state": "MS", "display_address": ["6800 Old Canton Rd", "Ste 104", "Ridgeland, MS 39157"]}, "phone": "+17692338475", "display_phone": "(769) 233-8475", "distance": 27511.10675992599}, {"id": "UjpYcp8PfgfPsfTUPaBx6g", "alias": "krua-thai-brandon", "name": "Krua Thai", "image_url": "https://s3-media1.fl.yelpcdn.com/bphoto/OofrBrp6LCIBToMJSA-KOQ/o.jpg", "is_closed": false, "url": "https://www.yelp.com/biz/krua-thai-brandon?adjust_creative=vyhy616UjsMTA_hrWyg_5w&utm_campaign=yelp_api_v3&utm_medium=api_v3_business_search&utm_source=vyhy616UjsMTA_hrWyg_5w", "review_count": 35, "categories": [{"alias": "thai", "title": "Thai"}], "rating": 4.5, "coordinates": {"latitude": 32.38016, "longitude": -90.0423}, "transactions": ["delivery"], "location": {"address1": "1139 Old Fannin Rd", "address2": "Ste B", "address3": "", "city": "Brandon", "zip_code": "39047", "country": "US", "state": "MS", "display_address": ["1139 Old Fannin Rd", "Ste B", "Brandon, MS 39047"]}, "phone": "+17695727787", "display_phone": "(769) 572-7787", "distance": 25822.036658622685}, {"id": "3HrGBlBIyUAEUWXSFCwkuQ", "alias": "mr-chens-jackson", "name": "Mr Chen's", "image_url": "https://s3-media4.fl.yelpcdn.com/bphoto/OvRYNJ4hljlqRm7dMNrrlQ/o.jpg", "is_closed": false, "url": "https://www.yelp.com/biz/mr-chens-jackson?adjust_creative=vyhy616UjsMTA_hrWyg_5w&utm_campaign=yelp_api_v3&utm_medium=api_v3_business_search&utm_source=vyhy616UjsMTA_hrWyg_5w", "review_count": 121, "categories": [{"alias": "chinese", "title": "Chinese"}], "rating": 4.0, "coordinates": {"latitude": 32.377212, "longitude": -90.149499}, "transactions": ["pickup", "delivery"], "price": "$", "location": {"address1": "5465 Interstate 55 N Frontage Rd", "address2": "", "address3": "", "city": "Jackson", "zip_code": "39206", "country": "US", "state": "MS", "display_address": ["5465 Interstate 55 N Frontage Rd", "Jackson, MS 39206"]}, "phone": "+16019781865", "display_phone": "(601) 978-1865", "distance": 33012.73249684043}, {"id": "WuUYHEliEmaz8LN8cAnX9w", "alias": "little-saigon-sandwiches-and-sushi-brandon", "name": "Little Saigon Sandwiches And Sushi", "image_url": "https://s3-media3.fl.yelpcdn.com/bphoto/bFKUbp7itarb1B04WhBRqw/o.jpg", "is_closed": false, "url": "https://www.yelp.com/biz/little-saigon-sandwiches-and-sushi-brandon?adjust_creative=vyhy616UjsMTA_hrWyg_5w&utm_campaign=yelp_api_v3&utm_medium=api_v3_business_search&utm_source=vyhy616UjsMTA_hrWyg_5w", "review_count": 99, "categories": [{"alias": "sushi", "title": "Sushi Bars"}, {"alias": "vietnamese", "title": "Vietnamese"}], "rating": 4.5, "coordinates": {"latitude": 32.38382, "longitude": -90.04396}, "transactions": [], "price": "$", "location": {"address1": "115 Village Sq Dr", "address2": "Ste L", "address3": "", "city": "Brandon", "zip_code": "39047", "country": "US", "state": "MS", "display_address": ["115 Village Sq Dr", "Ste L", "Brandon, MS 39047"]}, "phone": "+16019190275", "display_phone": "(601) 919-0275", "distance": 25605.82692207171}, {"id": "jwQIe4yO7Kg10Ze4kh5UOA", "alias": "ding-how-asian-bistro-ridgeland", "name": "Ding How Asian Bistro", "image_url": "https://s3-media2.fl.yelpcdn.com/bphoto/9Mw2Yj6um-RERujNKHOWQQ/o.jpg", "is_closed": false, "url": "https://www.yelp.com/biz/ding-how-asian-bistro-ridgeland?adjust_creative=vyhy616UjsMTA_hrWyg_5w&utm_campaign=yelp_api_v3&utm_medium=api_v3_business_search&utm_source=vyhy616UjsMTA_hrWyg_5w", "review_count": 54, "categories": [{"alias": "chinese", "title": "Chinese"}, {"alias": "asianfusion", "title": "Asian Fusion"}, {"alias": "seafood", "title": "Seafood"}], "rating": 4.0, "coordinates": {"latitude": 32.4126578, "longitude": -90.106993}, "transactions": ["pickup", "delivery"], "price": "$$", "location": {"address1": "6955 Old Canton Rd", "address2": "Ste C", "address3": "", "city": "Ridgeland", "zip_code": "39157", "country": "US", "state": "MS", "display_address": ["6955 Old Canton Rd", "Ste C", "Ridgeland, MS 39157"]}, "phone": "+16019561717", "display_phone": "(601) 956-1717", "distance": 27427.10708778415}, {"id": "i8Ciihgkw1mAvtRgui_haQ", "alias": "pho-huong-ridgeland-2", "name": "Pho Huong", "image_url": "https://s3-media2.fl.yelpcdn.com/bphoto/szFeesBEgRl9QXxuPV5Q4w/o.jpg", "is_closed": false, "url": "https://www.yelp.com/biz/pho-huong-ridgeland-2?adjust_creative=vyhy616UjsMTA_hrWyg_5w&utm_campaign=yelp_api_v3&utm_medium=api_v3_business_search&utm_source=vyhy616UjsMTA_hrWyg_5w", "review_count": 87, "categories": [{"alias": "vietnamese", "title": "Vietnamese"}, {"alias": "noodles", "title": "Noodles"}, {"alias": "soup", "title": "Soup"}], "rating": 4.5, "coordinates": {"latitude": 32.4009576835231, "longitude": -90.1087649166584}, "transactions": ["delivery"], "price": "$$", "location": {"address1": "6547 Old Canton Rd", "address2": "", "address3": null, "city": "Ridgeland", "zip_code": "39157", "country": "US", "state": "MS", "display_address": ["6547 Old Canton Rd", "Ridgeland, MS 39157"]}, "phone": "+17692088086", "display_phone": "(769) 208-8086", "distance": 28387.74987317837}, {"id": "taAlR9n7F3IBFjrLxPjLrg", "alias": "ichiban-asian-bistro-and-go-flowood-flowood-5", "name": "Ichiban  Asian Bistro & Go-Flowood", "image_url": "https://s3-media2.fl.yelpcdn.com/bphoto/opCfQshoidCHORov3zdLag/o.jpg", "is_closed": false, "url": "https://www.yelp.com/biz/ichiban-asian-bistro-and-go-flowood-flowood-5?adjust_creative=vyhy616UjsMTA_hrWyg_5w&utm_campaign=yelp_api_v3&utm_medium=api_v3_business_search&utm_source=vyhy616UjsMTA_hrWyg_5w", "review_count": 137, "categories": [{"alias": "chinese", "title": "Chinese"}, {"alias": "buffets", "title": "Buffets"}, {"alias": "japanese", "title": "Japanese"}], "rating": 4.0, "coordinates": {"latitude": 32.33983733, "longitude": -90.06625133}, "transactions": ["delivery"], "price": "$$", "location": {"address1": "359 Ridgeway Dr", "address2": "", "address3": "", "city": "Flowood", "zip_code": "39232", "country": "US", "state": "MS", "display_address": ["359 Ridgeway Dr", "Flowood, MS 39232"]}, "phone": "+16019198879", "display_phone": "(601) 919-8879", "distance": 30767.78788228351}, {"id": "y-PYmhX-9V5b0VY9115YVg", "alias": "saigon-vietnamese-restaurant-flowood", "name": "Saigon Vietnamese Restaurant", "image_url": "https://s3-media4.fl.yelpcdn.com/bphoto/fLCtQR0gd1M5aOLyFQ0INw/o.jpg", "is_closed": false, "url": "https://www.yelp.com/biz/saigon-vietnamese-restaurant-flowood?adjust_creative=vyhy616UjsMTA_hrWyg_5w&utm_campaign=yelp_api_v3&utm_medium=api_v3_business_search&utm_source=vyhy616UjsMTA_hrWyg_5w", "review_count": 81, "categories": [{"alias": "vietnamese", "title": "Vietnamese"}], "rating": 4.0, "coordinates": {"latitude": 32.3301299, "longitude": -90.1145}, "transactions": ["delivery"], "price": "$", "location": {"address1": "2640 Lakeland Dr", "address2": "", "address3": " ", "city": "Flowood", "zip_code": "39232", "country": "US", "state": "MS", "display_address": ["2640 Lakeland Dr", "Flowood, MS 39232"]}, "phone": "+16014204848", "display_phone": "(601) 420-4848", "distance": 34407.61767532408}, {"id": "_TXPN0NDPbwMCYThiYa0Cw", "alias": "bonfire-grill-brandon", "name": "Bonfire Grill", "image_url": "https://s3-media3.fl.yelpcdn.com/bphoto/qb5WnHrG46vMWsNONwHjnA/o.jpg", "is_closed": false, "url": "https://www.yelp.com/biz/bonfire-grill-brandon?adjust_creative=vyhy616UjsMTA_hrWyg_5w&utm_campaign=yelp_api_v3&utm_medium=api_v3_business_search&utm_source=vyhy616UjsMTA_hrWyg_5w", "review_count": 28, "categories": [{"alias": "hotdogs", "title": "Fast Food"}, {"alias": "japanese", "title": "Japanese"}, {"alias": "thai", "title": "Thai"}], "rating": 4.0, "coordinates": {"latitude": 32.2827033996582, "longitude": -90.0259552001953}, "transactions": ["delivery"], "price": "$", "location": {"address1": "118 Service Dr", "address2": "Ste 17", "address3": null, "city": "Brandon", "zip_code": "39042", "country": "US", "state": "MS", "display_address": ["118 Service Dr", "Ste 17", "Brandon, MS 39042"]}, "phone": "+16015917211", "display_phone": "(601) 591-7211", "distance": 34512.73485889485}, {"id": "PJH7Q_gI2HCGiZL54k9avw", "alias": "ichiban-asian-bistro-and-go-madison-madison-3", "name": "Ichiban \u00a0Asian Bistro & Go - Madison", "image_url": "https://s3-media2.fl.yelpcdn.com/bphoto/RARVcDlv0aFrFvU63NzNcw/o.jpg", "is_closed": false, "url": "https://www.yelp.com/biz/ichiban-asian-bistro-and-go-madison-madison-3?adjust_creative=vyhy616UjsMTA_hrWyg_5w&utm_campaign=yelp_api_v3&utm_medium=api_v3_business_search&utm_source=vyhy616UjsMTA_hrWyg_5w", "review_count": 15, "categories": [{"alias": "chinese", "title": "Chinese"}, {"alias": "sushi", "title": "Sushi Bars"}, {"alias": "asianfusion", "title": "Asian Fusion"}], "rating": 3.5, "coordinates": {"latitude": 32.4646942, "longitude": -90.1322034}, "transactions": ["pickup", "delivery"], "location": {"address1": "146 Grandview Blvd", "address2": null, "address3": "", "city": "Madison", "zip_code": "39110", "country": "US", "state": "MS", "display_address": ["146 Grandview Blvd", "Madison, MS 39110"]}, "phone": "+16017072860", "display_phone": "(601) 707-2860", "distance": 26520.079942476223}, {"id": "kdEQOw2-zRiRghL77dy38A", "alias": "bangkok-thai-cuisine-richland", "name": "Bangkok Thai Cuisine", "image_url": "https://s3-media4.fl.yelpcdn.com/bphoto/6msfwGUfjFVys2UU7MznCA/o.jpg", "is_closed": false, "url": "https://www.yelp.com/biz/bangkok-thai-cuisine-richland?adjust_creative=vyhy616UjsMTA_hrWyg_5w&utm_campaign=yelp_api_v3&utm_medium=api_v3_business_search&utm_source=vyhy616UjsMTA_hrWyg_5w", "review_count": 9, "categories": [{"alias": "thai", "title": "Thai"}, {"alias": "bubbletea", "title": "Bubble Tea"}], "rating": 3.5, "coordinates": {"latitude": 32.218031, "longitude": -90.155075}, "transactions": ["pickup", "delivery"], "price": "$$", "location": {"address1": "1055 Hwy 49 S", "address2": "", "address3": null, "city": "Richland", "zip_code": "39218", "country": "US", "state": "MS", "display_address": ["1055 Hwy 49 S", "Richland, MS 39218"]}, "phone": "+17692162775", "display_phone": "(769) 216-2775", "distance": 46682.63068837716}, {"id": "yZyngExYxGLEtbZnhEs70g", "alias": "thai-tasty-jackson", "name": "Thai Tasty", "image_url": "https://s3-media1.fl.yelpcdn.com/bphoto/jYUzIwk8MbkTucgX7GugoQ/o.jpg", "is_closed": false, "url": "https://www.yelp.com/biz/thai-tasty-jackson?adjust_creative=vyhy616UjsMTA_hrWyg_5w&utm_campaign=yelp_api_v3&utm_medium=api_v3_business_search&utm_source=vyhy616UjsMTA_hrWyg_5w", "review_count": 72, "categories": [{"alias": "thai", "title": "Thai"}], "rating": 4.5, "coordinates": {"latitude": 32.3748317, "longitude": -90.1242014}, "transactions": ["delivery"], "price": "$$", "location": {"address1": "5050 Pkwy Dr", "address2": "", "address3": "", "city": "Jackson", "zip_code": "39211", "country": "US", "state": "MS", "display_address": ["5050 Pkwy Dr", "Jackson, MS 39211"]}, "phone": "+16015402534", "display_phone": "(601) 540-2534", "distance": 31406.547016042838}, {"id": "NDTYvZsaHeFDJwuVnYGyNQ", "alias": "poke-stop-jackson", "name": "Poke Stop", "image_url": "https://s3-media1.fl.yelpcdn.com/bphoto/lYhmgU14M4Yhk2pTLw1_oA/o.jpg", "is_closed": false, "url": "https://www.yelp.com/biz/poke-stop-jackson?adjust_creative=vyhy616UjsMTA_hrWyg_5w&utm_campaign=yelp_api_v3&utm_medium=api_v3_business_search&utm_source=vyhy616UjsMTA_hrWyg_5w", "review_count": 30, "categories": [{"alias": "hawaiian", "title": "Hawaiian"}, {"alias": "poke", "title": "Poke"}], "rating": 4.5, "coordinates": {"latitude": 32.3432296, "longitude": -90.1571391}, "transactions": [], "location": {"address1": "1200 Eastover Dr", "address2": "Ste 125", "address3": "", "city": "Jackson", "zip_code": "39211", "country": "US", "state": "MS", "display_address": ["1200 Eastover Dr", "Ste 125", "Jackson, MS 39211"]}, "phone": "+17692085667", "display_phone": "(769) 208-5667", "distance": 35966.5751953774}, {"id": "irZNxS8unTopfrBFaG5Xaw", "alias": "kellys-cajun-grill-ridgeland", "name": "Kelly's Cajun Grill", "image_url": "https://s3-media2.fl.yelpcdn.com/bphoto/T0dafbPHGBhpz5Mk4WN5xQ/o.jpg", "is_closed": false, "url": "https://www.yelp.com/biz/kellys-cajun-grill-ridgeland?adjust_creative=vyhy616UjsMTA_hrWyg_5w&utm_campaign=yelp_api_v3&utm_medium=api_v3_business_search&utm_source=vyhy616UjsMTA_hrWyg_5w", "review_count": 4, "categories": [{"alias": "cajun", "title": "Cajun/Creole"}, {"alias": "asianfusion", "title": "Asian Fusion"}], "rating": 5.0, "coordinates": {"latitude": 32.3996649, "longitude": -90.1313098}, "transactions": [], "location": {"address1": "1200 East Countyline Rd", "address2": "FC 5", "address3": "", "city": "Ridgeland", "zip_code": "39157", "country": "US", "state": "MS", "display_address": ["1200 East Countyline Rd", "FC 5", "Ridgeland, MS 39157"]}, "phone": "+16012061660", "display_phone": "(601) 206-1660", "distance": 29728.04854257674}, {"id": "dTiNHLSzjpyGmdoAk238zA", "alias": "fusion-japanese-and-thai-cuisine-flowood", "name": "Fusion Japanese & Thai Cuisine", "image_url": "https://s3-media3.fl.yelpcdn.com/bphoto/UWoZhKbQH4KkqX-vS9arqg/o.jpg", "is_closed": false, "url": "https://www.yelp.com/biz/fusion-japanese-and-thai-cuisine-flowood?adjust_creative=vyhy616UjsMTA_hrWyg_5w&utm_campaign=yelp_api_v3&utm_medium=api_v3_business_search&utm_source=vyhy616UjsMTA_hrWyg_5w", "review_count": 71, "categories": [{"alias": "japanese", "title": "Japanese"}, {"alias": "thai", "title": "Thai"}, {"alias": "asianfusion", "title": "Asian Fusion"}], "rating": 4.0, "coordinates": {"latitude": 32.32757, "longitude": -90.11984}, "transactions": ["delivery"], "price": "$$", "location": {"address1": "1002 Treetops Blvd", "address2": "", "address3": "", "city": "Flowood", "zip_code": "39232", "country": "US", "state": "MS", "display_address": ["1002 Treetops Blvd", "Flowood, MS 39232"]}, "phone": "+16016647588", "display_phone": "(601) 664-7588", "distance": 34917.26119018569}, {"id": "F-zvjHrVODjaay8zT_caeg", "alias": "fuji-japanese-sushi-and-grill-brandon-2", "name": "Fuji Japanese Sushi & Grill", "image_url": "https://s3-media4.fl.yelpcdn.com/bphoto/hxpDINPuR58-Dc9pmlDAPg/o.jpg", "is_closed": false, "url": "https://www.yelp.com/biz/fuji-japanese-sushi-and-grill-brandon-2?adjust_creative=vyhy616UjsMTA_hrWyg_5w&utm_campaign=yelp_api_v3&utm_medium=api_v3_business_search&utm_source=vyhy616UjsMTA_hrWyg_5w", "review_count": 27, "categories": [{"alias": "sushi", "title": "Sushi Bars"}, {"alias": "asianfusion", "title": "Asian Fusion"}], "rating": 4.0, "coordinates": {"latitude": 32.2827399, "longitude": -90.02476}, "transactions": ["delivery"], "price": "$$", "location": {"address1": "203 Woodgate Dr S", "address2": null, "address3": null, "city": "Brandon", "zip_code": "39042", "country": "US", "state": "MS", "display_address": ["203 Woodgate Dr S", "Brandon, MS 39042"]}, "phone": "+16018241488", "display_phone": "(601) 824-1488", "distance": 34451.19140508621}, {"id": "hLo7rsLQKgeEl-GmG4lIyA", "alias": "little-tokyo-japanese-restaurant-ridgeland", "name": "Little Tokyo Japanese Restaurant", "image_url": "https://s3-media2.fl.yelpcdn.com/bphoto/IYwK30AooSKA4tMfo0u3XA/o.jpg", "is_closed": false, "url": "https://www.yelp.com/biz/little-tokyo-japanese-restaurant-ridgeland?adjust_creative=vyhy616UjsMTA_hrWyg_5w&utm_campaign=yelp_api_v3&utm_medium=api_v3_business_search&utm_source=vyhy616UjsMTA_hrWyg_5w", "review_count": 33, "categories": [{"alias": "japanese", "title": "Japanese"}], "rating": 4.0, "coordinates": {"latitude": 32.400498983793, "longitude": -90.1154560438422}, "transactions": ["pickup", "delivery"], "price": "$$", "location": {"address1": "876 Avery Blvd N", "address2": "", "address3": "", "city": "Ridgeland", "zip_code": "39157", "country": "US", "state": "MS", "display_address": ["876 Avery Blvd N", "Ridgeland, MS 39157"]}, "phone": "+16019913800", "display_phone": "(601) 991-3800", "distance": 28899.545805881884}, {"id": "HqCCxNDPzqRXVt0HRHZ3oA", "alias": "wasabi-sushi-and-grill-ridgeland", "name": "Wasabi Sushi & Grill", "image_url": "https://s3-media2.fl.yelpcdn.com/bphoto/6fjcCNG0LJrqIxDOWVb58Q/o.jpg", "is_closed": false, "url": "https://www.yelp.com/biz/wasabi-sushi-and-grill-ridgeland?adjust_creative=vyhy616UjsMTA_hrWyg_5w&utm_campaign=yelp_api_v3&utm_medium=api_v3_business_search&utm_source=vyhy616UjsMTA_hrWyg_5w", "review_count": 28, "categories": [{"alias": "japanese", "title": "Japanese"}, {"alias": "sushi", "title": "Sushi Bars"}], "rating": 3.5, "coordinates": {"latitude": 32.445476, "longitude": -90.152455}, "transactions": ["delivery"], "location": {"address1": "1107 Highland Colony Pkwy", "address2": "Ste 111", "address3": null, "city": "Ridgeland", "zip_code": "39157", "country": "US", "state": "MS", "display_address": ["1107 Highland Colony Pkwy", "Ste 111", "Ridgeland, MS 39157"]}, "phone": "+16018988849", "display_phone": "(601) 898-8849", "distance": 28987.2866077778}, {"id": "8ySNp2k_Zx_TczIrSY1Pog", "alias": "edo-japanese-restaurant-jackson-3", "name": "EDO Japanese Restaurant", "image_url": "https://s3-media3.fl.yelpcdn.com/bphoto/-w99BWAfqAL3aZKxFt9Hnw/o.jpg", "is_closed": false, "url": "https://www.yelp.com/biz/edo-japanese-restaurant-jackson-3?adjust_creative=vyhy616UjsMTA_hrWyg_5w&utm_campaign=yelp_api_v3&utm_medium=api_v3_business_search&utm_source=vyhy616UjsMTA_hrWyg_5w", "review_count": 96, "categories": [{"alias": "japanese", "title": "Japanese"}, {"alias": "asianfusion", "title": "Asian Fusion"}, {"alias": "sushi", "title": "Sushi Bars"}], "rating": 4.5, "coordinates": {"latitude": 32.38589, "longitude": -90.14162}, "transactions": [], "price": "$$", "location": {"address1": "5834 Ridgewood Rd", "address2": "Ste B", "address3": "", "city": "Jackson", "zip_code": "39211", "country": "US", "state": "MS", "display_address": ["5834 Ridgewood Rd", "Ste B", "Jackson, MS 39211"]}, "phone": "+16018998518", "display_phone": "(601) 899-8518", "distance": 31822.97513305441}, {"id": "8csr7t9Lp2Dh0xi29DRLMA", "alias": "thai-time-thai-and-sushi-restaurant-jackson-4", "name": "Thai Time Thai and Sushi Restaurant", "image_url": "https://s3-media1.fl.yelpcdn.com/bphoto/Z2DLrwVa7hEK3rCLwfvsRw/o.jpg", "is_closed": false, "url": "https://www.yelp.com/biz/thai-time-thai-and-sushi-restaurant-jackson-4?adjust_creative=vyhy616UjsMTA_hrWyg_5w&utm_campaign=yelp_api_v3&utm_medium=api_v3_business_search&utm_source=vyhy616UjsMTA_hrWyg_5w", "review_count": 85, "categories": [{"alias": "thai", "title": "Thai"}, {"alias": "japanese", "title": "Japanese"}, {"alias": "sushi", "title": "Sushi Bars"}], "rating": 4.0, "coordinates": {"latitude": 32.3617706298828, "longitude": -90.149543762207}, "transactions": ["pickup", "delivery"], "price": "$$", "location": {"address1": "1405 Old Square Rd", "address2": "", "address3": null, "city": "Jackson", "zip_code": "39211", "country": "US", "state": "MS", "display_address": ["1405 Old Square Rd", "Jackson, MS 39211"]}, "phone": "+16019829991", "display_phone": "(601) 982-9991", "distance": 34143.8711350579}, {"id": "FX0J48U-EHPlmFjsSFrs1Q", "alias": "china-cafe-flowood", "name": "China Cafe", "image_url": "https://s3-media4.fl.yelpcdn.com/bphoto/LM1emrXejPD_jkW6T-R4pQ/o.jpg", "is_closed": false, "url": "https://www.yelp.com/biz/china-cafe-flowood?adjust_creative=vyhy616UjsMTA_hrWyg_5w&utm_campaign=yelp_api_v3&utm_medium=api_v3_business_search&utm_source=vyhy616UjsMTA_hrWyg_5w", "review_count": 42, "categories": [{"alias": "chinese", "title": "Chinese"}], "rating": 4.0, "coordinates": {"latitude": 32.3423358680903, "longitude": -90.0629746126414}, "transactions": ["delivery"], "price": "$", "location": {"address1": "160 Promenade Blvd", "address2": "", "address3": "", "city": "Flowood", "zip_code": "39232", "country": "US", "state": "MS", "display_address": ["160 Promenade Blvd", "Flowood, MS 39232"]}, "phone": "+16019191388", "display_phone": "(601) 919-1388", "distance": 30262.767932160736}, {"id": "4xhhdOHzJlvpTxVTvEvacg", "alias": "oriental-supermarket-and-restaurant-jackson", "name": "Oriental Supermarket & Restaurant", "image_url": "https://s3-media2.fl.yelpcdn.com/bphoto/oHipjjGWhBHEKU1r97Q27A/o.jpg", "is_closed": false, "url": "https://www.yelp.com/biz/oriental-supermarket-and-restaurant-jackson?adjust_creative=vyhy616UjsMTA_hrWyg_5w&utm_campaign=yelp_api_v3&utm_medium=api_v3_business_search&utm_source=vyhy616UjsMTA_hrWyg_5w", "review_count": 42, "categories": [{"alias": "taiwanese", "title": "Taiwanese"}, {"alias": "chinese", "title": "Chinese"}, {"alias": "intlgrocery", "title": "International Grocery"}], "rating": 4.0, "coordinates": {"latitude": 32.37748, "longitude": -90.14926}, "transactions": ["delivery"], "price": "$$", "location": {"address1": "5465 I-55 N", "address2": "", "address3": "", "city": "Jackson", "zip_code": "39206", "country": "US", "state": "MS", "display_address": ["5465 I-55 N", "Jackson, MS 39206"]}, "phone": "+16019781865", "display_phone": "(601) 978-1865", "distance": 33005.556093382496}, {"id": "7EGV2R0DQCfNGfNwXeEdXQ", "alias": "great-wall-chinese-restaurant-clinton", "name": "Great Wall Chinese Restaurant", "image_url": "https://s3-media3.fl.yelpcdn.com/bphoto/a6afo8XLx4MNe5k2zJuOVA/o.jpg", "is_closed": false, "url": "https://www.yelp.com/biz/great-wall-chinese-restaurant-clinton?adjust_creative=vyhy616UjsMTA_hrWyg_5w&utm_campaign=yelp_api_v3&utm_medium=api_v3_business_search&utm_source=vyhy616UjsMTA_hrWyg_5w", "review_count": 26, "categories": [{"alias": "chinese", "title": "Chinese"}], "rating": 4.0, "coordinates": {"latitude": 32.3348477482796, "longitude": -90.3139800578356}, "transactions": ["delivery"], "price": "$", "location": {"address1": "218 Clinton Blvd", "address2": "", "address3": "", "city": "Clinton", "zip_code": "39056", "country": "US", "state": "MS", "display_address": ["218 Clinton Blvd", "Clinton, MS 39056"]}, "phone": "+16019254922", "display_phone": "(601) 925-4922", "distance": 48337.91160136309}, {"id": "ATQ6Oso97hhx-8KwILfokQ", "alias": "chopstick-flowood", "name": "Chopstick", "image_url": "https://s3-media3.fl.yelpcdn.com/bphoto/pJ-uUeVWoCK-aB-W6HJzCQ/o.jpg", "is_closed": false, "url": "https://www.yelp.com/biz/chopstick-flowood?adjust_creative=vyhy616UjsMTA_hrWyg_5w&utm_campaign=yelp_api_v3&utm_medium=api_v3_business_search&utm_source=vyhy616UjsMTA_hrWyg_5w", "review_count": 6, "categories": [{"alias": "chinese", "title": "Chinese"}], "rating": 2.0, "coordinates": {"latitude": 32.35368, "longitude": -90.02195}, "transactions": ["delivery"], "location": {"address1": "901 Lakeland Pl", "address2": "", "address3": "", "city": "Flowood", "zip_code": "39232", "country": "US", "state": "MS", "display_address": ["901 Lakeland Pl", "Flowood, MS 39232"]}, "phone": "+17695725725", "display_phone": "(769) 572-5725", "distance": 27286.927134850095}, {"id": "5b7e7EvbB6sT32S9ZBaq1Q", "alias": "kamloon-chinese-restaurant-ridgeland", "name": "Kamloon Chinese Restaurant", "image_url": "https://s3-media4.fl.yelpcdn.com/bphoto/EZkDDPSQrSQ4_iQaZCeBcw/o.jpg", "is_closed": false, "url": "https://www.yelp.com/biz/kamloon-chinese-restaurant-ridgeland?adjust_creative=vyhy616UjsMTA_hrWyg_5w&utm_campaign=yelp_api_v3&utm_medium=api_v3_business_search&utm_source=vyhy616UjsMTA_hrWyg_5w", "review_count": 16, "categories": [{"alias": "chinese", "title": "Chinese"}], "rating": 4.0, "coordinates": {"latitude": 32.41981, "longitude": -90.133407}, "transactions": ["delivery"], "price": "$", "location": {"address1": "398 Hwy 51", "address2": "Ste 110", "address3": null, "city": "Ridgeland", "zip_code": "39157", "country": "US", "state": "MS", "display_address": ["398 Hwy 51", "Ste 110", "Ridgeland, MS 39157"]}, "phone": "+16018982688", "display_phone": "(601) 898-2688", "distance": 28939.71291975191}, {"id": "ClFFq1QuW9aUsViXCtaazg", "alias": "gourmet-chinese-restaurant-ridgeland", "name": "Gourmet Chinese Restaurant", "image_url": "https://s3-media3.fl.yelpcdn.com/bphoto/trtDRvLCmK7VJ3ocXjBMog/o.jpg", "is_closed": false, "url": "https://www.yelp.com/biz/gourmet-chinese-restaurant-ridgeland?adjust_creative=vyhy616UjsMTA_hrWyg_5w&utm_campaign=yelp_api_v3&utm_medium=api_v3_business_search&utm_source=vyhy616UjsMTA_hrWyg_5w", "review_count": 28, "categories": [{"alias": "chinese", "title": "Chinese"}, {"alias": "seafood", "title": "Seafood"}, {"alias": "noodles", "title": "Noodles"}], "rating": 4.0, "coordinates": {"latitude": 32.434653851637, "longitude": -90.1260594153479}, "transactions": ["delivery"], "price": "$", "location": {"address1": "587 Hwy 51", "address2": "Ste K", "address3": "", "city": "Ridgeland", "zip_code": "39157", "country": "US", "state": "MS", "display_address": ["587 Hwy 51", "Ste K", "Ridgeland, MS 39157"]}, "phone": "+16016051061", "display_phone": "(601) 605-1061", "distance": 27452.19831981207}, {"id": "K3ILWljavfM5t-rM3cfOiQ", "alias": "ichiban-hibachi-and-sushi-flowood-flowood", "name": "Ichiban Hibachi & Sushi- Flowood", "image_url": "https://s3-media4.fl.yelpcdn.com/bphoto/q9UXvdoioI9xR-jWOu1GzQ/o.jpg", "is_closed": false, "url": "https://www.yelp.com/biz/ichiban-hibachi-and-sushi-flowood-flowood?adjust_creative=vyhy616UjsMTA_hrWyg_5w&utm_campaign=yelp_api_v3&utm_medium=api_v3_business_search&utm_source=vyhy616UjsMTA_hrWyg_5w", "review_count": 43, "categories": [{"alias": "japanese", "title": "Japanese"}, {"alias": "sushi", "title": "Sushi Bars"}, {"alias": "asianfusion", "title": "Asian Fusion"}], "rating": 3.5, "coordinates": {"latitude": 32.3397314, "longitude": -90.0717326}, "transactions": ["delivery", "pickup"], "price": "$$", "location": {"address1": "153 Ridge Way", "address2": "", "address3": "", "city": "Flowood", "zip_code": "39232", "country": "US", "state": "MS", "display_address": ["153 Ridge Way", "Flowood, MS 39232"]}, "phone": "+16019190097", "display_phone": "(601) 919-0097", "distance": 31123.398596083054}, {"id": "w44XIg46I2if01T1qvRC_w", "alias": "osaka-japanese-restaurant-flowood", "name": "Osaka Japanese Restaurant", "image_url": "https://s3-media4.fl.yelpcdn.com/bphoto/7UBIxrV7kVZl6gG45tElMw/o.jpg", "is_closed": false, "url": "https://www.yelp.com/biz/osaka-japanese-restaurant-flowood?adjust_creative=vyhy616UjsMTA_hrWyg_5w&utm_campaign=yelp_api_v3&utm_medium=api_v3_business_search&utm_source=vyhy616UjsMTA_hrWyg_5w", "review_count": 44, "categories": [{"alias": "japanese", "title": "Japanese"}], "rating": 4.0, "coordinates": {"latitude": 32.3392914, "longitude": -90.0886739}, "transactions": ["delivery"], "price": "$$", "location": {"address1": "4325 Lakeland Dr", "address2": "", "address3": "", "city": "Flowood", "zip_code": "39232", "country": "US", "state": "MS", "display_address": ["4325 Lakeland Dr", "Flowood, MS 39232"]}, "phone": "+16019367000", "display_phone": "(601) 936-7000", "distance": 32226.011062958365}, {"id": "PD7tPE01Q2WVL45_QAhlkg", "alias": "hot-bowl-mongolian-grill-clinton", "name": "Hot Bowl Mongolian Grill", "image_url": "https://s3-media4.fl.yelpcdn.com/bphoto/eHccVHmgEmuN035CH4oHBg/o.jpg", "is_closed": false, "url": "https://www.yelp.com/biz/hot-bowl-mongolian-grill-clinton?adjust_creative=vyhy616UjsMTA_hrWyg_5w&utm_campaign=yelp_api_v3&utm_medium=api_v3_business_search&utm_source=vyhy616UjsMTA_hrWyg_5w", "review_count": 45, "categories": [{"alias": "mongolian", "title": "Mongolian"}, {"alias": "chinese", "title": "Chinese"}], "rating": 4.0, "coordinates": {"latitude": 32.3331413, "longitude": -90.3233566}, "transactions": ["delivery"], "price": "$", "location": {"address1": "322 Hwy 80 E", "address2": "", "address3": "Ste 1&2", "city": "Clinton", "zip_code": "39056", "country": "US", "state": "MS", "display_address": ["322 Hwy 80 E", "Ste 1&2", "Clinton, MS 39056"]}, "phone": "+16014884545", "display_phone": "(601) 488-4545", "distance": 49063.25325926695}, {"id": "Ic7VtjFgRJxcbwfAIyXW4Q", "alias": "nagoya-japanese-restaurant-madison", "name": "Nagoya Japanese Restaurant", "image_url": "https://s3-media2.fl.yelpcdn.com/bphoto/6qLxNtqHSWEofHbhM6uMew/o.jpg", "is_closed": false, "url": "https://www.yelp.com/biz/nagoya-japanese-restaurant-madison?adjust_creative=vyhy616UjsMTA_hrWyg_5w&utm_campaign=yelp_api_v3&utm_medium=api_v3_business_search&utm_source=vyhy616UjsMTA_hrWyg_5w", "review_count": 43, "categories": [{"alias": "japanese", "title": "Japanese"}, {"alias": "sushi", "title": "Sushi Bars"}, {"alias": "asianfusion", "title": "Asian Fusion"}], "rating": 3.5, "coordinates": {"latitude": 32.4757817, "longitude": -90.1420127}, "transactions": ["delivery"], "price": "$$", "location": {"address1": "111 Colony Crossing", "address2": "Ste 380", "address3": null, "city": "Madison", "zip_code": "39110", "country": "US", "state": "MS", "display_address": ["111 Colony Crossing", "Ste 380", "Madison, MS 39110"]}, "phone": "+16018565678", "display_phone": "(601) 856-5678", "distance": 26662.752821006252}, {"id": "GYaLep29cyy4ngtZBSDedA", "alias": "ichiban-asian-bistro-and-go-pearl-pearl-2", "name": "Ichiban  Asian Bistro & Go-Pearl", "image_url": "https://s3-media4.fl.yelpcdn.com/bphoto/H4GhJOFs0ugSeGUdP6M_hg/o.jpg", "is_closed": false, "url": "https://www.yelp.com/biz/ichiban-asian-bistro-and-go-pearl-pearl-2?adjust_creative=vyhy616UjsMTA_hrWyg_5w&utm_campaign=yelp_api_v3&utm_medium=api_v3_business_search&utm_source=vyhy616UjsMTA_hrWyg_5w", "review_count": 89, "categories": [{"alias": "buffets", "title": "Buffets"}, {"alias": "chinese", "title": "Chinese"}], "rating": 4.0, "coordinates": {"latitude": 32.2665533, "longitude": -90.1417364}, "transactions": ["delivery"], "price": "$$", "location": {"address1": "433 Riverwind Dr", "address2": "", "address3": "", "city": "Pearl", "zip_code": "39208", "country": "US", "state": "MS", "display_address": ["433 Riverwind Dr", "Pearl, MS 39208"]}, "phone": "+16017062833", "display_phone": "(601) 706-2833", "distance": 41580.47480099082}, {"id": "MxIeeQ7gQR2p0xCEq9wdoA", "alias": "bonsai-ii-clinton", "name": "Bonsai II", "image_url": "https://s3-media2.fl.yelpcdn.com/bphoto/Um6uiWXSCUEU6O3NU6SwMQ/o.jpg", "is_closed": false, "url": "https://www.yelp.com/biz/bonsai-ii-clinton?adjust_creative=vyhy616UjsMTA_hrWyg_5w&utm_campaign=yelp_api_v3&utm_medium=api_v3_business_search&utm_source=vyhy616UjsMTA_hrWyg_5w", "review_count": 28, "categories": [{"alias": "japanese", "title": "Japanese"}, {"alias": "sushi", "title": "Sushi Bars"}, {"alias": "steak", "title": "Steakhouses"}], "rating": 3.5, "coordinates": {"latitude": 32.3252198, "longitude": -90.3272019}, "transactions": ["delivery"], "price": "$$", "location": {"address1": "102 Clinton Center Dr", "address2": "", "address3": "", "city": "Clinton", "zip_code": "39056", "country": "US", "state": "MS", "display_address": ["102 Clinton Center Dr", "Clinton, MS 39056"]}, "phone": "+16019244448", "display_phone": "(601) 924-4448", "distance": 49896.947123464386}, {"id": "IKNJFdrR_XlVR1VokMQ4UA", "alias": "wok-to-go-jackson", "name": "Wok To Go", "image_url": "https://s3-media1.fl.yelpcdn.com/bphoto/hn-HXE_aEWSKxcBB3dAOdg/o.jpg", "is_closed": false, "url": "https://www.yelp.com/biz/wok-to-go-jackson?adjust_creative=vyhy616UjsMTA_hrWyg_5w&utm_campaign=yelp_api_v3&utm_medium=api_v3_business_search&utm_source=vyhy616UjsMTA_hrWyg_5w", "review_count": 16, "categories": [{"alias": "chinese", "title": "Chinese"}], "rating": 4.5, "coordinates": {"latitude": 32.351721, "longitude": -90.174468}, "transactions": ["delivery"], "price": "$", "location": {"address1": "4329 N State St", "address2": null, "address3": null, "city": "Jackson", "zip_code": "39206", "country": "US", "state": "MS", "display_address": ["4329 N State St", "Jackson, MS 39206"]}, "phone": "+16019812112", "display_phone": "(601) 981-2112", "distance": 36635.96905610282}, {"id": "IGoaXNCPqhDh0JU_VKKJeQ", "alias": "china-wok-outlets-of-ms-pearl-2", "name": "China Wok - Outlets of MS", "image_url": "https://s3-media4.fl.yelpcdn.com/bphoto/2OaefHysgln3TyNHDB5Gng/o.jpg", "is_closed": false, "url": "https://www.yelp.com/biz/china-wok-outlets-of-ms-pearl-2?adjust_creative=vyhy616UjsMTA_hrWyg_5w&utm_campaign=yelp_api_v3&utm_medium=api_v3_business_search&utm_source=vyhy616UjsMTA_hrWyg_5w", "review_count": 13, "categories": [{"alias": "chinese", "title": "Chinese"}, {"alias": "hotdogs", "title": "Fast Food"}, {"alias": "asianfusion", "title": "Asian Fusion"}], "rating": 4.0, "coordinates": {"latitude": 32.2727877774357, "longitude": -90.1526811367706}, "transactions": ["pickup", "delivery"], "price": "$", "location": {"address1": "200 Bass Pro Dr", "address2": "Ste 107", "address3": "", "city": "Pearl", "zip_code": "39208", "country": "US", "state": "MS", "display_address": ["200 Bass Pro Dr", "Ste 107", "Pearl, MS 39208"]}, "phone": "+17695247771", "display_phone": "(769) 524-7771", "distance": 41610.69257809336}, {"id": "0WRuSA9rWKEZFzMHf3OSrw", "alias": "ty-bowls-clinton", "name": "TY Bowls", "image_url": "https://s3-media4.fl.yelpcdn.com/bphoto/2MOuna_xMKR6kx6SadqkUw/o.jpg", "is_closed": false, "url": "https://www.yelp.com/biz/ty-bowls-clinton?adjust_creative=vyhy616UjsMTA_hrWyg_5w&utm_campaign=yelp_api_v3&utm_medium=api_v3_business_search&utm_source=vyhy616UjsMTA_hrWyg_5w", "review_count": 26, "categories": [{"alias": "chinese", "title": "Chinese"}, {"alias": "noodles", "title": "Noodles"}, {"alias": "bubbletea", "title": "Bubble Tea"}], "rating": 3.5, "coordinates": {"latitude": 32.3339962931012, "longitude": -90.3264640632522}, "transactions": ["pickup", "delivery"], "price": "$", "location": {"address1": "103 Hwy 80 E", "address2": null, "address3": "", "city": "Clinton", "zip_code": "39056", "country": "US", "state": "MS", "display_address": ["103 Hwy 80 E", "Clinton, MS 39056"]}, "phone": "+16014884194", "display_phone": "(601) 488-4194", "distance": 49340.919791777786}, {"id": "ifMBiCXNjnYaySRoyWeBoA", "alias": "fusion-cuisine-madison-2", "name": "Fusion Cuisine", "image_url": "https://s3-media1.fl.yelpcdn.com/bphoto/dKE-95s2vWFMyKdUvUUChQ/o.jpg", "is_closed": false, "url": "https://www.yelp.com/biz/fusion-cuisine-madison-2?adjust_creative=vyhy616UjsMTA_hrWyg_5w&utm_campaign=yelp_api_v3&utm_medium=api_v3_business_search&utm_source=vyhy616UjsMTA_hrWyg_5w", "review_count": 54, "categories": [{"alias": "japanese", "title": "Japanese"}, {"alias": "thai", "title": "Thai"}], "rating": 4.0, "coordinates": {"latitude": 32.4613844353338, "longitude": -90.1109463628992}, "transactions": ["delivery"], "price": "$$", "location": {"address1": "1030 A Hwy 51", "address2": "", "address3": "", "city": "Madison", "zip_code": "39110", "country": "US", "state": "MS", "display_address": ["1030 A Hwy 51", "Madison, MS 39110"]}, "phone": "+16017907999", "display_phone": "(601) 790-7999", "distance": 24718.968699156365}, {"id": "aGmjirEZgMGgJSbi9z7-7w", "alias": "ichiban-hibachi-and-sushi-pearl-pearl", "name": "Ichiban Hibachi & Sushi - Pearl", "image_url": "https://s3-media2.fl.yelpcdn.com/bphoto/MsSjWXb8beRcQOWBq6IeYg/o.jpg", "is_closed": false, "url": "https://www.yelp.com/biz/ichiban-hibachi-and-sushi-pearl-pearl?adjust_creative=vyhy616UjsMTA_hrWyg_5w&utm_campaign=yelp_api_v3&utm_medium=api_v3_business_search&utm_source=vyhy616UjsMTA_hrWyg_5w", "review_count": 61, "categories": [{"alias": "sushi", "title": "Sushi Bars"}, {"alias": "teppanyaki", "title": "Teppanyaki"}, {"alias": "lounges", "title": "Lounges"}], "rating": 4.0, "coordinates": {"latitude": 32.2680856585078, "longitude": -90.1433522222223}, "transactions": ["delivery"], "price": "$$", "location": {"address1": "3 Mac And Bones Blvd", "address2": "", "address3": null, "city": "Pearl", "zip_code": "39208", "country": "US", "state": "MS", "display_address": ["3 Mac And Bones Blvd", "Pearl, MS 39208"]}, "phone": "+17692082688", "display_phone": "(769) 208-2688", "distance": 41494.57769599326}, {"id": "DaOxI7gOfO80KbQ90GSduA", "alias": "mikado-japanese-express-pearl", "name": "Mikado Japanese Express", "image_url": "https://s3-media4.fl.yelpcdn.com/bphoto/uGzpD7T3CqR3zIfZr4Wo6w/o.jpg", "is_closed": false, "url": "https://www.yelp.com/biz/mikado-japanese-express-pearl?adjust_creative=vyhy616UjsMTA_hrWyg_5w&utm_campaign=yelp_api_v3&utm_medium=api_v3_business_search&utm_source=vyhy616UjsMTA_hrWyg_5w", "review_count": 31, "categories": [{"alias": "japanese", "title": "Japanese"}, {"alias": "steak", "title": "Steakhouses"}, {"alias": "sushi", "title": "Sushi Bars"}], "rating": 3.0, "coordinates": {"latitude": 32.26716, "longitude": -90.1361}, "transactions": ["delivery"], "price": "$", "location": {"address1": "404 Riverwind Dr", "address2": "Ste A", "address3": "", "city": "Pearl", "zip_code": "39208", "country": "US", "state": "MS", "display_address": ["404 Riverwind Dr", "Ste A", "Pearl, MS 39208"]}, "phone": "+16019399209", "display_phone": "(601) 939-9209", "distance": 41143.679644088064}, {"id": "pqZeCmHeyOXMeMVGZfQxgg", "alias": "sakura-bana-jackson", "name": "Sakura Bana", "image_url": "https://s3-media1.fl.yelpcdn.com/bphoto/Wver4DzyHooEXeHEkFVNbQ/o.jpg", "is_closed": false, "url": "https://www.yelp.com/biz/sakura-bana-jackson?adjust_creative=vyhy616UjsMTA_hrWyg_5w&utm_campaign=yelp_api_v3&utm_medium=api_v3_business_search&utm_source=vyhy616UjsMTA_hrWyg_5w", "review_count": 52, "categories": [{"alias": "japanese", "title": "Japanese"}, {"alias": "sushi", "title": "Sushi Bars"}], "rating": 4.0, "coordinates": {"latitude": 32.361428, "longitude": -90.149507}, "transactions": ["delivery"], "price": "$$", "location": {"address1": "4800 I 55 N", "address2": "", "address3": "", "city": "Jackson", "zip_code": "39211", "country": "US", "state": "MS", "display_address": ["4800 I 55 N", "Jackson, MS 39211"]}, "phone": "+16019823035", "display_phone": "(601) 982-3035", "distance": 34165.12817631166}, {"id": "eT9ddW-sCUo6y5AnUM5JxQ", "alias": "takara-clinton", "name": "Takara", "image_url": "https://s3-media1.fl.yelpcdn.com/bphoto/4an2hqaqAE1pqwIuy0CeDQ/o.jpg", "is_closed": false, "url": "https://www.yelp.com/biz/takara-clinton?adjust_creative=vyhy616UjsMTA_hrWyg_5w&utm_campaign=yelp_api_v3&utm_medium=api_v3_business_search&utm_source=vyhy616UjsMTA_hrWyg_5w", "review_count": 26, "categories": [{"alias": "japanese", "title": "Japanese"}, {"alias": "sushi", "title": "Sushi Bars"}], "rating": 3.5, "coordinates": {"latitude": 32.329203, "longitude": -90.30416}, "transactions": ["delivery"], "price": "$$", "location": {"address1": "951 Hwy 80 E", "address2": "Ste B", "address3": "", "city": "Clinton", "zip_code": "39056", "country": "US", "state": "MS", "display_address": ["951 Hwy 80 E", "Ste B", "Clinton, MS 39056"]}, "phone": "+16019258777", "display_phone": "(601) 925-8777", "distance": 47866.936219527364}, {"id": "-8nPZODubztwxB9cTPeiLQ", "alias": "oec-japanese-express-brandon-2", "name": "OEC Japanese Express", "image_url": "https://s3-media2.fl.yelpcdn.com/bphoto/LXuadX0HcCDrOC8Jc14CLw/o.jpg", "is_closed": false, "url": "https://www.yelp.com/biz/oec-japanese-express-brandon-2?adjust_creative=vyhy616UjsMTA_hrWyg_5w&utm_campaign=yelp_api_v3&utm_medium=api_v3_business_search&utm_source=vyhy616UjsMTA_hrWyg_5w", "review_count": 15, "categories": [{"alias": "japanese", "title": "Japanese"}], "rating": 2.5, "coordinates": {"latitude": 32.2844472661079, "longitude": -90.022637486552}, "transactions": ["pickup", "delivery"], "price": "$", "location": {"address1": "1564 W Government St", "address2": "", "address3": "", "city": "Brandon", "zip_code": "39042", "country": "US", "state": "MS", "display_address": ["1564 W Government St", "Brandon, MS 39042"]}, "phone": "+16018256669", "display_phone": "(601) 825-6669", "distance": 34211.20987307112}, {"id": "9L9yXTa_gqQuEGrKw_40UA", "alias": "bonsai-japanese-steak-house-jackson", "name": "Bonsai Japanese Steak House", "image_url": "https://s3-media3.fl.yelpcdn.com/bphoto/KsLd8hErx8VGQRlxIsCJtw/o.jpg", "is_closed": false, "url": "https://www.yelp.com/biz/bonsai-japanese-steak-house-jackson?adjust_creative=vyhy616UjsMTA_hrWyg_5w&utm_campaign=yelp_api_v3&utm_medium=api_v3_business_search&utm_source=vyhy616UjsMTA_hrWyg_5w", "review_count": 37, "categories": [{"alias": "japanese", "title": "Japanese"}], "rating": 3.5, "coordinates": {"latitude": 32.33252, "longitude": -90.13699}, "transactions": ["delivery"], "price": "$$", "location": {"address1": "1925 Lakeland Dr", "address2": "", "address3": "", "city": "Jackson", "zip_code": "39216", "country": "US", "state": "MS", "display_address": ["1925 Lakeland Dr", "Jackson, MS 39216"]}, "phone": "+16019810606", "display_phone": "(601) 981-0606", "distance": 35580.114388179376}, {"id": "H1H4OvdCrEMG9Ee2ZRS0xw", "alias": "zheng-garden-forest", "name": "Zheng Garden", "image_url": "https://s3-media2.fl.yelpcdn.com/bphoto/_i__km3E5_L2CIk_di1PVQ/o.jpg", "is_closed": false, "url": "https://www.yelp.com/biz/zheng-garden-forest?adjust_creative=vyhy616UjsMTA_hrWyg_5w&utm_campaign=yelp_api_v3&utm_medium=api_v3_business_search&utm_source=vyhy616UjsMTA_hrWyg_5w", "review_count": 14, "categories": [{"alias": "chinese", "title": "Chinese"}], "rating": 2.5, "coordinates": {"latitude": 32.3524164149007, "longitude": -89.4823193255591}, "transactions": [], "price": "$$", "location": {"address1": "958 Hwy 35 S", "address2": "", "address3": "", "city": "Forest", "zip_code": "39074", "country": "US", "state": "MS", "display_address": ["958 Hwy 35 S", "Forest, MS 39074"]}, "phone": "+16014692000", "display_phone": "(601) 469-2000", "distance": 44237.791308099804}, {"id": "3AWdg9EOzSG4JLRyoksGig", "alias": "number-one-chinese-restaurant-jackson", "name": "Number One Chinese Restaurant", "image_url": "", "is_closed": false, "url": "https://www.yelp.com/biz/number-one-chinese-restaurant-jackson?adjust_creative=vyhy616UjsMTA_hrWyg_5w&utm_campaign=yelp_api_v3&utm_medium=api_v3_business_search&utm_source=vyhy616UjsMTA_hrWyg_5w", "review_count": 4, "categories": [{"alias": "chinese", "title": "Chinese"}], "rating": 3.5, "coordinates": {"latitude": 32.263557, "longitude": -90.219291}, "transactions": ["pickup", "delivery"], "price": "$", "location": {"address1": "2974 Terry Rd", "address2": null, "address3": null, "city": "Jackson", "zip_code": "39212", "country": "US", "state": "MS", "display_address": ["2974 Terry Rd", "Jackson, MS 39212"]}, "phone": "+16013738888", "display_phone": "(601) 373-8888", "distance": 46483.524012906724}, {"id": "S1BVfM9sna2ozde9tLIXZA", "alias": "mama-hamil-s-madison", "name": "Mama Hamil\u2019s ", "image_url": "https://s3-media3.fl.yelpcdn.com/bphoto/Fa5BUbxl9_85m-OWN3ho7g/o.jpg", "is_closed": false, "url": "https://www.yelp.com/biz/mama-hamil-s-madison?adjust_creative=vyhy616UjsMTA_hrWyg_5w&utm_campaign=yelp_api_v3&utm_medium=api_v3_business_search&utm_source=vyhy616UjsMTA_hrWyg_5w", "review_count": 235, "categories": [{"alias": "southern", "title": "Southern"}, {"alias": "bbq", "title": "Barbeque"}, {"alias": "buffets", "title": "Buffets"}], "rating": 4.5, "coordinates": {"latitude": 32.4447071939478, "longitude": -90.1230493354431}, "transactions": ["pickup", "delivery"], "price": "$$", "location": {"address1": "480 Magnolia St", "address2": "", "address3": "", "city": "Madison", "zip_code": "39110", "country": "US", "state": "MS", "display_address": ["480 Magnolia St", "Madison, MS 39110"]}, "phone": "+16018564407", "display_phone": "(601) 856-4407", "distance": 26624.261725983553}, {"id": "i8Z0x-2ypekekLxheltieg", "alias": "sushi-village-ridgeland", "name": "Sushi Village", "image_url": "https://s3-media4.fl.yelpcdn.com/bphoto/4ZtNL-3QZBMsgyFHNpG54A/o.jpg", "is_closed": false, "url": "https://www.yelp.com/biz/sushi-village-ridgeland?adjust_creative=vyhy616UjsMTA_hrWyg_5w&utm_campaign=yelp_api_v3&utm_medium=api_v3_business_search&utm_source=vyhy616UjsMTA_hrWyg_5w", "review_count": 83, "categories": [{"alias": "japanese", "title": "Japanese"}, {"alias": "sushi", "title": "Sushi Bars"}], "rating": 3.5, "coordinates": {"latitude": 32.41972, "longitude": -90.133308}, "transactions": ["delivery"], "price": "$$", "location": {"address1": "398 Hwy 51", "address2": "Ste 100", "address3": "", "city": "Ridgeland", "zip_code": "39157", "country": "US", "state": "MS", "display_address": ["398 Hwy 51", "Ste 100", "Ridgeland, MS 39157"]}, "phone": "+16018989688", "display_phone": "(601) 898-9688", "distance": 28937.745459747566}, {"id": "MNCARu52J5_ifAFAe8g__A", "alias": "bonefish-grill-madison", "name": "Bonefish Grill", "image_url": "https://s3-media4.fl.yelpcdn.com/bphoto/clVijINz0iFf5uvFc-BY8w/o.jpg", "is_closed": false, "url": "https://www.yelp.com/biz/bonefish-grill-madison?adjust_creative=vyhy616UjsMTA_hrWyg_5w&utm_campaign=yelp_api_v3&utm_medium=api_v3_business_search&utm_source=vyhy616UjsMTA_hrWyg_5w", "review_count": 103, "categories": [{"alias": "seafood", "title": "Seafood"}], "rating": 3.5, "coordinates": {"latitude": 32.4741134265599, "longitude": -90.1442880160877}, "transactions": [], "price": "$$", "location": {"address1": "201 Colony Way", "address2": "", "address3": "", "city": "Madison", "zip_code": "39110", "country": "US", "state": "MS", "display_address": ["201 Colony Way", "Madison, MS 39110"]}, "phone": "+16016073334", "display_phone": "(601) 607-3334", "distance": 26931.08721012324}, {"id": "N7NNMYWsQxU2RIAv6-mcgg", "alias": "spice-avenue-jackson-2", "name": "Spice Avenue", "image_url": "https://s3-media2.fl.yelpcdn.com/bphoto/ATpH2tV_FShQh4mDO3oPlw/o.jpg", "is_closed": false, "url": "https://www.yelp.com/biz/spice-avenue-jackson-2?adjust_creative=vyhy616UjsMTA_hrWyg_5w&utm_campaign=yelp_api_v3&utm_medium=api_v3_business_search&utm_source=vyhy616UjsMTA_hrWyg_5w", "review_count": 77, "categories": [{"alias": "indpak", "title": "Indian"}, {"alias": "pakistani", "title": "Pakistani"}], "rating": 4.0, "coordinates": {"latitude": 32.35932, "longitude": -90.15241}, "transactions": ["delivery"], "price": "$$", "location": {"address1": "4711 I 55 N", "address2": "", "address3": "", "city": "Jackson", "zip_code": "39215", "country": "US", "state": "MS", "display_address": ["4711 I 55 N", "Jackson, MS 39215"]}, "phone": "+16019820890", "display_phone": "(601) 982-0890", "distance": 34524.67049795298}, {"id": "ke7jVNktBsM0HnEy15y7Ag", "alias": "panera-bread-flowood", "name": "Panera Bread", "image_url": "https://s3-media3.fl.yelpcdn.com/bphoto/4JSzLu94v2Au7EMvb7REXg/o.jpg", "is_closed": false, "url": "https://www.yelp.com/biz/panera-bread-flowood?adjust_creative=vyhy616UjsMTA_hrWyg_5w&utm_campaign=yelp_api_v3&utm_medium=api_v3_business_search&utm_source=vyhy616UjsMTA_hrWyg_5w", "review_count": 37, "categories": [{"alias": "sandwiches", "title": "Sandwiches"}, {"alias": "salad", "title": "Salad"}, {"alias": "soup", "title": "Soup"}], "rating": 2.5, "coordinates": {"latitude": 32.3395781184403, "longitude": -90.0683856010437}, "transactions": ["pickup", "delivery"], "price": "$$", "location": {"address1": "249 Ridge Way", "address2": "", "address3": "", "city": "Flowood", "zip_code": "39232", "country": "US", "state": "MS", "display_address": ["249 Ridge Way", "Flowood, MS 39232"]}, "phone": "+16019190068", "display_phone": "(601) 919-0068", "distance": 30924.157945761337}, {"id": "9RC-aBJvMzY1Ei_u1LGtqw", "alias": "grand-china-sushi-and-chinese-buffet-ridgeland", "name": "Grand China Sushi and Chinese Buffet", "image_url": "https://s3-media4.fl.yelpcdn.com/bphoto/7X3t5NLJz_-6hIvYJU4tPg/o.jpg", "is_closed": false, "url": "https://www.yelp.com/biz/grand-china-sushi-and-chinese-buffet-ridgeland?adjust_creative=vyhy616UjsMTA_hrWyg_5w&utm_campaign=yelp_api_v3&utm_medium=api_v3_business_search&utm_source=vyhy616UjsMTA_hrWyg_5w", "review_count": 24, "categories": [{"alias": "chinese", "title": "Chinese"}, {"alias": "sushi", "title": "Sushi Bars"}, {"alias": "buffets", "title": "Buffets"}], "rating": 2.0, "coordinates": {"latitude": 32.400772, "longitude": -90.136885}, "transactions": ["delivery"], "price": "$$", "location": {"address1": "1060 E County Line Rd", "address2": "Ste 14", "address3": null, "city": "Ridgeland", "zip_code": "39157", "country": "US", "state": "MS", "display_address": ["1060 E County Line Rd", "Ste 14", "Ridgeland, MS 39157"]}, "phone": "+16012061698", "display_phone": "(601) 206-1698", "distance": 30449.94046697732}], "total": 52, "region": {"center": {"longitude": -89.879150390625, "latitude": 32.56727480758434}}}