{"businesses": [{"id": "viAWl78HsFFeYsNLiZNoGA", "alias": "pan-asian-terrace-omaha", "name": "Pan Asian Terrace", "image_url": "https://s3-media3.fl.yelpcdn.com/bphoto/tFZGOJZwwzTittcQ3S8fhA/o.jpg", "is_closed": false, "url": "https://www.yelp.com/biz/pan-asian-terrace-omaha?adjust_creative=vyhy616UjsMTA_hrWyg_5w&utm_campaign=yelp_api_v3&utm_medium=api_v3_business_search&utm_source=vyhy616UjsMTA_hrWyg_5w", "review_count": 110, "categories": [{"alias": "panasian", "title": "Pan Asian"}, {"alias": "breakfast_brunch", "title": "Breakfast & Brunch"}], "rating": 4.0, "coordinates": {"latitude": 41.2466939, "longitude": -96.1592951}, "transactions": ["delivery"], "price": "$$", "location": {"address1": "1201 S 157th Plz", "address2": "", "address3": "", "city": "Omaha", "zip_code": "68130", "country": "US", "state": "NE", "display_address": ["1201 S 157th Plz", "Omaha, NE 68130"]}, "phone": "+14025020518", "display_phone": "(402) 502-0518", "distance": 9242.638046123267}, {"id": "zuCuGpKM-SzDyAVTvJ5C4g", "alias": "ninjaa-japan-restaurant-omaha", "name": "Ninjaa Japan Restaurant", "image_url": "https://s3-media1.fl.yelpcdn.com/bphoto/SUCfspeMit6H-LAqGoHB_A/o.jpg", "is_closed": false, "url": "https://www.yelp.com/biz/ninjaa-japan-restaurant-omaha?adjust_creative=vyhy616UjsMTA_hrWyg_5w&utm_campaign=yelp_api_v3&utm_medium=api_v3_business_search&utm_source=vyhy616UjsMTA_hrWyg_5w", "review_count": 8, "categories": [{"alias": "japanese", "title": "Japanese"}], "rating": 4.0, "coordinates": {"latitude": 41.26269767, "longitude": -96.033251}, "transactions": ["pickup", "delivery"], "location": {"address1": "7641 Cass St", "address2": null, "address3": "", "city": "Omaha", "zip_code": "68114", "country": "US", "state": "NE", "display_address": ["7641 Cass St", "Omaha, NE 68114"]}, "phone": "+14028858698", "display_phone": "(402) 885-8698", "distance": 1962.6941781797173}, {"id": "ZNMo6NFH_li9aM9f1ZAl2Q", "alias": "blue-and-fly-asian-kitchen-omaha", "name": "Blue & Fly Asian Kitchen", "image_url": "https://s3-media2.fl.yelpcdn.com/bphoto/iqsSRmC1UrgpRM6jn0JdJw/o.jpg", "is_closed": false, "url": "https://www.yelp.com/biz/blue-and-fly-asian-kitchen-omaha?adjust_creative=vyhy616UjsMTA_hrWyg_5w&utm_campaign=yelp_api_v3&utm_medium=api_v3_business_search&utm_source=vyhy616UjsMTA_hrWyg_5w", "review_count": 181, "categories": [{"alias": "chinese", "title": "Chinese"}], "rating": 4.0, "coordinates": {"latitude": 41.2533333617057, "longitude": -96.0226501907379}, "transactions": ["pickup", "delivery"], "price": "$$", "location": {"address1": "721 S 72nd St", "address2": "", "address3": "", "city": "Omaha", "zip_code": "68114", "country": "US", "state": "NE", "display_address": ["721 S 72nd St", "Omaha, NE 68114"]}, "phone": "+14025046545", "display_phone": "(402) 504-6545", "distance": 2267.073054863089}, {"id": "XWH9UscTjCIaNItaPL7yaw", "alias": "korea-garden-omaha-2", "name": "Korea Garden", "image_url": "https://s3-media2.fl.yelpcdn.com/bphoto/8-gQ4vay2FKVlTUW-WOuHQ/o.jpg", "is_closed": false, "url": "https://www.yelp.com/biz/korea-garden-omaha-2?adjust_creative=vyhy616UjsMTA_hrWyg_5w&utm_campaign=yelp_api_v3&utm_medium=api_v3_business_search&utm_source=vyhy616UjsMTA_hrWyg_5w", "review_count": 121, "categories": [{"alias": "korean", "title": "Korean"}, {"alias": "asianfusion", "title": "Asian Fusion"}], "rating": 4.5, "coordinates": {"latitude": 41.2029092747515, "longitude": -96.0245581588817}, "transactions": ["pickup", "delivery"], "price": "$$", "location": {"address1": "5352 S 72nd St", "address2": "", "address3": "", "city": "Omaha", "zip_code": "68127", "country": "US", "state": "NE", "display_address": ["5352 S 72nd St", "Omaha, NE 68127"]}, "phone": "+14025054089", "display_phone": "(402) 505-4089", "distance": 5606.011966434938}, {"id": "pBEYF5iZP57AsJvavBSCNA", "alias": "taipei-asian-cuisine-omaha-2", "name": "Taipei Asian Cuisine", "image_url": "https://s3-media2.fl.yelpcdn.com/bphoto/matwoduTnZdSkmwwG5IYFw/o.jpg", "is_closed": false, "url": "https://www.yelp.com/biz/taipei-asian-cuisine-omaha-2?adjust_creative=vyhy616UjsMTA_hrWyg_5w&utm_campaign=yelp_api_v3&utm_medium=api_v3_business_search&utm_source=vyhy616UjsMTA_hrWyg_5w", "review_count": 51, "categories": [{"alias": "asianfusion", "title": "Asian Fusion"}, {"alias": "chinese", "title": "Chinese"}], "rating": 4.5, "coordinates": {"latitude": 41.2319425, "longitude": -96.1766951}, "transactions": ["pickup", "delivery"], "price": "$$", "location": {"address1": "2859 S 168th St", "address2": "", "address3": null, "city": "Omaha", "zip_code": "68130", "country": "US", "state": "NE", "display_address": ["2859 S 168th St", "Omaha, NE 68130"]}, "phone": "+14023331991", "display_phone": "(402) 333-1991", "distance": 10759.557486005344}, {"id": "Ic13IPwLRwCdfZKdIvP3qg", "alias": "lings-asian-cuisine-omaha-4", "name": "Ling's Asian Cuisine", "image_url": "https://s3-media1.fl.yelpcdn.com/bphoto/4d7va91HPaq7SfJjQP62VQ/o.jpg", "is_closed": false, "url": "https://www.yelp.com/biz/lings-asian-cuisine-omaha-4?adjust_creative=vyhy616UjsMTA_hrWyg_5w&utm_campaign=yelp_api_v3&utm_medium=api_v3_business_search&utm_source=vyhy616UjsMTA_hrWyg_5w", "review_count": 166, "categories": [{"alias": "vietnamese", "title": "Vietnamese"}], "rating": 4.5, "coordinates": {"latitude": 41.1901, "longitude": -96.15989}, "transactions": ["delivery"], "price": "$$", "location": {"address1": "6909 S 157th St", "address2": "Ste A", "address3": "", "city": "Omaha", "zip_code": "68136", "country": "US", "state": "NE", "display_address": ["6909 S 157th St", "Ste A", "Omaha, NE 68136"]}, "phone": "+14028941733", "display_phone": "(402) 894-1733", "distance": 11392.920556224488}, {"id": "ogEwrAtvQBNARo4ZEgIwcw", "alias": "saigon-surface-omaha", "name": "Saigon Surface", "image_url": "https://s3-media4.fl.yelpcdn.com/bphoto/2z7JzP3KCuMgD3iWXvUVHQ/o.jpg", "is_closed": false, "url": "https://www.yelp.com/biz/saigon-surface-omaha?adjust_creative=vyhy616UjsMTA_hrWyg_5w&utm_campaign=yelp_api_v3&utm_medium=api_v3_business_search&utm_source=vyhy616UjsMTA_hrWyg_5w", "review_count": 310, "categories": [{"alias": "vietnamese", "title": "Vietnamese"}], "rating": 4.0, "coordinates": {"latitude": 41.25727, "longitude": -95.935}, "transactions": ["pickup", "delivery"], "price": "$$", "location": {"address1": "324 S 14th St", "address2": "", "address3": "", "city": "Omaha", "zip_code": "68102", "country": "US", "state": "NE", "display_address": ["324 S 14th St", "Omaha, NE 68102"]}, "phone": "+14026144496", "display_phone": "(402) 614-4496", "distance": 9607.680298477117}, {"id": "KzsNy4EYt6D9PL9VbggYGA", "alias": "mercy-thai-restaurant-omaha", "name": "Mercy Thai Restaurant", "image_url": "https://s3-media4.fl.yelpcdn.com/bphoto/Y0Pvfkb9HeDbav4qeV-xVw/o.jpg", "is_closed": false, "url": "https://www.yelp.com/biz/mercy-thai-restaurant-omaha?adjust_creative=vyhy616UjsMTA_hrWyg_5w&utm_campaign=yelp_api_v3&utm_medium=api_v3_business_search&utm_source=vyhy616UjsMTA_hrWyg_5w", "review_count": 178, "categories": [{"alias": "thai", "title": "Thai"}], "rating": 4.5, "coordinates": {"latitude": 41.2112005504949, "longitude": -96.0614110337383}, "transactions": ["pickup", "delivery"], "price": "$", "location": {"address1": "4741 S 96th St", "address2": null, "address3": "", "city": "Omaha", "zip_code": "68127", "country": "US", "state": "NE", "display_address": ["4741 S 96th St", "Omaha, NE 68127"]}, "phone": "+14026141929", "display_phone": "(402) 614-1929", "distance": 4403.779963667651}, {"id": "Xih5naRi3MYD0VQKgtJkQw", "alias": "salween-thai-omaha", "name": "Salween Thai", "image_url": "https://s3-media4.fl.yelpcdn.com/bphoto/r0I5zUy6-a2sUdJWk7lR_w/o.jpg", "is_closed": false, "url": "https://www.yelp.com/biz/salween-thai-omaha?adjust_creative=vyhy616UjsMTA_hrWyg_5w&utm_campaign=yelp_api_v3&utm_medium=api_v3_business_search&utm_source=vyhy616UjsMTA_hrWyg_5w", "review_count": 280, "categories": [{"alias": "thai", "title": "Thai"}], "rating": 4.0, "coordinates": {"latitude": 41.270078, "longitude": -95.9829219}, "transactions": ["pickup", "delivery"], "price": "$", "location": {"address1": "1102 NW Radial Hwy", "address2": "", "address3": "", "city": "Omaha", "zip_code": "68132", "country": "US", "state": "NE", "display_address": ["1102 NW Radial Hwy", "Omaha, NE 68132"]}, "phone": "+14028845375", "display_phone": "(402) 884-5375", "distance": 5994.742950148235}, {"id": "S1O8xSvxaY0epDjUtn6B8w", "alias": "vietnamese-asian-restaurant-omaha", "name": "Vietnamese Asian Restaurant", "image_url": "https://s3-media1.fl.yelpcdn.com/bphoto/Ol-SW1IKHtxFvfE5_jy5Ig/o.jpg", "is_closed": false, "url": "https://www.yelp.com/biz/vietnamese-asian-restaurant-omaha?adjust_creative=vyhy616UjsMTA_hrWyg_5w&utm_campaign=yelp_api_v3&utm_medium=api_v3_business_search&utm_source=vyhy616UjsMTA_hrWyg_5w", "review_count": 117, "categories": [{"alias": "vietnamese", "title": "Vietnamese"}, {"alias": "thai", "title": "Thai"}], "rating": 3.5, "coordinates": {"latitude": 41.2544749, "longitude": -96.024181}, "transactions": ["delivery"], "price": "$", "location": {"address1": "7212 Jones St", "address2": "", "address3": "", "city": "Omaha", "zip_code": "68114", "country": "US", "state": "NE", "display_address": ["7212 Jones St", "Omaha, NE 68114"]}, "phone": "+14023979125", "display_phone": "(402) 397-9125", "distance": 2146.8840611782575}, {"id": "94Ocz6oUlG6lCPoFTii01A", "alias": "laos-thai-restaurant-omaha", "name": "Laos Thai Restaurant", "image_url": "https://s3-media3.fl.yelpcdn.com/bphoto/DZ1mn8S4c-Ppjl8Oqc-2qA/o.jpg", "is_closed": false, "url": "https://www.yelp.com/biz/laos-thai-restaurant-omaha?adjust_creative=vyhy616UjsMTA_hrWyg_5w&utm_campaign=yelp_api_v3&utm_medium=api_v3_business_search&utm_source=vyhy616UjsMTA_hrWyg_5w", "review_count": 129, "categories": [{"alias": "thai", "title": "Thai"}, {"alias": "noodles", "title": "Noodles"}], "rating": 4.0, "coordinates": {"latitude": 41.21404, "longitude": -95.94749}, "transactions": ["pickup", "delivery"], "price": "$$", "location": {"address1": "4520 S 24th St", "address2": "", "address3": "", "city": "Omaha", "zip_code": "68107", "country": "US", "state": "NE", "display_address": ["4520 S 24th St", "Omaha, NE 68107"]}, "phone": "+14027330579", "display_phone": "(402) 733-0579", "distance": 9405.48979485303}, {"id": "UCUEbbaEABwx1KOa3x_ZxA", "alias": "lucky-tiger-omaha", "name": "Lucky Tiger", "image_url": "https://s3-media2.fl.yelpcdn.com/bphoto/dZxBWsJ6YiDJFVrdJfiP9A/o.jpg", "is_closed": false, "url": "https://www.yelp.com/biz/lucky-tiger-omaha?adjust_creative=vyhy616UjsMTA_hrWyg_5w&utm_campaign=yelp_api_v3&utm_medium=api_v3_business_search&utm_source=vyhy616UjsMTA_hrWyg_5w", "review_count": 27, "categories": [{"alias": "izakaya", "title": "Izakaya"}, {"alias": "panasian", "title": "Pan Asian"}], "rating": 4.0, "coordinates": {"latitude": 41.257997, "longitude": -95.970765}, "transactions": ["pickup", "delivery"], "location": {"address1": "3852 Farnam St", "address2": "", "address3": null, "city": "Omaha", "zip_code": "68131", "country": "US", "state": "NE", "display_address": ["3852 Farnam St", "Omaha, NE 68131"]}, "phone": "", "display_phone": "", "distance": 6631.016887573815}, {"id": "4SjfLfnkJdeqUCWy1zpHvA", "alias": "maru-sushi-korean-grill-omaha", "name": "Maru Sushi  Korean Grill", "image_url": "https://s3-media3.fl.yelpcdn.com/bphoto/fFWBP8kHHuchuo5iLxH0xA/o.jpg", "is_closed": false, "url": "https://www.yelp.com/biz/maru-sushi-korean-grill-omaha?adjust_creative=vyhy616UjsMTA_hrWyg_5w&utm_campaign=yelp_api_v3&utm_medium=api_v3_business_search&utm_source=vyhy616UjsMTA_hrWyg_5w", "review_count": 193, "categories": [{"alias": "korean", "title": "Korean"}, {"alias": "sushi", "title": "Sushi Bars"}], "rating": 4.0, "coordinates": {"latitude": 41.2080832, "longitude": -96.0815549}, "transactions": ["pickup", "delivery"], "price": "$$", "location": {"address1": "5032 S 108th St", "address2": "", "address3": "", "city": "Omaha", "zip_code": "68137", "country": "US", "state": "NE", "display_address": ["5032 S 108th St", "Omaha, NE 68137"]}, "phone": "+14025930717", "display_phone": "(402) 593-0717", "distance": 5397.553830899047}, {"id": "BAWQz526qN3g-wnc3n7ykA", "alias": "pho-viet-omaha", "name": "Pho Viet", "image_url": "https://s3-media2.fl.yelpcdn.com/bphoto/W-wcRxuCxEd6WCvEoZXazA/o.jpg", "is_closed": false, "url": "https://www.yelp.com/biz/pho-viet-omaha?adjust_creative=vyhy616UjsMTA_hrWyg_5w&utm_campaign=yelp_api_v3&utm_medium=api_v3_business_search&utm_source=vyhy616UjsMTA_hrWyg_5w", "review_count": 110, "categories": [{"alias": "vietnamese", "title": "Vietnamese"}, {"alias": "chinese", "title": "Chinese"}], "rating": 4.0, "coordinates": {"latitude": 41.2772304, "longitude": -96.0359734}, "transactions": ["pickup", "delivery"], "price": "$", "location": {"address1": "7923 Blondo St", "address2": "", "address3": "", "city": "Omaha", "zip_code": "68134", "country": "US", "state": "NE", "display_address": ["7923 Blondo St", "Omaha, NE 68134"]}, "phone": "+14023933111", "display_phone": "(402) 393-3111", "distance": 3253.5612959997543}, {"id": "myWY9QB32EONclpPoviQOg", "alias": "hipbao-omaha", "name": "HIPBAO", "image_url": "https://s3-media2.fl.yelpcdn.com/bphoto/SPAtCEQrumMUGi0aqZ7vvg/o.jpg", "is_closed": false, "url": "https://www.yelp.com/biz/hipbao-omaha?adjust_creative=vyhy616UjsMTA_hrWyg_5w&utm_campaign=yelp_api_v3&utm_medium=api_v3_business_search&utm_source=vyhy616UjsMTA_hrWyg_5w", "review_count": 99, "categories": [{"alias": "dimsum", "title": "Dim Sum"}], "rating": 3.5, "coordinates": {"latitude": 41.2300721, "longitude": -96.0432549}, "transactions": ["pickup", "delivery"], "price": "$$", "location": {"address1": "3044 S 84th St", "address2": null, "address3": "", "city": "Omaha", "zip_code": "68124", "country": "US", "state": "NE", "display_address": ["3044 S 84th St", "Omaha, NE 68124"]}, "phone": "+14026148850", "display_phone": "(402) 614-8850", "distance": 2132.99063550529}, {"id": "QSGrx5QXx0DYpZr4ghAwkQ", "alias": "house-of-lee-restaurant-omaha", "name": "House Of Lee Restaurant", "image_url": "https://s3-media3.fl.yelpcdn.com/bphoto/C-hmHahgTwDfAZPRwTdlNw/o.jpg", "is_closed": false, "url": "https://www.yelp.com/biz/house-of-lee-restaurant-omaha?adjust_creative=vyhy616UjsMTA_hrWyg_5w&utm_campaign=yelp_api_v3&utm_medium=api_v3_business_search&utm_source=vyhy616UjsMTA_hrWyg_5w", "review_count": 34, "categories": [{"alias": "chinese", "title": "Chinese"}], "rating": 4.0, "coordinates": {"latitude": 41.3085011, "longitude": -96.0528249}, "transactions": ["delivery"], "price": "$", "location": {"address1": "5446 N 90th St", "address2": "", "address3": "", "city": "Omaha", "zip_code": "68134", "country": "US", "state": "NE", "display_address": ["5446 N 90th St", "Omaha, NE 68134"]}, "phone": "+14025712000", "display_phone": "(402) 571-2000", "distance": 6474.109092767651}, {"id": "51nASBxuHaLLPlRKXubFPA", "alias": "jinya-ramen-bar-omaha-omaha", "name": "JINYA Ramen Bar - Omaha", "image_url": "https://s3-media1.fl.yelpcdn.com/bphoto/Nt2qzkQRSSpvyXnoVXRGIA/o.jpg", "is_closed": false, "url": "https://www.yelp.com/biz/jinya-ramen-bar-omaha-omaha?adjust_creative=vyhy616UjsMTA_hrWyg_5w&utm_campaign=yelp_api_v3&utm_medium=api_v3_business_search&utm_source=vyhy616UjsMTA_hrWyg_5w", "review_count": 267, "categories": [{"alias": "ramen", "title": "Ramen"}], "rating": 4.5, "coordinates": {"latitude": 41.2602, "longitude": -96.02083}, "transactions": ["pickup", "delivery"], "price": "$$", "location": {"address1": "7010 Dodge St", "address2": "Ste 106", "address3": null, "city": "Omaha", "zip_code": "68132", "country": "US", "state": "NE", "display_address": ["7010 Dodge St", "Ste 106", "Omaha, NE 68132"]}, "phone": "+14029912088", "display_phone": "(402) 991-2088", "distance": 2637.6037893294842}, {"id": "hud5OwsbRO9XqXU8BlmlYg", "alias": "korean-grill-bellevue", "name": "Korean Grill", "image_url": "https://s3-media4.fl.yelpcdn.com/bphoto/4rFr2TUQr-Hkh2uwUiqLhQ/o.jpg", "is_closed": false, "url": "https://www.yelp.com/biz/korean-grill-bellevue?adjust_creative=vyhy616UjsMTA_hrWyg_5w&utm_campaign=yelp_api_v3&utm_medium=api_v3_business_search&utm_source=vyhy616UjsMTA_hrWyg_5w", "review_count": 196, "categories": [{"alias": "korean", "title": "Korean"}], "rating": 4.5, "coordinates": {"latitude": 41.14180659113, "longitude": -95.911738353515}, "transactions": ["delivery"], "price": "$$", "location": {"address1": "1408 Harlan Dr", "address2": "", "address3": "", "city": "Bellevue", "zip_code": "68005", "country": "US", "state": "NE", "display_address": ["1408 Harlan Dr", "Bellevue, NE 68005"]}, "phone": "+14029335150", "display_phone": "(402) 933-5150", "distance": 16632.354807313197}, {"id": "6n82GV-Eg1K1BeOE3hhbfg", "alias": "khao-niao-thai-lao-restaurant-omaha-2", "name": "Khao Niao Thai-Lao Restaurant", "image_url": "https://s3-media2.fl.yelpcdn.com/bphoto/WthkNCy2r-GUJSPjlJtRDw/o.jpg", "is_closed": false, "url": "https://www.yelp.com/biz/khao-niao-thai-lao-restaurant-omaha-2?adjust_creative=vyhy616UjsMTA_hrWyg_5w&utm_campaign=yelp_api_v3&utm_medium=api_v3_business_search&utm_source=vyhy616UjsMTA_hrWyg_5w", "review_count": 72, "categories": [{"alias": "thai", "title": "Thai"}, {"alias": "noodles", "title": "Noodles"}, {"alias": "soup", "title": "Soup"}], "rating": 4.5, "coordinates": {"latitude": 41.2959398, "longitude": -96.1574626}, "transactions": [], "price": "$$", "location": {"address1": "15505 Ruggles St", "address2": "Ste 105", "address3": null, "city": "Omaha", "zip_code": "68116", "country": "US", "state": "NE", "display_address": ["15505 Ruggles St", "Ste 105", "Omaha, NE 68116"]}, "phone": "+14024318731", "display_phone": "(402) 431-8731", "distance": 10393.056257691218}, {"id": "f7Kp6RU-5CTPaUtZ7yUFJA", "alias": "f\u00fa-asian-grill-omaha-3", "name": "F\u00fa Asian Grill", "image_url": "https://s3-media3.fl.yelpcdn.com/bphoto/VMOeGWvU_Sa_xY5uCL-2xg/o.jpg", "is_closed": false, "url": "https://www.yelp.com/biz/f%C3%BA-asian-grill-omaha-3?adjust_creative=vyhy616UjsMTA_hrWyg_5w&utm_campaign=yelp_api_v3&utm_medium=api_v3_business_search&utm_source=vyhy616UjsMTA_hrWyg_5w", "review_count": 26, "categories": [{"alias": "vegetarian", "title": "Vegetarian"}, {"alias": "asianfusion", "title": "Asian Fusion"}, {"alias": "vegan", "title": "Vegan"}], "rating": 4.5, "coordinates": {"latitude": 41.26267367, "longitude": -95.9467205}, "transactions": ["delivery"], "location": {"address1": "343 N 24th St", "address2": null, "address3": "", "city": "Omaha", "zip_code": "68102", "country": "US", "state": "NE", "display_address": ["343 N 24th St", "Omaha, NE 68102"]}, "phone": "+14022065120", "display_phone": "(402) 206-5120", "distance": 8699.976761135727}, {"id": "yAjdwaBPHRxQuAmDB9vEqg", "alias": "kathmandu-momo-station-omaha", "name": "Kathmandu Momo Station", "image_url": "https://s3-media3.fl.yelpcdn.com/bphoto/S2CKUpfpUVxtMHwvtyIy3g/o.jpg", "is_closed": false, "url": "https://www.yelp.com/biz/kathmandu-momo-station-omaha?adjust_creative=vyhy616UjsMTA_hrWyg_5w&utm_campaign=yelp_api_v3&utm_medium=api_v3_business_search&utm_source=vyhy616UjsMTA_hrWyg_5w", "review_count": 82, "categories": [{"alias": "himalayan", "title": "Himalayan/Nepalese"}], "rating": 5.0, "coordinates": {"latitude": 41.257978, "longitude": -95.973014}, "transactions": ["delivery"], "price": "$", "location": {"address1": "3924 1/2 Farnam St", "address2": "", "address3": null, "city": "Omaha", "zip_code": "68131", "country": "US", "state": "NE", "display_address": ["3924 1/2 Farnam St", "Omaha, NE 68131"]}, "phone": "+14025946004", "display_phone": "(402) 594-6004", "distance": 6446.338948079083}, {"id": "acKUvortzJIsqvIOj2TOEQ", "alias": "sea-thai-omaha", "name": "Sea Thai", "image_url": "https://s3-media4.fl.yelpcdn.com/bphoto/h_8qcldMnPJemcWljyKyGQ/o.jpg", "is_closed": false, "url": "https://www.yelp.com/biz/sea-thai-omaha?adjust_creative=vyhy616UjsMTA_hrWyg_5w&utm_campaign=yelp_api_v3&utm_medium=api_v3_business_search&utm_source=vyhy616UjsMTA_hrWyg_5w", "review_count": 39, "categories": [{"alias": "thai", "title": "Thai"}], "rating": 4.5, "coordinates": {"latitude": 41.247438, "longitude": -96.194807}, "transactions": ["pickup", "delivery"], "price": "$$", "location": {"address1": "17903 Pierce Plz", "address2": "", "address3": null, "city": "Omaha", "zip_code": "68130", "country": "US", "state": "NE", "display_address": ["17903 Pierce Plz", "Omaha, NE 68130"]}, "phone": "+14023340152", "display_phone": "(402) 334-0152", "distance": 12163.541867443999}, {"id": "mgpVTbrK6lPGxQCh2L8G-A", "alias": "vietnamese-restaurant-lavista-la-vista", "name": "Vietnamese Restaurant Lavista", "image_url": "https://s3-media2.fl.yelpcdn.com/bphoto/rnhvDHMlIdu13RDYCc23Iw/o.jpg", "is_closed": false, "url": "https://www.yelp.com/biz/vietnamese-restaurant-lavista-la-vista?adjust_creative=vyhy616UjsMTA_hrWyg_5w&utm_campaign=yelp_api_v3&utm_medium=api_v3_business_search&utm_source=vyhy616UjsMTA_hrWyg_5w", "review_count": 102, "categories": [{"alias": "vietnamese", "title": "Vietnamese"}], "rating": 4.0, "coordinates": {"latitude": 41.1778, "longitude": -96.04141}, "transactions": ["delivery"], "price": "$", "location": {"address1": "8013 S 83rd Ave", "address2": "", "address3": "", "city": "La Vista", "zip_code": "68128", "country": "US", "state": "NE", "display_address": ["8013 S 83rd Ave", "La Vista, NE 68128"]}, "phone": "+14029918998", "display_phone": "(402) 991-8998", "distance": 7975.934331891226}, {"id": "AcjL1Pq1P9q8WdHOJolccQ", "alias": "ahi-sushi-ramen-and-grill-omaha", "name": "Ahi Sushi Ramen and Grill", "image_url": "https://s3-media2.fl.yelpcdn.com/bphoto/TmKZJhmXsv6aQABe5g3mdA/o.jpg", "is_closed": false, "url": "https://www.yelp.com/biz/ahi-sushi-ramen-and-grill-omaha?adjust_creative=vyhy616UjsMTA_hrWyg_5w&utm_campaign=yelp_api_v3&utm_medium=api_v3_business_search&utm_source=vyhy616UjsMTA_hrWyg_5w", "review_count": 28, "categories": [{"alias": "sushi", "title": "Sushi Bars"}, {"alias": "ramen", "title": "Ramen"}, {"alias": "asianfusion", "title": "Asian Fusion"}], "rating": 4.5, "coordinates": {"latitude": 41.233531, "longitude": -96.1081004}, "transactions": ["pickup", "delivery"], "location": {"address1": "12411 W Center Rd", "address2": "Ste 101", "address3": null, "city": "Omaha", "zip_code": "68144", "country": "US", "state": "NE", "display_address": ["12411 W Center Rd", "Ste 101", "Omaha, NE 68144"]}, "phone": "+14025066999", "display_phone": "(402) 506-6999", "distance": 5233.099983603337}, {"id": "N_FhZ9rW8LaZGxyZo5c2HQ", "alias": "thai-kitchen-omaha-2", "name": "Thai Kitchen", "image_url": "https://s3-media2.fl.yelpcdn.com/bphoto/ABdBR_QgjKHTbTIapY2bLw/o.jpg", "is_closed": false, "url": "https://www.yelp.com/biz/thai-kitchen-omaha-2?adjust_creative=vyhy616UjsMTA_hrWyg_5w&utm_campaign=yelp_api_v3&utm_medium=api_v3_business_search&utm_source=vyhy616UjsMTA_hrWyg_5w", "review_count": 96, "categories": [{"alias": "thai", "title": "Thai"}], "rating": 4.0, "coordinates": {"latitude": 41.2359706409202, "longitude": -96.1776262521744}, "transactions": ["delivery"], "price": "$$", "location": {"address1": "16909 Lakeside Hills Plz", "address2": "Ste 101", "address3": "", "city": "Omaha", "zip_code": "68130", "country": "US", "state": "NE", "display_address": ["16909 Lakeside Hills Plz", "Ste 101", "Omaha, NE 68130"]}, "phone": "+14026973887", "display_phone": "(402) 697-3887", "distance": 10834.321707037761}, {"id": "Pp6e9V1e3I7CfyrE0FOm5g", "alias": "new-gold-mountain-omaha-3", "name": "New Gold Mountain", "image_url": "https://s3-media2.fl.yelpcdn.com/bphoto/FZ_ZC123u_-s4_IzHE2qiw/o.jpg", "is_closed": false, "url": "https://www.yelp.com/biz/new-gold-mountain-omaha-3?adjust_creative=vyhy616UjsMTA_hrWyg_5w&utm_campaign=yelp_api_v3&utm_medium=api_v3_business_search&utm_source=vyhy616UjsMTA_hrWyg_5w", "review_count": 131, "categories": [{"alias": "dimsum", "title": "Dim Sum"}, {"alias": "cantonese", "title": "Cantonese"}, {"alias": "vietnamese", "title": "Vietnamese"}], "rating": 3.5, "coordinates": {"latitude": 41.2386797, "longitude": -96.0160417}, "transactions": ["pickup", "delivery"], "price": "$$", "location": {"address1": "6750 Mercy Rd", "address2": "Ste 102B", "address3": null, "city": "Omaha", "zip_code": "68106", "country": "US", "state": "NE", "display_address": ["6750 Mercy Rd", "Ste 102B", "Omaha, NE 68106"]}, "phone": "+14026141668", "display_phone": "(402) 614-1668", "distance": 3044.5985088442567}, {"id": "rfhZESpCNRbqc5cQg_sc3Q", "alias": "hans-golden-dragon-bellevue-bellevue", "name": "Han's Golden Dragon - Bellevue", "image_url": "https://s3-media2.fl.yelpcdn.com/bphoto/c4dJ1kZfi86N0IJenMAknA/o.jpg", "is_closed": false, "url": "https://www.yelp.com/biz/hans-golden-dragon-bellevue-bellevue?adjust_creative=vyhy616UjsMTA_hrWyg_5w&utm_campaign=yelp_api_v3&utm_medium=api_v3_business_search&utm_source=vyhy616UjsMTA_hrWyg_5w", "review_count": 13, "categories": [{"alias": "chinese", "title": "Chinese"}, {"alias": "korean", "title": "Korean"}], "rating": 5.0, "coordinates": {"latitude": 41.15184, "longitude": -95.91505}, "transactions": [], "location": {"address1": "923 Galvin Rd", "address2": "Ste 107", "address3": "", "city": "Bellevue", "zip_code": "68005", "country": "US", "state": "NE", "display_address": ["923 Galvin Rd", "Ste 107", "Bellevue, NE 68005"]}, "phone": "+14023159909", "display_phone": "(402) 315-9909", "distance": 15635.201114028958}, {"id": "ImMN8c1C8FedEFBzqExwBw", "alias": "saigon-omaha", "name": "Saigon", "image_url": "https://s3-media2.fl.yelpcdn.com/bphoto/N4jAy31Xcwy5dYdqEA0BIw/o.jpg", "is_closed": false, "url": "https://www.yelp.com/biz/saigon-omaha?adjust_creative=vyhy616UjsMTA_hrWyg_5w&utm_campaign=yelp_api_v3&utm_medium=api_v3_business_search&utm_source=vyhy616UjsMTA_hrWyg_5w", "review_count": 139, "categories": [{"alias": "vietnamese", "title": "Vietnamese"}], "rating": 3.5, "coordinates": {"latitude": 41.2348241081945, "longitude": -96.1032275323111}, "transactions": ["pickup", "delivery"], "price": "$$", "location": {"address1": "12100 W Center Rd", "address2": "", "address3": "", "city": "Omaha", "zip_code": "68144", "country": "US", "state": "NE", "display_address": ["12100 W Center Rd", "Omaha, NE 68144"]}, "phone": "+14026977000", "display_phone": "(402) 697-7000", "distance": 4801.040555008701}, {"id": "O25jzFjuNc4actjOcgwKiw", "alias": "burmese-restaurant-omaha", "name": "Burmese Restaurant", "image_url": "https://s3-media4.fl.yelpcdn.com/bphoto/H4cVpzO-xrO5SRLldAoB7w/o.jpg", "is_closed": false, "url": "https://www.yelp.com/biz/burmese-restaurant-omaha?adjust_creative=vyhy616UjsMTA_hrWyg_5w&utm_campaign=yelp_api_v3&utm_medium=api_v3_business_search&utm_source=vyhy616UjsMTA_hrWyg_5w", "review_count": 19, "categories": [{"alias": "burmese", "title": "Burmese"}], "rating": 4.5, "coordinates": {"latitude": 41.299634981861, "longitude": -95.9956749997299}, "transactions": ["pickup", "delivery"], "location": {"address1": "5912 Ames Ave", "address2": "", "address3": null, "city": "Omaha", "zip_code": "68104", "country": "US", "state": "NE", "display_address": ["5912 Ames Ave", "Omaha, NE 68104"]}, "phone": "+14026148966", "display_phone": "(402) 614-8966", "distance": 7133.3644970632795}, {"id": "gnGRcjQdXPcqTfs3D-tR8g", "alias": "ikasan-omaha", "name": "IkaSan", "image_url": "https://s3-media3.fl.yelpcdn.com/bphoto/9FxY9cUXHf7zXDFBTtYlYg/o.jpg", "is_closed": false, "url": "https://www.yelp.com/biz/ikasan-omaha?adjust_creative=vyhy616UjsMTA_hrWyg_5w&utm_campaign=yelp_api_v3&utm_medium=api_v3_business_search&utm_source=vyhy616UjsMTA_hrWyg_5w", "review_count": 157, "categories": [{"alias": "ramen", "title": "Ramen"}, {"alias": "tapasmallplates", "title": "Tapas/Small Plates"}, {"alias": "izakaya", "title": "Izakaya"}], "rating": 4.0, "coordinates": {"latitude": 41.2538397137449, "longitude": -95.931377}, "transactions": ["delivery"], "price": "$$", "location": {"address1": "1114 Jones St", "address2": "Ste C", "address3": null, "city": "Omaha", "zip_code": "68102", "country": "US", "state": "NE", "display_address": ["1114 Jones St", "Ste C", "Omaha, NE 68102"]}, "phone": "+14029164363", "display_phone": "(402) 916-4363", "distance": 9872.56561944065}, {"id": "dtb0xCwk0fwVm7ob4TgEIA", "alias": "wongs-hunan-garden-omaha-2", "name": "Wong's Hunan Garden", "image_url": "https://s3-media2.fl.yelpcdn.com/bphoto/Va56fbIjRFboP0yzYOOkQg/o.jpg", "is_closed": false, "url": "https://www.yelp.com/biz/wongs-hunan-garden-omaha-2?adjust_creative=vyhy616UjsMTA_hrWyg_5w&utm_campaign=yelp_api_v3&utm_medium=api_v3_business_search&utm_source=vyhy616UjsMTA_hrWyg_5w", "review_count": 62, "categories": [{"alias": "chinese", "title": "Chinese"}, {"alias": "korean", "title": "Korean"}], "rating": 4.0, "coordinates": {"latitude": 41.2072988384756, "longitude": -96.0818714123379}, "transactions": ["delivery"], "price": "$", "location": {"address1": "5050 S 108th St", "address2": "", "address3": "", "city": "Omaha", "zip_code": "68137", "country": "US", "state": "NE", "display_address": ["5050 S 108th St", "Omaha, NE 68137"]}, "phone": "+14023311615", "display_phone": "(402) 331-1615", "distance": 5448.065761173057}, {"id": "4zVQWCUa2h_Wetn6hraKRw", "alias": "butterfish-omaha", "name": "Butterfish", "image_url": "https://s3-media1.fl.yelpcdn.com/bphoto/esv-Hu0QbvKyAgisL17IVQ/o.jpg", "is_closed": false, "url": "https://www.yelp.com/biz/butterfish-omaha?adjust_creative=vyhy616UjsMTA_hrWyg_5w&utm_campaign=yelp_api_v3&utm_medium=api_v3_business_search&utm_source=vyhy616UjsMTA_hrWyg_5w", "review_count": 131, "categories": [{"alias": "sushi", "title": "Sushi Bars"}, {"alias": "asianfusion", "title": "Asian Fusion"}, {"alias": "cocktailbars", "title": "Cocktail Bars"}], "rating": 4.5, "coordinates": {"latitude": 41.2576351, "longitude": -95.9720728}, "transactions": ["delivery"], "price": "$$", "location": {"address1": "3901 Farnam St", "address2": null, "address3": "", "city": "Omaha", "zip_code": "68131", "country": "US", "state": "NE", "display_address": ["3901 Farnam St", "Omaha, NE 68131"]}, "phone": "+14029348979", "display_phone": "(402) 934-8979", "distance": 6506.031450824396}, {"id": "NcRDiRnFaSYgVb9qXVSg7w", "alias": "sakura-bana-omaha", "name": "Sakura Bana", "image_url": "https://s3-media4.fl.yelpcdn.com/bphoto/r_OJ1FzEOvFnbgSsMvm_yg/o.jpg", "is_closed": false, "url": "https://www.yelp.com/biz/sakura-bana-omaha?adjust_creative=vyhy616UjsMTA_hrWyg_5w&utm_campaign=yelp_api_v3&utm_medium=api_v3_business_search&utm_source=vyhy616UjsMTA_hrWyg_5w", "review_count": 143, "categories": [{"alias": "japanese", "title": "Japanese"}, {"alias": "sushi", "title": "Sushi Bars"}], "rating": 4.0, "coordinates": {"latitude": 41.2589149475098, "longitude": -96.0280532836914}, "transactions": ["delivery"], "price": "$$", "location": {"address1": "7425 Dodge St", "address2": "", "address3": "", "city": "Omaha", "zip_code": "68114", "country": "US", "state": "NE", "display_address": ["7425 Dodge St", "Omaha, NE 68114"]}, "phone": "+14023915047", "display_phone": "(402) 391-5047", "distance": 2040.532751016554}, {"id": "WRAx16DRloWZXbKdMT_aGA", "alias": "taste-of-thailand-omaha", "name": "Taste of Thailand", "image_url": "https://s3-media3.fl.yelpcdn.com/bphoto/2YpadX1ReE_8NacU26Db8w/o.jpg", "is_closed": false, "url": "https://www.yelp.com/biz/taste-of-thailand-omaha?adjust_creative=vyhy616UjsMTA_hrWyg_5w&utm_campaign=yelp_api_v3&utm_medium=api_v3_business_search&utm_source=vyhy616UjsMTA_hrWyg_5w", "review_count": 118, "categories": [{"alias": "thai", "title": "Thai"}, {"alias": "asianfusion", "title": "Asian Fusion"}], "rating": 4.0, "coordinates": {"latitude": 41.2345029, "longitude": -96.160066}, "transactions": ["pickup", "delivery"], "price": "$$", "location": {"address1": "15712 W Center Rd", "address2": "", "address3": "", "city": "Omaha", "zip_code": "68130", "country": "US", "state": "NE", "display_address": ["15712 W Center Rd", "Omaha, NE 68130"]}, "phone": "+14026919991", "display_phone": "(402) 691-9991", "distance": 9411.302477519612}, {"id": "VMFLM5mNTO5I3tD7LB8C7w", "alias": "ika-ramen-and-izakaya-omaha", "name": "Ika Ramen and Izakaya", "image_url": "https://s3-media1.fl.yelpcdn.com/bphoto/JDIdM7XhD9SDOIXCA0hcww/o.jpg", "is_closed": false, "url": "https://www.yelp.com/biz/ika-ramen-and-izakaya-omaha?adjust_creative=vyhy616UjsMTA_hrWyg_5w&utm_campaign=yelp_api_v3&utm_medium=api_v3_business_search&utm_source=vyhy616UjsMTA_hrWyg_5w", "review_count": 295, "categories": [{"alias": "ramen", "title": "Ramen"}, {"alias": "izakaya", "title": "Izakaya"}, {"alias": "noodles", "title": "Noodles"}], "rating": 4.0, "coordinates": {"latitude": 41.284819, "longitude": -96.007687}, "transactions": ["pickup", "delivery"], "price": "$$", "location": {"address1": "6109 Maple St", "address2": null, "address3": "", "city": "Omaha", "zip_code": "68104", "country": "US", "state": "NE", "display_address": ["6109 Maple St", "Omaha, NE 68104"]}, "phone": "+14025582482", "display_phone": "(402) 558-2482", "distance": 5227.640149244447}, {"id": "s_e8mwBM5yn7-PEiXSnoNw", "alias": "china-palace-omaha", "name": "China Palace", "image_url": "https://s3-media3.fl.yelpcdn.com/bphoto/d13CyUDC5mYkbQOzPzMVLw/o.jpg", "is_closed": false, "url": "https://www.yelp.com/biz/china-palace-omaha?adjust_creative=vyhy616UjsMTA_hrWyg_5w&utm_campaign=yelp_api_v3&utm_medium=api_v3_business_search&utm_source=vyhy616UjsMTA_hrWyg_5w", "review_count": 92, "categories": [{"alias": "chinese", "title": "Chinese"}, {"alias": "seafood", "title": "Seafood"}, {"alias": "soup", "title": "Soup"}], "rating": 3.5, "coordinates": {"latitude": 41.2663445, "longitude": -95.9828362}, "transactions": ["pickup", "delivery"], "price": "$", "location": {"address1": "661 N 46th St", "address2": "", "address3": "", "city": "Omaha", "zip_code": "68132", "country": "US", "state": "NE", "display_address": ["661 N 46th St", "Omaha, NE 68132"]}, "phone": "+14025568819", "display_phone": "(402) 556-8819", "distance": 5874.111969554032}, {"id": "WbRRRgNjNhtsU3fgT442Xw", "alias": "hiro-88-omaha-5", "name": "Hiro 88", "image_url": "https://s3-media1.fl.yelpcdn.com/bphoto/sBYQqQj5tV9Ko9cuEeYDdA/o.jpg", "is_closed": false, "url": "https://www.yelp.com/biz/hiro-88-omaha-5?adjust_creative=vyhy616UjsMTA_hrWyg_5w&utm_campaign=yelp_api_v3&utm_medium=api_v3_business_search&utm_source=vyhy616UjsMTA_hrWyg_5w", "review_count": 345, "categories": [{"alias": "sushi", "title": "Sushi Bars"}, {"alias": "japanese", "title": "Japanese"}, {"alias": "asianfusion", "title": "Asian Fusion"}], "rating": 4.0, "coordinates": {"latitude": 41.2547416687012, "longitude": -95.9340133666992}, "transactions": ["pickup", "delivery"], "price": "$$", "location": {"address1": "1308 Jackson St", "address2": null, "address3": null, "city": "Omaha", "zip_code": "68102", "country": "US", "state": "NE", "display_address": ["1308 Jackson St", "Omaha, NE 68102"]}, "phone": "+14029335168", "display_phone": "(402) 933-5168", "distance": 9638.03143573017}, {"id": "N5NcqoTJjn-ZjSJjVGvx1g", "alias": "crystal-jade-omaha", "name": "Crystal Jade", "image_url": "https://s3-media1.fl.yelpcdn.com/bphoto/Sed59dInRtpOrAf7VvRelA/o.jpg", "is_closed": false, "url": "https://www.yelp.com/biz/crystal-jade-omaha?adjust_creative=vyhy616UjsMTA_hrWyg_5w&utm_campaign=yelp_api_v3&utm_medium=api_v3_business_search&utm_source=vyhy616UjsMTA_hrWyg_5w", "review_count": 117, "categories": [{"alias": "chinese", "title": "Chinese"}, {"alias": "asianfusion", "title": "Asian Fusion"}, {"alias": "gluten_free", "title": "Gluten-Free"}], "rating": 3.5, "coordinates": {"latitude": 41.23989, "longitude": -96.02543}, "transactions": ["pickup", "delivery"], "price": "$$", "location": {"address1": "7255 Cedar St", "address2": "", "address3": "", "city": "Omaha", "zip_code": "68124", "country": "US", "state": "NE", "display_address": ["7255 Cedar St", "Omaha, NE 68124"]}, "phone": "+14023981688", "display_phone": "(402) 398-1688", "distance": 2277.710817567892}, {"id": "pseBdF_JsPa5LKAEdTDUrQ", "alias": "bangkok-kitchen-omaha", "name": "Bangkok Kitchen", "image_url": "https://s3-media3.fl.yelpcdn.com/bphoto/k0384b6twKYG_xMhSYKCFw/o.jpg", "is_closed": false, "url": "https://www.yelp.com/biz/bangkok-kitchen-omaha?adjust_creative=vyhy616UjsMTA_hrWyg_5w&utm_campaign=yelp_api_v3&utm_medium=api_v3_business_search&utm_source=vyhy616UjsMTA_hrWyg_5w", "review_count": 67, "categories": [{"alias": "thai", "title": "Thai"}], "rating": 4.0, "coordinates": {"latitude": 41.2576102346171, "longitude": -95.9414587542415}, "transactions": ["delivery"], "price": "$$", "location": {"address1": "1905 Farnam St", "address2": "", "address3": null, "city": "Omaha", "zip_code": "68102", "country": "US", "state": "NE", "display_address": ["1905 Farnam St", "Omaha, NE 68102"]}, "phone": "+14023465874", "display_phone": "(402) 346-5874", "distance": 9061.250637888312}, {"id": "4Q30LPMRvcH5jYC716CU-Q", "alias": "dragon-wok-omaha", "name": "Dragon Wok", "image_url": "https://s3-media3.fl.yelpcdn.com/bphoto/Usi7bQ8TYfNObc1wRn1GpQ/o.jpg", "is_closed": false, "url": "https://www.yelp.com/biz/dragon-wok-omaha?adjust_creative=vyhy616UjsMTA_hrWyg_5w&utm_campaign=yelp_api_v3&utm_medium=api_v3_business_search&utm_source=vyhy616UjsMTA_hrWyg_5w", "review_count": 97, "categories": [{"alias": "chinese", "title": "Chinese"}], "rating": 4.5, "coordinates": {"latitude": 41.3075365, "longitude": -96.137042}, "transactions": ["delivery"], "price": "$", "location": {"address1": "14220 Fort St", "address2": "Ste 105", "address3": null, "city": "Omaha", "zip_code": "68164", "country": "US", "state": "NE", "display_address": ["14220 Fort St", "Ste 105", "Omaha, NE 68164"]}, "phone": "+14029345727", "display_phone": "(402) 934-5727", "distance": 9746.154036316173}, {"id": "gQBNk1SGV-iNrgZUxEzt7Q", "alias": "korea-king-omaha", "name": "Korea King", "image_url": "https://s3-media1.fl.yelpcdn.com/bphoto/t2ZU9cgrJR05Z3VLLj5egw/o.jpg", "is_closed": false, "url": "https://www.yelp.com/biz/korea-king-omaha?adjust_creative=vyhy616UjsMTA_hrWyg_5w&utm_campaign=yelp_api_v3&utm_medium=api_v3_business_search&utm_source=vyhy616UjsMTA_hrWyg_5w", "review_count": 111, "categories": [{"alias": "korean", "title": "Korean"}], "rating": 4.0, "coordinates": {"latitude": 41.2113066, "longitude": -96.0620251}, "transactions": ["delivery"], "price": "$$", "location": {"address1": "4719 S 96th St", "address2": "", "address3": "", "city": "Omaha", "zip_code": "68127", "country": "US", "state": "NE", "display_address": ["4719 S 96th St", "Omaha, NE 68127"]}, "phone": "+14025936568", "display_phone": "(402) 593-6568", "distance": 4362.951531134556}, {"id": "tUT2Wpn2HGyj4mHSWqvcYw", "alias": "wave-bistro-omaha", "name": "Wave Bistro", "image_url": "https://s3-media1.fl.yelpcdn.com/bphoto/cLhbpJzmd0jD3hKm2ztnBA/o.jpg", "is_closed": false, "url": "https://www.yelp.com/biz/wave-bistro-omaha?adjust_creative=vyhy616UjsMTA_hrWyg_5w&utm_campaign=yelp_api_v3&utm_medium=api_v3_business_search&utm_source=vyhy616UjsMTA_hrWyg_5w", "review_count": 123, "categories": [{"alias": "asianfusion", "title": "Asian Fusion"}], "rating": 4.5, "coordinates": {"latitude": 41.2944967662737, "longitude": -96.139761426308}, "transactions": ["pickup"], "price": "$$", "location": {"address1": "4002 N 144th St", "address2": "", "address3": "", "city": "Omaha", "zip_code": "68116", "country": "US", "state": "NE", "display_address": ["4002 N 144th St", "Omaha, NE 68116"]}, "phone": "+14024968812", "display_phone": "(402) 496-8812", "distance": 9047.126664461772}, {"id": "BByyqUcKLyRgYHDc01XCdw", "alias": "three-happiness-express-omaha", "name": "Three Happiness Express", "image_url": "https://s3-media1.fl.yelpcdn.com/bphoto/0hZ_wPo3bBT8zhTcg9apDA/o.jpg", "is_closed": false, "url": "https://www.yelp.com/biz/three-happiness-express-omaha?adjust_creative=vyhy616UjsMTA_hrWyg_5w&utm_campaign=yelp_api_v3&utm_medium=api_v3_business_search&utm_source=vyhy616UjsMTA_hrWyg_5w", "review_count": 255, "categories": [{"alias": "chinese", "title": "Chinese"}], "rating": 4.0, "coordinates": {"latitude": 41.2522451, "longitude": -95.993022}, "transactions": ["delivery"], "price": "$", "location": {"address1": "5107 Leavenworth Ave", "address2": null, "address3": "", "city": "Omaha", "zip_code": "68106", "country": "US", "state": "NE", "display_address": ["5107 Leavenworth Ave", "Omaha, NE 68106"]}, "phone": "+14025588899", "display_phone": "(402) 558-8899", "distance": 4742.847437168797}, {"id": "HWJn4pvkQaZubRdd2e6rIw", "alias": "thai-pepper-omaha-2", "name": "Thai Pepper", "image_url": "https://s3-media4.fl.yelpcdn.com/bphoto/m07sy2ZFZ_8CajniWXh3XA/o.jpg", "is_closed": false, "url": "https://www.yelp.com/biz/thai-pepper-omaha-2?adjust_creative=vyhy616UjsMTA_hrWyg_5w&utm_campaign=yelp_api_v3&utm_medium=api_v3_business_search&utm_source=vyhy616UjsMTA_hrWyg_5w", "review_count": 99, "categories": [{"alias": "thai", "title": "Thai"}], "rating": 4.0, "coordinates": {"latitude": 41.2651365, "longitude": -96.0908276}, "transactions": ["delivery"], "price": "$$", "location": {"address1": "631 N 114th St", "address2": "", "address3": "", "city": "Omaha", "zip_code": "68154", "country": "US", "state": "NE", "display_address": ["631 N 114th St", "Omaha, NE 68154"]}, "phone": "+14024459490", "display_phone": "(402) 445-9490", "distance": 3796.9656836621025}, {"id": "9yoNgUDljC045pi7t8XK-Q", "alias": "umami-bellevue", "name": "Umami", "image_url": "https://s3-media4.fl.yelpcdn.com/bphoto/gjO07YF8W-gw-hHVgM89Ag/o.jpg", "is_closed": false, "url": "https://www.yelp.com/biz/umami-bellevue?adjust_creative=vyhy616UjsMTA_hrWyg_5w&utm_campaign=yelp_api_v3&utm_medium=api_v3_business_search&utm_source=vyhy616UjsMTA_hrWyg_5w", "review_count": 280, "categories": [{"alias": "japanese", "title": "Japanese"}, {"alias": "chinese", "title": "Chinese"}, {"alias": "thai", "title": "Thai"}], "rating": 4.5, "coordinates": {"latitude": 41.14486, "longitude": -95.91284}, "transactions": ["pickup", "delivery"], "price": "$$", "location": {"address1": "1504 Galvin Rd S", "address2": "", "address3": null, "city": "Bellevue", "zip_code": "68005", "country": "US", "state": "NE", "display_address": ["1504 Galvin Rd S", "Bellevue, NE 68005"]}, "phone": "+14029918822", "display_phone": "(402) 991-8822", "distance": 16321.485033941692}, {"id": "I00NCdLBLWai6Wr5iViC-Q", "alias": "asian-wok-omaha", "name": "Asian Wok", "image_url": "https://s3-media1.fl.yelpcdn.com/bphoto/A0RIuQlQBlCWNoMjAGdzug/o.jpg", "is_closed": false, "url": "https://www.yelp.com/biz/asian-wok-omaha?adjust_creative=vyhy616UjsMTA_hrWyg_5w&utm_campaign=yelp_api_v3&utm_medium=api_v3_business_search&utm_source=vyhy616UjsMTA_hrWyg_5w", "review_count": 63, "categories": [{"alias": "chinese", "title": "Chinese"}], "rating": 4.0, "coordinates": {"latitude": 41.2835243, "longitude": -96.0528349}, "transactions": ["pickup", "delivery"], "price": "$", "location": {"address1": "2666 N 90th St", "address2": null, "address3": null, "city": "Omaha", "zip_code": "68134", "country": "US", "state": "NE", "display_address": ["2666 N 90th St", "Omaha, NE 68134"]}, "phone": "+14028075915", "display_phone": "(402) 807-5915", "distance": 3810.542608627135}, {"id": "ijvztKL0Atdwl6U_EQx0wQ", "alias": "yoshitomo-omaha", "name": "Yoshitomo", "image_url": "https://s3-media3.fl.yelpcdn.com/bphoto/FhmxZwPHB0zTEZ2Wlwsa2A/o.jpg", "is_closed": false, "url": "https://www.yelp.com/biz/yoshitomo-omaha?adjust_creative=vyhy616UjsMTA_hrWyg_5w&utm_campaign=yelp_api_v3&utm_medium=api_v3_business_search&utm_source=vyhy616UjsMTA_hrWyg_5w", "review_count": 179, "categories": [{"alias": "japanese", "title": "Japanese"}], "rating": 4.5, "coordinates": {"latitude": 41.28471, "longitude": -96.00526}, "transactions": ["pickup", "delivery"], "price": "$$", "location": {"address1": "6009 Maple St", "address2": "", "address3": null, "city": "Omaha", "zip_code": "68104", "country": "US", "state": "NE", "display_address": ["6009 Maple St", "Omaha, NE 68104"]}, "phone": "+14029165872", "display_phone": "(402) 916-5872", "distance": 5362.05024299381}, {"id": "c3vtulHO6PEtYvxQuSuw3g", "alias": "hunan-fusion-sushi-wok-bar-omaha", "name": "Hunan Fusion  Sushi-Wok-Bar", "image_url": "https://s3-media2.fl.yelpcdn.com/bphoto/6QX2vvOuqMrmKUCcxOzBHA/o.jpg", "is_closed": false, "url": "https://www.yelp.com/biz/hunan-fusion-sushi-wok-bar-omaha?adjust_creative=vyhy616UjsMTA_hrWyg_5w&utm_campaign=yelp_api_v3&utm_medium=api_v3_business_search&utm_source=vyhy616UjsMTA_hrWyg_5w", "review_count": 124, "categories": [{"alias": "sushi", "title": "Sushi Bars"}, {"alias": "asianfusion", "title": "Asian Fusion"}, {"alias": "chinese", "title": "Chinese"}], "rating": 4.0, "coordinates": {"latitude": 41.2370086670412, "longitude": -96.1186367083885}, "transactions": ["pickup", "delivery"], "price": "$$", "location": {"address1": "2405 S 132nd St", "address2": "", "address3": "", "city": "Omaha", "zip_code": "68144", "country": "US", "state": "NE", "display_address": ["2405 S 132nd St", "Omaha, NE 68144"]}, "phone": "+14023345382", "display_phone": "(402) 334-5382", "distance": 5964.02183014892}, {"id": "X6MEVc4WdUkKY_gTq29O0w", "alias": "kobe-steakhouse-of-japan-omaha", "name": "Kobe Steakhouse of Japan", "image_url": "https://s3-media4.fl.yelpcdn.com/bphoto/voOBADIKMoB9HlinvCW4QA/o.jpg", "is_closed": false, "url": "https://www.yelp.com/biz/kobe-steakhouse-of-japan-omaha?adjust_creative=vyhy616UjsMTA_hrWyg_5w&utm_campaign=yelp_api_v3&utm_medium=api_v3_business_search&utm_source=vyhy616UjsMTA_hrWyg_5w", "review_count": 133, "categories": [{"alias": "steak", "title": "Steakhouses"}, {"alias": "teppanyaki", "title": "Teppanyaki"}], "rating": 4.0, "coordinates": {"latitude": 41.259, "longitude": -96.17801}, "transactions": ["delivery"], "price": "$$$", "location": {"address1": "16801 Burke St", "address2": "", "address3": "Village Pointe South", "city": "Omaha", "zip_code": "68118", "country": "US", "state": "NE", "display_address": ["16801 Burke St", "Village Pointe South", "Omaha, NE 68118"]}, "phone": "+14023911755", "display_phone": "(402) 391-1755", "distance": 10772.09634345719}, {"id": "OHI9MDtc-dxv76x0gD57wA", "alias": "pla-too-thai-omaha-3", "name": "Pla Too Thai", "image_url": "https://s3-media4.fl.yelpcdn.com/bphoto/ss5BV5_8TS5Y9ebNCUIL1g/o.jpg", "is_closed": false, "url": "https://www.yelp.com/biz/pla-too-thai-omaha-3?adjust_creative=vyhy616UjsMTA_hrWyg_5w&utm_campaign=yelp_api_v3&utm_medium=api_v3_business_search&utm_source=vyhy616UjsMTA_hrWyg_5w", "review_count": 88, "categories": [{"alias": "thai", "title": "Thai"}, {"alias": "noodles", "title": "Noodles"}], "rating": 4.0, "coordinates": {"latitude": 41.20487, "longitude": -96.1140099}, "transactions": ["pickup", "delivery"], "price": "$$", "location": {"address1": "12775 Q St", "address2": "", "address3": "", "city": "Omaha", "zip_code": "68137", "country": "US", "state": "NE", "display_address": ["12775 Q St", "Omaha, NE 68137"]}, "phone": "+14028957788", "display_phone": "(402) 895-7788", "distance": 7354.207216665298}], "total": 153, "region": {"center": {"longitude": -96.04934692382812, "latitude": 41.249751460388396}}}