{"businesses": [{"id": "pwkq382djGqEC0oKWIHSMg", "alias": "golden-tao-restaurant-manchester", "name": "Golden Tao Restaurant", "image_url": "https://s3-media3.fl.yelpcdn.com/bphoto/MQPVKZpG-xQ2iVmP0Oq5lA/o.jpg", "is_closed": false, "url": "https://www.yelp.com/biz/golden-tao-restaurant-manchester?adjust_creative=vyhy616UjsMTA_hrWyg_5w&utm_campaign=yelp_api_v3&utm_medium=api_v3_business_search&utm_source=vyhy616UjsMTA_hrWyg_5w", "review_count": 174, "categories": [{"alias": "dimsum", "title": "Dim Sum"}], "rating": 4.5, "coordinates": {"latitude": 42.9929, "longitude": -71.48112}, "transactions": ["delivery"], "price": "$$", "location": {"address1": "270 Amory St", "address2": "", "address3": "", "city": "Manchester", "zip_code": "03102", "country": "US", "state": "NH", "display_address": ["270 Amory St", "Manchester, NH 03102"]}, "phone": "+16035187076", "display_phone": "(603) 518-7076", "distance": 2363.4343079727832}, {"id": "1yiR00aTe1eP3KRDP7aYjQ", "alias": "buba-noodle-bar-manchester", "name": "Buba Noodle Bar", "image_url": "https://s3-media3.fl.yelpcdn.com/bphoto/cPwqo9aeTXIqcYP5OrtWPw/o.jpg", "is_closed": false, "url": "https://www.yelp.com/biz/buba-noodle-bar-manchester?adjust_creative=vyhy616UjsMTA_hrWyg_5w&utm_campaign=yelp_api_v3&utm_medium=api_v3_business_search&utm_source=vyhy616UjsMTA_hrWyg_5w", "review_count": 133, "categories": [{"alias": "vietnamese", "title": "Vietnamese"}, {"alias": "asianfusion", "title": "Asian Fusion"}, {"alias": "ramen", "title": "Ramen"}], "rating": 4.0, "coordinates": {"latitude": 42.9937149, "longitude": -71.4619525}, "transactions": ["delivery"], "price": "$$", "location": {"address1": "36 Lowell St", "address2": null, "address3": "", "city": "Manchester", "zip_code": "03101", "country": "US", "state": "NH", "display_address": ["36 Lowell St", "Manchester, NH 03101"]}, "phone": "+16039357864", "display_phone": "(603) 935-7864", "distance": 1314.2604202499988}, {"id": "aN78ZxVx6kT8i2kEIqxsgg", "alias": "daw-kun-thai-manchester", "name": "Daw Kun Thai", "image_url": "https://s3-media2.fl.yelpcdn.com/bphoto/mWBMzYFAqBY4_RH4it_NLg/o.jpg", "is_closed": false, "url": "https://www.yelp.com/biz/daw-kun-thai-manchester?adjust_creative=vyhy616UjsMTA_hrWyg_5w&utm_campaign=yelp_api_v3&utm_medium=api_v3_business_search&utm_source=vyhy616UjsMTA_hrWyg_5w", "review_count": 181, "categories": [{"alias": "thai", "title": "Thai"}], "rating": 4.5, "coordinates": {"latitude": 42.93794, "longitude": -71.45435}, "transactions": ["delivery"], "price": "$$", "location": {"address1": "2626 Brown Ave", "address2": null, "address3": "", "city": "Manchester", "zip_code": "03103", "country": "US", "state": "NH", "display_address": ["2626 Brown Ave", "Manchester, NH 03103"]}, "phone": "+16032320699", "display_phone": "(603) 232-0699", "distance": 5014.789250689857}, {"id": "10gYjWTEQU4I2XVQJvEy1w", "alias": "golden-karma-manchester", "name": "Golden Karma", "image_url": "https://s3-media2.fl.yelpcdn.com/bphoto/G_HXWYGhEf3leozG6CVXjQ/o.jpg", "is_closed": false, "url": "https://www.yelp.com/biz/golden-karma-manchester?adjust_creative=vyhy616UjsMTA_hrWyg_5w&utm_campaign=yelp_api_v3&utm_medium=api_v3_business_search&utm_source=vyhy616UjsMTA_hrWyg_5w", "review_count": 33, "categories": [{"alias": "sushi", "title": "Sushi Bars"}], "rating": 4.5, "coordinates": {"latitude": 42.97367, "longitude": -71.45817}, "transactions": ["delivery", "pickup"], "location": {"address1": "6 Willow St", "address2": null, "address3": "", "city": "Manchester", "zip_code": "03103", "country": "US", "state": "NH", "display_address": ["6 Willow St", "Manchester, NH 03103"]}, "phone": "+16032065780", "display_phone": "(603) 206-5780", "distance": 1059.3938525981332}, {"id": "bSG1Mrw6Ft4JyAZcXrdrxA", "alias": "lemon-thai-and-sushi-manchester", "name": "Lemon Thai & Sushi", "image_url": "https://s3-media2.fl.yelpcdn.com/bphoto/714wEIKWY1syg5LVHTMTwA/o.jpg", "is_closed": false, "url": "https://www.yelp.com/biz/lemon-thai-and-sushi-manchester?adjust_creative=vyhy616UjsMTA_hrWyg_5w&utm_campaign=yelp_api_v3&utm_medium=api_v3_business_search&utm_source=vyhy616UjsMTA_hrWyg_5w", "review_count": 44, "categories": [{"alias": "asianfusion", "title": "Asian Fusion"}, {"alias": "japanese", "title": "Japanese"}, {"alias": "thai", "title": "Thai"}], "rating": 4.0, "coordinates": {"latitude": 42.975922, "longitude": -71.479155}, "transactions": ["delivery", "pickup"], "location": {"address1": "470 S Main St", "address2": null, "address3": "", "city": "Manchester", "zip_code": "03102", "country": "US", "state": "NH", "display_address": ["470 S Main St", "Manchester, NH 03102"]}, "phone": "+16032183879", "display_phone": "(603) 218-3879", "distance": 2109.7271211629222}, {"id": "TtkFPyIB05OLd__tSu3yPQ", "alias": "pho-golden-bowl-manchester-2", "name": "Pho Golden  Bowl", "image_url": "https://s3-media4.fl.yelpcdn.com/bphoto/Y56x-XPj9akWs4PXSB3nlQ/o.jpg", "is_closed": false, "url": "https://www.yelp.com/biz/pho-golden-bowl-manchester-2?adjust_creative=vyhy616UjsMTA_hrWyg_5w&utm_campaign=yelp_api_v3&utm_medium=api_v3_business_search&utm_source=vyhy616UjsMTA_hrWyg_5w", "review_count": 85, "categories": [{"alias": "vietnamese", "title": "Vietnamese"}, {"alias": "noodles", "title": "Noodles"}, {"alias": "soup", "title": "Soup"}], "rating": 4.0, "coordinates": {"latitude": 42.9873687899339, "longitude": -71.4625781861455}, "transactions": ["delivery", "pickup"], "price": "$", "location": {"address1": "12 Lake Ave", "address2": "", "address3": "", "city": "Manchester", "zip_code": "03101", "country": "US", "state": "NH", "display_address": ["12 Lake Ave", "Manchester, NH 03101"]}, "phone": "+16036222000", "display_phone": "(603) 622-2000", "distance": 777.1181893253657}, {"id": "sc7RuwUgx2QmfEqWUNr7xA", "alias": "sun-shui-asian-cuisine-bedford", "name": "Sun Shui Asian Cuisine", "image_url": "https://s3-media1.fl.yelpcdn.com/bphoto/-CbiTW2D6_L12vBGT29lBw/o.jpg", "is_closed": false, "url": "https://www.yelp.com/biz/sun-shui-asian-cuisine-bedford?adjust_creative=vyhy616UjsMTA_hrWyg_5w&utm_campaign=yelp_api_v3&utm_medium=api_v3_business_search&utm_source=vyhy616UjsMTA_hrWyg_5w", "review_count": 153, "categories": [{"alias": "japanese", "title": "Japanese"}, {"alias": "sushi", "title": "Sushi Bars"}, {"alias": "chinese", "title": "Chinese"}], "rating": 4.0, "coordinates": {"latitude": 42.9198280764362, "longitude": -71.4610857025162}, "transactions": ["delivery"], "price": "$$", "location": {"address1": "410 S River Rd", "address2": "", "address3": "", "city": "Bedford", "zip_code": "03110", "country": "US", "state": "NH", "display_address": ["410 S River Rd", "Bedford, NH 03110"]}, "phone": "+16036266181", "display_phone": "(603) 626-6181", "distance": 7045.7839769112}, {"id": "Z0soiep-WCTLZu8V5ADXDQ", "alias": "noodz-manchester", "name": "Noodz", "image_url": "https://s3-media4.fl.yelpcdn.com/bphoto/u-UyI9BTRpiD9zfFGKHQJg/o.jpg", "is_closed": false, "url": "https://www.yelp.com/biz/noodz-manchester?adjust_creative=vyhy616UjsMTA_hrWyg_5w&utm_campaign=yelp_api_v3&utm_medium=api_v3_business_search&utm_source=vyhy616UjsMTA_hrWyg_5w", "review_count": 103, "categories": [{"alias": "ramen", "title": "Ramen"}, {"alias": "asianfusion", "title": "Asian Fusion"}], "rating": 3.5, "coordinates": {"latitude": 42.99182, "longitude": -71.46343}, "transactions": ["delivery"], "price": "$$", "location": {"address1": "968 Elm St", "address2": "", "address3": null, "city": "Manchester", "zip_code": "03101", "country": "US", "state": "NH", "display_address": ["968 Elm St", "Manchester, NH 03101"]}, "phone": "+16038365878", "display_phone": "(603) 836-5878", "distance": 1187.4227989601925}, {"id": "dBfupIKUH-PquF88SKKdWA", "alias": "kisaki-japanese-cuisine-manchester", "name": "Kisaki Japanese Cuisine", "image_url": "https://s3-media2.fl.yelpcdn.com/bphoto/Waex1Jw9Mh0tSH1t62t0-g/o.jpg", "is_closed": false, "url": "https://www.yelp.com/biz/kisaki-japanese-cuisine-manchester?adjust_creative=vyhy616UjsMTA_hrWyg_5w&utm_campaign=yelp_api_v3&utm_medium=api_v3_business_search&utm_source=vyhy616UjsMTA_hrWyg_5w", "review_count": 106, "categories": [{"alias": "japanese", "title": "Japanese"}, {"alias": "sushi", "title": "Sushi Bars"}, {"alias": "beer_and_wine", "title": "Beer, Wine & Spirits"}], "rating": 4.0, "coordinates": {"latitude": 42.9873595, "longitude": -71.4629351}, "transactions": ["delivery", "pickup"], "price": "$$", "location": {"address1": "641 Elm St", "address2": null, "address3": "", "city": "Manchester", "zip_code": "03101", "country": "US", "state": "NH", "display_address": ["641 Elm St", "Manchester, NH 03101"]}, "phone": "+16036688001", "display_phone": "(603) 668-8001", "distance": 797.5277784688532}, {"id": "ASSbdi0R5F62TL9gxRIUqw", "alias": "yuki-japanese-grill-manchester", "name": "Yuki Japanese Grill", "image_url": "https://s3-media1.fl.yelpcdn.com/bphoto/pK7yEklf3I5ItXivOqdm0Q/o.jpg", "is_closed": false, "url": "https://www.yelp.com/biz/yuki-japanese-grill-manchester?adjust_creative=vyhy616UjsMTA_hrWyg_5w&utm_campaign=yelp_api_v3&utm_medium=api_v3_business_search&utm_source=vyhy616UjsMTA_hrWyg_5w", "review_count": 138, "categories": [{"alias": "japanese", "title": "Japanese"}, {"alias": "sushi", "title": "Sushi Bars"}], "rating": 4.0, "coordinates": {"latitude": 42.9662306483069, "longitude": -71.4525214470278}, "transactions": ["delivery"], "price": "$$", "location": {"address1": "377 S Willow St", "address2": "", "address3": "", "city": "Manchester", "zip_code": "03103", "country": "US", "state": "NH", "display_address": ["377 S Willow St", "Manchester, NH 03103"]}, "phone": "+16036666678", "display_phone": "(603) 666-6678", "distance": 1880.6120717915344}, {"id": "tbZfHFZ9htlm_jQc2xCzSA", "alias": "chens-garden-manchester", "name": "Chen's Garden", "image_url": "https://s3-media2.fl.yelpcdn.com/bphoto/QgwTiyCWG3Kjj5gzBM_RMA/o.jpg", "is_closed": false, "url": "https://www.yelp.com/biz/chens-garden-manchester?adjust_creative=vyhy616UjsMTA_hrWyg_5w&utm_campaign=yelp_api_v3&utm_medium=api_v3_business_search&utm_source=vyhy616UjsMTA_hrWyg_5w", "review_count": 130, "categories": [{"alias": "chinese", "title": "Chinese"}, {"alias": "japanese", "title": "Japanese"}], "rating": 3.5, "coordinates": {"latitude": 42.9677747189999, "longitude": -71.4799938350916}, "transactions": ["delivery", "pickup"], "price": "$$", "location": {"address1": "956 Second St", "address2": "", "address3": "", "city": "Manchester", "zip_code": "03102", "country": "US", "state": "NH", "display_address": ["956 Second St", "Manchester, NH 03102"]}, "phone": "+16038365608", "display_phone": "(603) 836-5608", "distance": 2612.8340238306455}, {"id": "kM27XtMUeVZt1lZUcxYqug", "alias": "szechuan-house-manchester", "name": "Szechuan House", "image_url": "https://s3-media1.fl.yelpcdn.com/bphoto/mTXRWUQlqWUE4MoVLy4KmQ/o.jpg", "is_closed": false, "url": "https://www.yelp.com/biz/szechuan-house-manchester?adjust_creative=vyhy616UjsMTA_hrWyg_5w&utm_campaign=yelp_api_v3&utm_medium=api_v3_business_search&utm_source=vyhy616UjsMTA_hrWyg_5w", "review_count": 92, "categories": [{"alias": "chinese", "title": "Chinese"}], "rating": 3.5, "coordinates": {"latitude": 42.9819177508151, "longitude": -71.4522069136551}, "transactions": ["delivery"], "price": "$$", "location": {"address1": "245 Maple St", "address2": "Unit 4", "address3": "", "city": "Manchester", "zip_code": "03103", "country": "US", "state": "NH", "display_address": ["245 Maple St", "Unit 4", "Manchester, NH 03103"]}, "phone": "+16036698811", "display_phone": "(603) 669-8811", "distance": 264.78924230861315}, {"id": "WDIRUgOCfQUsqJ74g4csqA", "alias": "asian-breeze-hooksett", "name": "Asian Breeze", "image_url": "https://s3-media2.fl.yelpcdn.com/bphoto/Sfaf0lH4d9V_OiibL6tLKg/o.jpg", "is_closed": false, "url": "https://www.yelp.com/biz/asian-breeze-hooksett?adjust_creative=vyhy616UjsMTA_hrWyg_5w&utm_campaign=yelp_api_v3&utm_medium=api_v3_business_search&utm_source=vyhy616UjsMTA_hrWyg_5w", "review_count": 87, "categories": [{"alias": "sushi", "title": "Sushi Bars"}, {"alias": "chinese", "title": "Chinese"}, {"alias": "asianfusion", "title": "Asian Fusion"}], "rating": 4.0, "coordinates": {"latitude": 43.055818900466, "longitude": -71.4406002312899}, "transactions": ["delivery"], "price": "$$", "location": {"address1": "1328 Hooksett Rd", "address2": "", "address3": "", "city": "Hooksett", "zip_code": "03106", "country": "US", "state": "NH", "display_address": ["1328 Hooksett Rd", "Hooksett, NH 03106"]}, "phone": "+16036219298", "display_phone": "(603) 621-9298", "distance": 8031.713018927064}, {"id": "i29YMxgdYYRkLyzvS4rZPw", "alias": "mint-bistro-manchester-2", "name": "Mint Bistro", "image_url": "https://s3-media1.fl.yelpcdn.com/bphoto/obIT9pIbDyOHSTtJGav1Xg/o.jpg", "is_closed": false, "url": "https://www.yelp.com/biz/mint-bistro-manchester-2?adjust_creative=vyhy616UjsMTA_hrWyg_5w&utm_campaign=yelp_api_v3&utm_medium=api_v3_business_search&utm_source=vyhy616UjsMTA_hrWyg_5w", "review_count": 244, "categories": [{"alias": "newamerican", "title": "American (New)"}, {"alias": "sushi", "title": "Sushi Bars"}], "rating": 4.0, "coordinates": {"latitude": 42.9939131340978, "longitude": -71.4628397673368}, "transactions": ["delivery"], "price": "$$$", "location": {"address1": "1105 Elm St", "address2": "", "address3": "", "city": "Manchester", "zip_code": "03101", "country": "US", "state": "NH", "display_address": ["1105 Elm St", "Manchester, NH 03101"]}, "phone": "+16036256468", "display_phone": "(603) 625-6468", "distance": 1363.9728711406106}, {"id": "56H_S4CNWDmPk-4A-7_Bxw", "alias": "north-garden-restaurant-manchester", "name": "North Garden Restaurant", "image_url": "https://s3-media3.fl.yelpcdn.com/bphoto/pbbR4HihTGBDwk2QkcJi-A/o.jpg", "is_closed": false, "url": "https://www.yelp.com/biz/north-garden-restaurant-manchester?adjust_creative=vyhy616UjsMTA_hrWyg_5w&utm_campaign=yelp_api_v3&utm_medium=api_v3_business_search&utm_source=vyhy616UjsMTA_hrWyg_5w", "review_count": 80, "categories": [{"alias": "dimsum", "title": "Dim Sum"}], "rating": 3.5, "coordinates": {"latitude": 42.992139, "longitude": -71.502985}, "transactions": ["delivery"], "price": "$$", "location": {"address1": "715 Mast Rd", "address2": "", "address3": "", "city": "Manchester", "zip_code": "03102", "country": "US", "state": "NH", "display_address": ["715 Mast Rd", "Manchester, NH 03102"]}, "phone": "+16036681668", "display_phone": "(603) 668-1668", "distance": 4013.5940739553016}, {"id": "_DH8qXWulBx-sEdHg6gLVA", "alias": "jade-garden-hooksett", "name": "Jade Garden", "image_url": "https://s3-media2.fl.yelpcdn.com/bphoto/LRTvLYADgVawLVFvHyI7Cw/o.jpg", "is_closed": false, "url": "https://www.yelp.com/biz/jade-garden-hooksett?adjust_creative=vyhy616UjsMTA_hrWyg_5w&utm_campaign=yelp_api_v3&utm_medium=api_v3_business_search&utm_source=vyhy616UjsMTA_hrWyg_5w", "review_count": 26, "categories": [{"alias": "chinese", "title": "Chinese"}], "rating": 4.0, "coordinates": {"latitude": 43.04824, "longitude": -71.4360899}, "transactions": ["delivery"], "price": "$", "location": {"address1": "1271 Hooksett Rd", "address2": "", "address3": "", "city": "Hooksett", "zip_code": "03106", "country": "US", "state": "NH", "display_address": ["1271 Hooksett Rd", "Hooksett, NH 03106"]}, "phone": "+16036228868", "display_phone": "(603) 622-8868", "distance": 7481.683959623603}, {"id": "pwvondL77jUu_ctF9_szAA", "alias": "new-wa-toy-manchester", "name": "New Wa Toy", "image_url": "https://s3-media1.fl.yelpcdn.com/bphoto/TizR51M-OHQhPBNxUcnwUQ/o.jpg", "is_closed": false, "url": "https://www.yelp.com/biz/new-wa-toy-manchester?adjust_creative=vyhy616UjsMTA_hrWyg_5w&utm_campaign=yelp_api_v3&utm_medium=api_v3_business_search&utm_source=vyhy616UjsMTA_hrWyg_5w", "review_count": 39, "categories": [{"alias": "chinese", "title": "Chinese"}], "rating": 3.5, "coordinates": {"latitude": 42.9972427072069, "longitude": -71.5122343612678}, "transactions": ["delivery"], "price": "$$", "location": {"address1": "611 Mast Rd", "address2": "", "address3": "", "city": "Manchester", "zip_code": "03102", "country": "US", "state": "NH", "display_address": ["611 Mast Rd", "Manchester, NH 03102"]}, "phone": "+16036681088", "display_phone": "(603) 668-1088", "distance": 4909.7845468034375}, {"id": "2BiZ_NyIXZFriOD8fggyoQ", "alias": "cheng-du-kitchen-manchester", "name": "Cheng Du Kitchen", "image_url": "https://s3-media1.fl.yelpcdn.com/bphoto/ys-HQHDsiHcp2W54H79HmA/o.jpg", "is_closed": false, "url": "https://www.yelp.com/biz/cheng-du-kitchen-manchester?adjust_creative=vyhy616UjsMTA_hrWyg_5w&utm_campaign=yelp_api_v3&utm_medium=api_v3_business_search&utm_source=vyhy616UjsMTA_hrWyg_5w", "review_count": 41, "categories": [{"alias": "chinese", "title": "Chinese"}, {"alias": "seafood", "title": "Seafood"}, {"alias": "soup", "title": "Soup"}], "rating": 3.5, "coordinates": {"latitude": 43.0170256, "longitude": -71.4499998}, "transactions": ["delivery", "pickup"], "price": "$", "location": {"address1": "665 Hooksett Rd", "address2": null, "address3": null, "city": "Manchester", "zip_code": "03104", "country": "US", "state": "NH", "display_address": ["665 Hooksett Rd", "Manchester, NH 03104"]}, "phone": "+16036261689", "display_phone": "(603) 626-1689", "distance": 3777.6666839030777}, {"id": "FcevkPyMNqqDGRYVoyxg4Q", "alias": "thai-food-connection-manchester", "name": "Thai Food Connection", "image_url": "https://s3-media4.fl.yelpcdn.com/bphoto/JHfs96zOvqgMz0qQaKe3BQ/o.jpg", "is_closed": false, "url": "https://www.yelp.com/biz/thai-food-connection-manchester?adjust_creative=vyhy616UjsMTA_hrWyg_5w&utm_campaign=yelp_api_v3&utm_medium=api_v3_business_search&utm_source=vyhy616UjsMTA_hrWyg_5w", "review_count": 21, "categories": [{"alias": "thai", "title": "Thai"}, {"alias": "ramen", "title": "Ramen"}, {"alias": "asianfusion", "title": "Asian Fusion"}], "rating": 4.5, "coordinates": {"latitude": 42.993297, "longitude": -71.46279}, "transactions": ["delivery", "pickup"], "location": {"address1": "1069 Elm St", "address2": null, "address3": "", "city": "Manchester", "zip_code": "03101", "country": "US", "state": "NH", "display_address": ["1069 Elm St", "Manchester, NH 03101"]}, "phone": "+16039357257", "display_phone": "(603) 935-7257", "distance": 1301.6740545051125}, {"id": "eil99eF5vzKTdcwiYykdug", "alias": "kathmandu-spice-manchester", "name": "Kathmandu Spice", "image_url": "https://s3-media3.fl.yelpcdn.com/bphoto/aJNyIvWJdD8iArs_Az5d5A/o.jpg", "is_closed": false, "url": "https://www.yelp.com/biz/kathmandu-spice-manchester?adjust_creative=vyhy616UjsMTA_hrWyg_5w&utm_campaign=yelp_api_v3&utm_medium=api_v3_business_search&utm_source=vyhy616UjsMTA_hrWyg_5w", "review_count": 184, "categories": [{"alias": "indpak", "title": "Indian"}, {"alias": "himalayan", "title": "Himalayan/Nepalese"}], "rating": 4.5, "coordinates": {"latitude": 42.9683421, "longitude": -71.4520479}, "transactions": ["delivery", "pickup"], "price": "$$", "location": {"address1": "379 S Willow St", "address2": null, "address3": "", "city": "Manchester", "zip_code": "03103", "country": "US", "state": "NH", "display_address": ["379 S Willow St", "Manchester, NH 03103"]}, "phone": "+16037823911", "display_phone": "(603) 782-3911", "distance": 1874.465447382895}, {"id": "u9G67oR97EWg6BJpxLR5YA", "alias": "muse-thai-bistro-manchester-3", "name": "Muse Thai Bistro", "image_url": "https://s3-media2.fl.yelpcdn.com/bphoto/JWT3ZPWAojrioy-0NLUxxA/o.jpg", "is_closed": false, "url": "https://www.yelp.com/biz/muse-thai-bistro-manchester-3?adjust_creative=vyhy616UjsMTA_hrWyg_5w&utm_campaign=yelp_api_v3&utm_medium=api_v3_business_search&utm_source=vyhy616UjsMTA_hrWyg_5w", "review_count": 167, "categories": [{"alias": "thai", "title": "Thai"}, {"alias": "sushi", "title": "Sushi Bars"}, {"alias": "japanese", "title": "Japanese"}], "rating": 3.5, "coordinates": {"latitude": 42.9742643237114, "longitude": -71.4758639037609}, "transactions": ["delivery"], "price": "$$", "location": {"address1": "581 Second St", "address2": "Ste C", "address3": "", "city": "Manchester", "zip_code": "03102", "country": "US", "state": "NH", "display_address": ["581 Second St", "Ste C", "Manchester, NH 03102"]}, "phone": "+16036475547", "display_phone": "(603) 647-5547", "distance": 1952.2854955217153}, {"id": "9uq7-JcV9txvjQfdJunqlg", "alias": "masa-japanese-hibachi-manchester", "name": "Masa Japanese Hibachi", "image_url": "https://s3-media1.fl.yelpcdn.com/bphoto/JaslczE2f7JhM5A75qZAqQ/o.jpg", "is_closed": false, "url": "https://www.yelp.com/biz/masa-japanese-hibachi-manchester?adjust_creative=vyhy616UjsMTA_hrWyg_5w&utm_campaign=yelp_api_v3&utm_medium=api_v3_business_search&utm_source=vyhy616UjsMTA_hrWyg_5w", "review_count": 241, "categories": [{"alias": "sushi", "title": "Sushi Bars"}, {"alias": "steak", "title": "Steakhouses"}, {"alias": "asianfusion", "title": "Asian Fusion"}], "rating": 3.5, "coordinates": {"latitude": 42.9511990944588, "longitude": -71.4358494015658}, "transactions": ["delivery"], "price": "$$", "location": {"address1": "1707 S Willow St", "address2": "", "address3": "", "city": "Manchester", "zip_code": "03103", "country": "US", "state": "NH", "display_address": ["1707 S Willow St", "Manchester, NH 03103"]}, "phone": "+16036269888", "display_phone": "(603) 626-9888", "distance": 3870.7941937288756}, {"id": "n2Enx2iFgJ95xbWzjRu5kA", "alias": "thousand-crane-manchester", "name": "Thousand Crane", "image_url": "https://s3-media2.fl.yelpcdn.com/bphoto/GMsnxyN-oFpw5319iq4s1g/o.jpg", "is_closed": false, "url": "https://www.yelp.com/biz/thousand-crane-manchester?adjust_creative=vyhy616UjsMTA_hrWyg_5w&utm_campaign=yelp_api_v3&utm_medium=api_v3_business_search&utm_source=vyhy616UjsMTA_hrWyg_5w", "review_count": 99, "categories": [{"alias": "japanese", "title": "Japanese"}, {"alias": "chinese", "title": "Chinese"}, {"alias": "sushi", "title": "Sushi Bars"}], "rating": 3.0, "coordinates": {"latitude": 42.992475, "longitude": -71.463708}, "transactions": ["delivery", "pickup"], "price": "$$", "location": {"address1": "1000 Elm St", "address2": null, "address3": "", "city": "Manchester", "zip_code": "03101", "country": "US", "state": "NH", "display_address": ["1000 Elm St", "Manchester, NH 03101"]}, "phone": "+16036340000", "display_phone": "(603) 634-0000", "distance": 1262.3259431535569}, {"id": "yKrv9Zb0FcuMVCw_HSMS6w", "alias": "110-grill-manchester", "name": "110 Grill", "image_url": "https://s3-media2.fl.yelpcdn.com/bphoto/ITjaWwgafLmK1JH0B6901A/o.jpg", "is_closed": false, "url": "https://www.yelp.com/biz/110-grill-manchester?adjust_creative=vyhy616UjsMTA_hrWyg_5w&utm_campaign=yelp_api_v3&utm_medium=api_v3_business_search&utm_source=vyhy616UjsMTA_hrWyg_5w", "review_count": 143, "categories": [{"alias": "newamerican", "title": "American (New)"}, {"alias": "cocktailbars", "title": "Cocktail Bars"}], "rating": 4.0, "coordinates": {"latitude": 42.99056, "longitude": -71.46269}, "transactions": [], "location": {"address1": "875 Elm St", "address2": null, "address3": "", "city": "Manchester", "zip_code": "03101", "country": "US", "state": "NH", "display_address": ["875 Elm St", "Manchester, NH 03101"]}, "phone": "+16038361150", "display_phone": "(603) 836-1150", "distance": 1041.1856870496194}, {"id": "QL6NmREyKULoiddcK-wdTQ", "alias": "chen-yang-li-bedford", "name": "Chen Yang Li", "image_url": "https://s3-media2.fl.yelpcdn.com/bphoto/gNVTj1Phhrz2UYsrkueh1w/o.jpg", "is_closed": false, "url": "https://www.yelp.com/biz/chen-yang-li-bedford?adjust_creative=vyhy616UjsMTA_hrWyg_5w&utm_campaign=yelp_api_v3&utm_medium=api_v3_business_search&utm_source=vyhy616UjsMTA_hrWyg_5w", "review_count": 81, "categories": [{"alias": "chinese", "title": "Chinese"}, {"alias": "japanese", "title": "Japanese"}, {"alias": "sushi", "title": "Sushi Bars"}], "rating": 3.0, "coordinates": {"latitude": 42.953387, "longitude": -71.479227}, "transactions": ["delivery"], "price": "$$", "location": {"address1": "124 S River Rd", "address2": "", "address3": "", "city": "Bedford", "zip_code": "03110", "country": "US", "state": "NH", "display_address": ["124 S River Rd", "Bedford, NH 03110"]}, "phone": "+16036416922", "display_phone": "(603) 641-6922", "distance": 3838.277137509699}, {"id": "efB934HO8ueE9i2zk42IZw", "alias": "cotton-manchester-2", "name": "Cotton", "image_url": "https://s3-media4.fl.yelpcdn.com/bphoto/4trqpmGtUfz_dDHQXdKXAQ/o.jpg", "is_closed": false, "url": "https://www.yelp.com/biz/cotton-manchester-2?adjust_creative=vyhy616UjsMTA_hrWyg_5w&utm_campaign=yelp_api_v3&utm_medium=api_v3_business_search&utm_source=vyhy616UjsMTA_hrWyg_5w", "review_count": 407, "categories": [{"alias": "cocktailbars", "title": "Cocktail Bars"}, {"alias": "tradamerican", "title": "American (Traditional)"}], "rating": 4.0, "coordinates": {"latitude": 42.9941012250103, "longitude": -71.466064453125}, "transactions": ["delivery"], "price": "$$", "location": {"address1": "75 Arms St", "address2": "", "address3": "", "city": "Manchester", "zip_code": "03101", "country": "US", "state": "NH", "display_address": ["75 Arms St", "Manchester, NH 03101"]}, "phone": "+16036225488", "display_phone": "(603) 622-5488", "distance": 1520.329854142726}, {"id": "IXT7JJM9bRBrhCwfL3Fb2w", "alias": "heng-won-chinese-restaurant-manchester", "name": "Heng Won Chinese Restaurant", "image_url": "https://s3-media3.fl.yelpcdn.com/bphoto/a4QsL8uFAE5Oqe2l316iyg/o.jpg", "is_closed": false, "url": "https://www.yelp.com/biz/heng-won-chinese-restaurant-manchester?adjust_creative=vyhy616UjsMTA_hrWyg_5w&utm_campaign=yelp_api_v3&utm_medium=api_v3_business_search&utm_source=vyhy616UjsMTA_hrWyg_5w", "review_count": 57, "categories": [{"alias": "chinese", "title": "Chinese"}], "rating": 2.5, "coordinates": {"latitude": 42.9818282202964, "longitude": -71.432746998233}, "transactions": ["delivery"], "price": "$", "location": {"address1": "262 Mammoth Rd", "address2": "", "address3": "", "city": "Manchester", "zip_code": "03109", "country": "US", "state": "NH", "display_address": ["262 Mammoth Rd", "Manchester, NH 03109"]}, "phone": "+16036258550", "display_phone": "(603) 625-8550", "distance": 1821.534948436582}, {"id": "0vPlkWMHZY4waOw97Hci_A", "alias": "aloha-restaurant-manchester", "name": "Aloha Restaurant", "image_url": "https://s3-media2.fl.yelpcdn.com/bphoto/1JAzlSld1UtIN9ETQ-TJZg/o.jpg", "is_closed": false, "url": "https://www.yelp.com/biz/aloha-restaurant-manchester?adjust_creative=vyhy616UjsMTA_hrWyg_5w&utm_campaign=yelp_api_v3&utm_medium=api_v3_business_search&utm_source=vyhy616UjsMTA_hrWyg_5w", "review_count": 86, "categories": [{"alias": "chinese", "title": "Chinese"}, {"alias": "seafood", "title": "Seafood"}, {"alias": "soup", "title": "Soup"}], "rating": 3.0, "coordinates": {"latitude": 42.9865205536559, "longitude": -71.4266581156622}, "transactions": ["delivery"], "price": "$$", "location": {"address1": "901 Hanover St", "address2": "", "address3": "", "city": "Manchester", "zip_code": "03104", "country": "US", "state": "NH", "display_address": ["901 Hanover St", "Manchester, NH 03104"]}, "phone": "+16036472100", "display_phone": "(603) 647-2100", "distance": 2343.943756997425}, {"id": "V9AZVLS0lUa9XEPPV_-DmQ", "alias": "bonsais-restaurant-manchester", "name": "Bonsai's Restaurant", "image_url": "https://s3-media1.fl.yelpcdn.com/bphoto/6bzurL2AYbwExBS4W1vLHg/o.jpg", "is_closed": false, "url": "https://www.yelp.com/biz/bonsais-restaurant-manchester?adjust_creative=vyhy616UjsMTA_hrWyg_5w&utm_campaign=yelp_api_v3&utm_medium=api_v3_business_search&utm_source=vyhy616UjsMTA_hrWyg_5w", "review_count": 54, "categories": [{"alias": "tradamerican", "title": "American (Traditional)"}, {"alias": "chinese", "title": "Chinese"}], "rating": 3.5, "coordinates": {"latitude": 43.0046226, "longitude": -71.392062}, "transactions": ["delivery"], "price": "$$", "location": {"address1": "2264 Candia Rd", "address2": "", "address3": "", "city": "Manchester", "zip_code": "03109", "country": "US", "state": "NH", "display_address": ["2264 Candia Rd", "Manchester, NH 03109"]}, "phone": "+16036228788", "display_phone": "(603) 622-8788", "distance": 5615.481853446924}, {"id": "s4QATvYh3UexnBYqYd6Tjw", "alias": "taipei-and-tokyo-3-bedford", "name": "Taipei & Tokyo 3", "image_url": "https://s3-media3.fl.yelpcdn.com/bphoto/SacOxp8hU032Zfn_FiwpMQ/o.jpg", "is_closed": false, "url": "https://www.yelp.com/biz/taipei-and-tokyo-3-bedford?adjust_creative=vyhy616UjsMTA_hrWyg_5w&utm_campaign=yelp_api_v3&utm_medium=api_v3_business_search&utm_source=vyhy616UjsMTA_hrWyg_5w", "review_count": 65, "categories": [{"alias": "japanese", "title": "Japanese"}, {"alias": "chinese", "title": "Chinese"}], "rating": 3.0, "coordinates": {"latitude": 42.9634718, "longitude": -71.482709}, "transactions": ["delivery"], "price": "$$", "location": {"address1": "7 Colby Ct", "address2": "Unit 6", "address3": "", "city": "Bedford", "zip_code": "03110", "country": "US", "state": "NH", "display_address": ["7 Colby Ct", "Unit 6", "Bedford, NH 03110"]}, "phone": "+16036222588", "display_phone": "(603) 622-2588", "distance": 3083.822504784122}, {"id": "3xD0USIZyTLGjwOe8gqcZQ", "alias": "ruby-thai-kitchen-manchester", "name": "Ruby Thai Kitchen", "image_url": "https://s3-media1.fl.yelpcdn.com/bphoto/Zf-ZTpuS_o4nb_tmbgRBsw/o.jpg", "is_closed": false, "url": "https://www.yelp.com/biz/ruby-thai-kitchen-manchester?adjust_creative=vyhy616UjsMTA_hrWyg_5w&utm_campaign=yelp_api_v3&utm_medium=api_v3_business_search&utm_source=vyhy616UjsMTA_hrWyg_5w", "review_count": 11, "categories": [{"alias": "thai", "title": "Thai"}, {"alias": "food_court", "title": "Food Court"}, {"alias": "chinese", "title": "Chinese"}], "rating": 3.0, "coordinates": {"latitude": 42.9564858068169, "longitude": -71.4318900698364}, "transactions": [], "location": {"address1": "1500 S Willow St", "address2": "", "address3": null, "city": "Manchester", "zip_code": "03103", "country": "US", "state": "NH", "display_address": ["1500 S Willow St", "Manchester, NH 03103"]}, "phone": "+16032065804", "display_phone": "(603) 206-5804", "distance": 3503.935463817562}, {"id": "w5ZE8hjDDKJ4U13QN6jO8Q", "alias": "ignite-bar-and-grille-manchester", "name": "Ignite Bar & Grille", "image_url": "https://s3-media3.fl.yelpcdn.com/bphoto/XMlItSTlODR2HuT6l2gbfQ/o.jpg", "is_closed": false, "url": "https://www.yelp.com/biz/ignite-bar-and-grille-manchester?adjust_creative=vyhy616UjsMTA_hrWyg_5w&utm_campaign=yelp_api_v3&utm_medium=api_v3_business_search&utm_source=vyhy616UjsMTA_hrWyg_5w", "review_count": 175, "categories": [{"alias": "bars", "title": "Bars"}, {"alias": "newamerican", "title": "American (New)"}], "rating": 4.0, "coordinates": {"latitude": 42.9909828389931, "longitude": -71.4610145296164}, "transactions": ["delivery"], "price": "$$", "location": {"address1": "100 Hanover St", "address2": "", "address3": "", "city": "Manchester", "zip_code": "03101", "country": "US", "state": "NH", "display_address": ["100 Hanover St", "Manchester, NH 03101"]}, "phone": "+16036440064", "display_phone": "(603) 644-0064", "distance": 1005.1518108040997}, {"id": "pyf_XYstGmcm9LsS1AwEtw", "alias": "manchester-buffet-manchester", "name": "Manchester Buffet", "image_url": "https://s3-media4.fl.yelpcdn.com/bphoto/RELxDwv5Tc79A-tPtPBF4Q/o.jpg", "is_closed": false, "url": "https://www.yelp.com/biz/manchester-buffet-manchester?adjust_creative=vyhy616UjsMTA_hrWyg_5w&utm_campaign=yelp_api_v3&utm_medium=api_v3_business_search&utm_source=vyhy616UjsMTA_hrWyg_5w", "review_count": 39, "categories": [{"alias": "chinese", "title": "Chinese"}, {"alias": "buffets", "title": "Buffets"}], "rating": 2.0, "coordinates": {"latitude": 42.9684939, "longitude": -71.4522864}, "transactions": [], "price": "$$", "location": {"address1": "371 S Willow St", "address2": "Unit E1", "address3": "", "city": "Manchester", "zip_code": "03103", "country": "US", "state": "NH", "display_address": ["371 S Willow St", "Unit E1", "Manchester, NH 03103"]}, "phone": "+16036688838", "display_phone": "(603) 668-8838", "distance": 1721.0568168459813}, {"id": "7Cfi-RiHGzqlVi9NGHJuMg", "alias": "panera-bread-bedford", "name": "Panera Bread", "image_url": "https://s3-media3.fl.yelpcdn.com/bphoto/qZsYGeK6_PmZAIY_S79ZxA/o.jpg", "is_closed": false, "url": "https://www.yelp.com/biz/panera-bread-bedford?adjust_creative=vyhy616UjsMTA_hrWyg_5w&utm_campaign=yelp_api_v3&utm_medium=api_v3_business_search&utm_source=vyhy616UjsMTA_hrWyg_5w", "review_count": 39, "categories": [{"alias": "sandwiches", "title": "Sandwiches"}, {"alias": "salad", "title": "Salad"}, {"alias": "soup", "title": "Soup"}], "rating": 2.5, "coordinates": {"latitude": 42.964631, "longitude": -71.483079}, "transactions": ["delivery", "pickup"], "price": "$", "location": {"address1": "7 Colby Ct", "address2": "", "address3": "", "city": "Bedford", "zip_code": "03110", "country": "US", "state": "NH", "display_address": ["7 Colby Ct", "Bedford, NH 03110"]}, "phone": "+16036410500", "display_phone": "(603) 641-0500", "distance": 3083.657008925957}], "total": 34, "region": {"center": {"longitude": -71.455078125, "latitude": 42.98303965176997}}}