{"businesses": [{"id": "e5wK3I_THzF4Ce_OgoSCQw", "alias": "mokyo-new-york-2", "name": "MOKYO", "image_url": "https://s3-media4.fl.yelpcdn.com/bphoto/5iR0_udC0Z_D1nBye5JQXw/o.jpg", "is_closed": false, "url": "https://www.yelp.com/biz/mokyo-new-york-2?adjust_creative=vyhy616UjsMTA_hrWyg_5w&utm_campaign=yelp_api_v3&utm_medium=api_v3_business_search&utm_source=vyhy616UjsMTA_hrWyg_5w", "review_count": 105, "categories": [{"alias": "korean", "title": "Korean"}, {"alias": "tapasmallplates", "title": "Tapas/Small Plates"}, {"alias": "asianfusion", "title": "Asian Fusion"}], "rating": 4.5, "coordinates": {"latitude": 40.727223, "longitude": -73.983878}, "transactions": [], "location": {"address1": "109 St Marks Pl", "address2": "", "address3": null, "city": "New York", "zip_code": "10009", "country": "US", "state": "NY", "display_address": ["109 St Marks Pl", "New York, NY 10009"]}, "phone": "", "display_phone": "", "distance": 2574.1694660765133}, {"id": "3gqKLANaXNsHZnPDjKrcTg", "alias": "win-son-brooklyn-4", "name": "Win Son", "image_url": "https://s3-media4.fl.yelpcdn.com/bphoto/EXCnl7qaa1wEQMWMI6ZqRQ/o.jpg", "is_closed": false, "url": "https://www.yelp.com/biz/win-son-brooklyn-4?adjust_creative=vyhy616UjsMTA_hrWyg_5w&utm_campaign=yelp_api_v3&utm_medium=api_v3_business_search&utm_source=vyhy616UjsMTA_hrWyg_5w", "review_count": 519, "categories": [{"alias": "taiwanese", "title": "Taiwanese"}, {"alias": "newamerican", "title": "American (New)"}, {"alias": "asianfusion", "title": "Asian Fusion"}], "rating": 4.0, "coordinates": {"latitude": 40.70747, "longitude": -73.94339}, "transactions": ["delivery"], "price": "$$", "location": {"address1": "159 Graham Ave", "address2": null, "address3": "", "city": "Brooklyn", "zip_code": "11206", "country": "US", "state": "NY", "display_address": ["159 Graham Ave", "Brooklyn, NY 11206"]}, "phone": "+13474576010", "display_phone": "(347) 457-6010", "distance": 4288.123697814991}, {"id": "QhE50zhSMnQaudpHW1jp7g", "alias": "the-tyger-new-york-2", "name": "The Tyger", "image_url": "https://s3-media2.fl.yelpcdn.com/bphoto/xdyC5Z_denJ-lBlR1dlqhw/o.jpg", "is_closed": false, "url": "https://www.yelp.com/biz/the-tyger-new-york-2?adjust_creative=vyhy616UjsMTA_hrWyg_5w&utm_campaign=yelp_api_v3&utm_medium=api_v3_business_search&utm_source=vyhy616UjsMTA_hrWyg_5w", "review_count": 99, "categories": [{"alias": "asianfusion", "title": "Asian Fusion"}], "rating": 4.5, "coordinates": {"latitude": 40.71888, "longitude": -73.99951}, "transactions": ["delivery", "pickup"], "location": {"address1": "1 Howard St", "address2": null, "address3": null, "city": "New York", "zip_code": "10013", "country": "US", "state": "NY", "display_address": ["1 Howard St", "New York, NY 10013"]}, "phone": "+16464767566", "display_phone": "(646) 476-7566", "distance": 1558.0214279215886}, {"id": "XsXLVWr1UZWVhKThNvNiaA", "alias": "blue-willow-\u591c\u6765\u6e58-new-york-2", "name": "Blue Willow \u591c\u6765\u6e58", "image_url": "https://s3-media2.fl.yelpcdn.com/bphoto/1E59vOqmXZHBlJe0lLBHtA/o.jpg", "is_closed": false, "url": "https://www.yelp.com/biz/blue-willow-%E5%A4%9C%E6%9D%A5%E6%B9%98-new-york-2?adjust_creative=vyhy616UjsMTA_hrWyg_5w&utm_campaign=yelp_api_v3&utm_medium=api_v3_business_search&utm_source=vyhy616UjsMTA_hrWyg_5w", "review_count": 135, "categories": [{"alias": "szechuan", "title": "Szechuan"}], "rating": 4.5, "coordinates": {"latitude": 40.76292, "longitude": -73.976546}, "transactions": ["delivery", "pickup"], "location": {"address1": "40 W 56th St", "address2": null, "address3": "", "city": "New York", "zip_code": "10019", "country": "US", "state": "NY", "display_address": ["40 W 56th St", "New York, NY 10019"]}, "phone": "+12122132299", "display_phone": "(212) 213-2299", "distance": 6563.688733717886}, {"id": "NN3mOWF5e_pnR1ArqM2bHQ", "alias": "obao-new-york-3", "name": "OBAO", "image_url": "https://s3-media4.fl.yelpcdn.com/bphoto/CpVI2XJLrvg09Fm83bfPog/o.jpg", "is_closed": false, "url": "https://www.yelp.com/biz/obao-new-york-3?adjust_creative=vyhy616UjsMTA_hrWyg_5w&utm_campaign=yelp_api_v3&utm_medium=api_v3_business_search&utm_source=vyhy616UjsMTA_hrWyg_5w", "review_count": 2657, "categories": [{"alias": "vietnamese", "title": "Vietnamese"}, {"alias": "thai", "title": "Thai"}, {"alias": "asianfusion", "title": "Asian Fusion"}], "rating": 4.0, "coordinates": {"latitude": 40.7606544, "longitude": -73.991332}, "transactions": ["delivery", "pickup"], "price": "$$", "location": {"address1": "647 9th Ave", "address2": "", "address3": "", "city": "New York", "zip_code": "10036", "country": "US", "state": "NY", "display_address": ["647 9th Ave", "New York, NY 10036"]}, "phone": "+12122458880", "display_phone": "(212) 245-8880", "distance": 6144.081737145313}, {"id": "jjJc_CrkB2HodEinB6cWww", "alias": "lovemama-new-york", "name": "LoveMama", "image_url": "https://s3-media1.fl.yelpcdn.com/bphoto/bLlFKTlVuLfmF-lIDGIjZA/o.jpg", "is_closed": false, "url": "https://www.yelp.com/biz/lovemama-new-york?adjust_creative=vyhy616UjsMTA_hrWyg_5w&utm_campaign=yelp_api_v3&utm_medium=api_v3_business_search&utm_source=vyhy616UjsMTA_hrWyg_5w", "review_count": 5263, "categories": [{"alias": "thai", "title": "Thai"}, {"alias": "malaysian", "title": "Malaysian"}, {"alias": "vietnamese", "title": "Vietnamese"}], "rating": 4.5, "coordinates": {"latitude": 40.730408722512074, "longitude": -73.98612673033213}, "transactions": ["delivery", "pickup"], "price": "$$", "location": {"address1": "174 2nd Ave", "address2": "", "address3": "", "city": "New York", "zip_code": "10003", "country": "US", "state": "NY", "display_address": ["174 2nd Ave", "New York, NY 10003"]}, "phone": "+12122545370", "display_phone": "(212) 254-5370", "distance": 2859.902795118878}, {"id": "ihBRikaKYVdJ7M0gVEGjZg", "alias": "maomao-brooklyn-5", "name": "Maomao", "image_url": "https://s3-media4.fl.yelpcdn.com/bphoto/fBQVmJr09pk6LuS-B_ha-g/o.jpg", "is_closed": false, "url": "https://www.yelp.com/biz/maomao-brooklyn-5?adjust_creative=vyhy616UjsMTA_hrWyg_5w&utm_campaign=yelp_api_v3&utm_medium=api_v3_business_search&utm_source=vyhy616UjsMTA_hrWyg_5w", "review_count": 14, "categories": [{"alias": "thai", "title": "Thai"}], "rating": 4.5, "coordinates": {"latitude": 40.69583, "longitude": -73.933508}, "transactions": ["delivery", "pickup"], "location": {"address1": "1000 Bdwy", "address2": null, "address3": "", "city": "Brooklyn", "zip_code": "11221", "country": "US", "state": "NY", "display_address": ["1000 Bdwy", "Brooklyn, NY 11221"]}, "phone": "+19178330895", "display_phone": "(917) 833-0895", "distance": 5234.524943145931}, {"id": "M-odQWSEfsR2mVEw7nKG-g", "alias": "nyonya-new-york", "name": "Nyonya", "image_url": "https://s3-media2.fl.yelpcdn.com/bphoto/YuWC1Gwo7ku4PvD-7mDQnA/o.jpg", "is_closed": false, "url": "https://www.yelp.com/biz/nyonya-new-york?adjust_creative=vyhy616UjsMTA_hrWyg_5w&utm_campaign=yelp_api_v3&utm_medium=api_v3_business_search&utm_source=vyhy616UjsMTA_hrWyg_5w", "review_count": 2102, "categories": [{"alias": "asianfusion", "title": "Asian Fusion"}, {"alias": "malaysian", "title": "Malaysian"}, {"alias": "chinese", "title": "Chinese"}], "rating": 4.0, "coordinates": {"latitude": 40.7190148, "longitude": -73.9968228}, "transactions": ["delivery"], "price": "$$", "location": {"address1": "199 Grand St", "address2": "", "address3": "", "city": "New York", "zip_code": "10013", "country": "US", "state": "NY", "display_address": ["199 Grand St", "New York, NY 10013"]}, "phone": "+12123343669", "display_phone": "(212) 334-3669", "distance": 1524.9858332338151}, {"id": "f6HKGu3To9-1YtQDurs6RQ", "alias": "medan-pasar-new-york", "name": "Medan Pasar", "image_url": "https://s3-media3.fl.yelpcdn.com/bphoto/BYgrS_qx9NRfy_VaLqj1_Q/o.jpg", "is_closed": false, "url": "https://www.yelp.com/biz/medan-pasar-new-york?adjust_creative=vyhy616UjsMTA_hrWyg_5w&utm_campaign=yelp_api_v3&utm_medium=api_v3_business_search&utm_source=vyhy616UjsMTA_hrWyg_5w", "review_count": 38, "categories": [{"alias": "malaysian", "title": "Malaysian"}], "rating": 5.0, "coordinates": {"latitude": 40.72657, "longitude": -73.98502}, "transactions": ["delivery", "pickup"], "location": {"address1": "102 E 7th St", "address2": "", "address3": null, "city": "New York", "zip_code": "10009", "country": "US", "state": "NY", "display_address": ["102 E 7th St", "New York, NY 10009"]}, "phone": "+16467564006", "display_phone": "(646) 756-4006", "distance": 2470.8854420874104}, {"id": "V58g7E1AHkuTchTVyLQuYQ", "alias": "saigon-grill-and-bar-brooklyn-3", "name": "Saigon Grill & Bar", "image_url": "https://s3-media1.fl.yelpcdn.com/bphoto/n0P0wybogAiDPrhsXoF0Fg/o.jpg", "is_closed": false, "url": "https://www.yelp.com/biz/saigon-grill-and-bar-brooklyn-3?adjust_creative=vyhy616UjsMTA_hrWyg_5w&utm_campaign=yelp_api_v3&utm_medium=api_v3_business_search&utm_source=vyhy616UjsMTA_hrWyg_5w", "review_count": 240, "categories": [{"alias": "vietnamese", "title": "Vietnamese"}, {"alias": "asianfusion", "title": "Asian Fusion"}], "rating": 4.5, "coordinates": {"latitude": 40.61883, "longitude": -73.93099}, "transactions": ["delivery", "pickup"], "price": "$$", "location": {"address1": "4521 Ave N", "address2": "", "address3": "", "city": "Brooklyn", "zip_code": "11234", "country": "US", "state": "NY", "display_address": ["4521 Ave N", "Brooklyn, NY 11234"]}, "phone": "+17183388886", "display_phone": "(718) 338-8886", "distance": 11007.438427911506}, {"id": "f_a1oO8-y2qorh_-K8xWHw", "alias": "thai-farm-kitchen-seaport-new-york", "name": "Thai Farm Kitchen Seaport", "image_url": "https://s3-media2.fl.yelpcdn.com/bphoto/xRN_veYjK9TmF5B1rA7pQA/o.jpg", "is_closed": false, "url": "https://www.yelp.com/biz/thai-farm-kitchen-seaport-new-york?adjust_creative=vyhy616UjsMTA_hrWyg_5w&utm_campaign=yelp_api_v3&utm_medium=api_v3_business_search&utm_source=vyhy616UjsMTA_hrWyg_5w", "review_count": 79, "categories": [{"alias": "thai", "title": "Thai"}], "rating": 4.5, "coordinates": {"latitude": 40.70824, "longitude": -74.0017}, "transactions": ["delivery", "restaurant_reservation", "pickup"], "location": {"address1": "21 Peck Slip", "address2": "", "address3": null, "city": "New York", "zip_code": "10038", "country": "US", "state": "NY", "display_address": ["21 Peck Slip", "New York, NY 10038"]}, "phone": "+12123494433", "display_phone": "(212) 349-4433", "distance": 697.4169959225349}, {"id": "nxTEuWKzkK1tCF4LrhFSUQ", "alias": "pig-and-khao-new-york", "name": "Pig and Khao", "image_url": "https://s3-media4.fl.yelpcdn.com/bphoto/lVUEbZ9sFojU2DeRLgzRQA/o.jpg", "is_closed": false, "url": "https://www.yelp.com/biz/pig-and-khao-new-york?adjust_creative=vyhy616UjsMTA_hrWyg_5w&utm_campaign=yelp_api_v3&utm_medium=api_v3_business_search&utm_source=vyhy616UjsMTA_hrWyg_5w", "review_count": 1655, "categories": [{"alias": "filipino", "title": "Filipino"}, {"alias": "thai", "title": "Thai"}, {"alias": "asianfusion", "title": "Asian Fusion"}], "rating": 4.0, "coordinates": {"latitude": 40.71926, "longitude": -73.98475}, "transactions": ["delivery", "pickup"], "price": "$$", "location": {"address1": "68 Clinton St", "address2": "", "address3": "", "city": "New York", "zip_code": "10002", "country": "US", "state": "NY", "display_address": ["68 Clinton St", "New York, NY 10002"]}, "phone": "+12129204485", "display_phone": "(212) 920-4485", "distance": 1733.9421500064454}, {"id": "axqp3pGJXnTLgq2QrPyDyQ", "alias": "benemon-new-york", "name": "Benemon", "image_url": "https://s3-media2.fl.yelpcdn.com/bphoto/qYGlL-jKKWmMthi05ae_iA/o.jpg", "is_closed": false, "url": "https://www.yelp.com/biz/benemon-new-york?adjust_creative=vyhy616UjsMTA_hrWyg_5w&utm_campaign=yelp_api_v3&utm_medium=api_v3_business_search&utm_source=vyhy616UjsMTA_hrWyg_5w", "review_count": 585, "categories": [{"alias": "japanese", "title": "Japanese"}, {"alias": "comfortfood", "title": "Comfort Food"}, {"alias": "tapasmallplates", "title": "Tapas/Small Plates"}], "rating": 4.5, "coordinates": {"latitude": 40.72551, "longitude": -73.98838}, "transactions": ["delivery", "pickup"], "price": "$$", "location": {"address1": "108 E 4th St", "address2": null, "address3": "", "city": "New York", "zip_code": "10003", "country": "US", "state": "NY", "display_address": ["108 E 4th St", "New York, NY 10003"]}, "phone": "+12126143006", "display_phone": "(212) 614-3006", "distance": 2289.2038585586733}, {"id": "aiePDScoKCp5jbQPJXNtFw", "alias": "saigon-social-new-york-2", "name": "Saigon Social", "image_url": "https://s3-media1.fl.yelpcdn.com/bphoto/aFYpxcNw36YS7Z0wbGIoyw/o.jpg", "is_closed": false, "url": "https://www.yelp.com/biz/saigon-social-new-york-2?adjust_creative=vyhy616UjsMTA_hrWyg_5w&utm_campaign=yelp_api_v3&utm_medium=api_v3_business_search&utm_source=vyhy616UjsMTA_hrWyg_5w", "review_count": 81, "categories": [{"alias": "vietnamese", "title": "Vietnamese"}], "rating": 4.5, "coordinates": {"latitude": 40.721476, "longitude": -73.988248}, "transactions": ["delivery", "pickup"], "location": {"address1": "172 Orchard St", "address2": "", "address3": null, "city": "New York", "zip_code": "10002", "country": "US", "state": "NY", "display_address": ["172 Orchard St", "New York, NY 10002"]}, "phone": "+16466093202", "display_phone": "(646) 609-3202", "distance": 1853.9661031941364}, {"id": "BKMCAYb9EAivUm3p-vrC9w", "alias": "khe-yo-new-york", "name": "Khe-Yo", "image_url": "https://s3-media4.fl.yelpcdn.com/bphoto/7wjwMXxkpeVtOLFStJeUcA/o.jpg", "is_closed": false, "url": "https://www.yelp.com/biz/khe-yo-new-york?adjust_creative=vyhy616UjsMTA_hrWyg_5w&utm_campaign=yelp_api_v3&utm_medium=api_v3_business_search&utm_source=vyhy616UjsMTA_hrWyg_5w", "review_count": 782, "categories": [{"alias": "laotian", "title": "Laotian"}], "rating": 4.0, "coordinates": {"latitude": 40.716906, "longitude": -74.008587}, "transactions": ["delivery", "pickup"], "price": "$$", "location": {"address1": "157 Duane St", "address2": "", "address3": "", "city": "New York", "zip_code": "10013", "country": "US", "state": "NY", "display_address": ["157 Duane St", "New York, NY 10013"]}, "phone": "+12125871089", "display_phone": "(212) 587-1089", "distance": 1753.7446005214726}, {"id": "fVbUVAiLiGgLA_nxBFxyww", "alias": "thursday-kitchen-new-york", "name": "Thursday Kitchen", "image_url": "https://s3-media4.fl.yelpcdn.com/bphoto/nXO8M-d-XTamNmc0BpXWtA/o.jpg", "is_closed": false, "url": "https://www.yelp.com/biz/thursday-kitchen-new-york?adjust_creative=vyhy616UjsMTA_hrWyg_5w&utm_campaign=yelp_api_v3&utm_medium=api_v3_business_search&utm_source=vyhy616UjsMTA_hrWyg_5w", "review_count": 1384, "categories": [{"alias": "korean", "title": "Korean"}, {"alias": "newamerican", "title": "American (New)"}, {"alias": "tapasmallplates", "title": "Tapas/Small Plates"}], "rating": 4.5, "coordinates": {"latitude": 40.7275, "longitude": -73.9838}, "transactions": ["delivery", "pickup"], "price": "$$", "location": {"address1": "424 E 9th St", "address2": null, "address3": "", "city": "New York", "zip_code": "10009", "country": "US", "state": "NY", "display_address": ["424 E 9th St", "New York, NY 10009"]}, "phone": "", "display_phone": "", "distance": 2613.42601480514}, {"id": "B3_K2kUVbYOU0VaLcj_LTw", "alias": "thai-villa-new-york-2", "name": "Thai Villa", "image_url": "https://s3-media3.fl.yelpcdn.com/bphoto/XKvKGgVuj4_jhqHPVQj4_A/o.jpg", "is_closed": false, "url": "https://www.yelp.com/biz/thai-villa-new-york-2?adjust_creative=vyhy616UjsMTA_hrWyg_5w&utm_campaign=yelp_api_v3&utm_medium=api_v3_business_search&utm_source=vyhy616UjsMTA_hrWyg_5w", "review_count": 3625, "categories": [{"alias": "thai", "title": "Thai"}, {"alias": "asianfusion", "title": "Asian Fusion"}], "rating": 4.5, "coordinates": {"latitude": 40.73902, "longitude": -73.99065}, "transactions": ["delivery", "pickup"], "price": "$$", "location": {"address1": "5 E 19th St", "address2": "G Floor", "address3": "", "city": "New York", "zip_code": "10003", "country": "US", "state": "NY", "display_address": ["5 E 19th St", "G Floor", "New York, NY 10003"]}, "phone": "+12128029999", "display_phone": "(212) 802-9999", "distance": 3744.570399827637}, {"id": "FYWwW5lcxKzaA98Xgw8bqA", "alias": "hanon-brooklyn", "name": "hanon", "image_url": "https://s3-media3.fl.yelpcdn.com/bphoto/K0UMKltoE9T_vCuL6ZBaJA/o.jpg", "is_closed": false, "url": "https://www.yelp.com/biz/hanon-brooklyn?adjust_creative=vyhy616UjsMTA_hrWyg_5w&utm_campaign=yelp_api_v3&utm_medium=api_v3_business_search&utm_source=vyhy616UjsMTA_hrWyg_5w", "review_count": 160, "categories": [{"alias": "japanese", "title": "Japanese"}, {"alias": "noodles", "title": "Noodles"}], "rating": 4.5, "coordinates": {"latitude": 40.7134488, "longitude": -73.9513445}, "transactions": ["delivery", "pickup"], "price": "$$", "location": {"address1": "436 Union Ave", "address2": "", "address3": null, "city": "Brooklyn", "zip_code": "11211", "country": "US", "state": "NY", "display_address": ["436 Union Ave", "Brooklyn, NY 11211"]}, "phone": "+13477991433", "display_phone": "(347) 799-1433", "distance": 3727.886088653943}, {"id": "gl9UKHI6G-JhIBjjLFOhYA", "alias": "high-l\u00faa-vietnamese-kitchen-brooklyn", "name": "High L\u00faa Vietnamese Kitchen", "image_url": "https://s3-media4.fl.yelpcdn.com/bphoto/3KwOwrOJ_DQNb6rO4ItAjw/o.jpg", "is_closed": false, "url": "https://www.yelp.com/biz/high-l%C3%BAa-vietnamese-kitchen-brooklyn?adjust_creative=vyhy616UjsMTA_hrWyg_5w&utm_campaign=yelp_api_v3&utm_medium=api_v3_business_search&utm_source=vyhy616UjsMTA_hrWyg_5w", "review_count": 169, "categories": [{"alias": "vietnamese", "title": "Vietnamese"}], "rating": 4.5, "coordinates": {"latitude": 40.71258, "longitude": -73.96045}, "transactions": ["delivery", "pickup"], "price": "$$", "location": {"address1": "182 S 2nd St", "address2": null, "address3": "", "city": "Brooklyn", "zip_code": "11211", "country": "US", "state": "NY", "display_address": ["182 S 2nd St", "Brooklyn, NY 11211"]}, "phone": "+13478449666", "display_phone": "(347) 844-9666", "distance": 2951.3333746288663}, {"id": "LpVbI-E9C-CSp7WhU5h2Iw", "alias": "fishmarket-restaurant-new-york", "name": "Fishmarket Restaurant", "image_url": "https://s3-media2.fl.yelpcdn.com/bphoto/zIPbObERXHKehqV-yU7Wgw/o.jpg", "is_closed": false, "url": "https://www.yelp.com/biz/fishmarket-restaurant-new-york?adjust_creative=vyhy616UjsMTA_hrWyg_5w&utm_campaign=yelp_api_v3&utm_medium=api_v3_business_search&utm_source=vyhy616UjsMTA_hrWyg_5w", "review_count": 558, "categories": [{"alias": "seafood", "title": "Seafood"}, {"alias": "chinese", "title": "Chinese"}, {"alias": "asianfusion", "title": "Asian Fusion"}], "rating": 4.5, "coordinates": {"latitude": 40.70717, "longitude": -74.00192}, "transactions": ["delivery"], "price": "$$", "location": {"address1": "111 South St", "address2": "", "address3": "", "city": "New York", "zip_code": "10038", "country": "US", "state": "NY", "display_address": ["111 South St", "New York, NY 10038"]}, "phone": "+19173638101", "display_phone": "(917) 363-8101", "distance": 671.0784555500173}, {"id": "xrZWbxETIF8qj6h4uvhJrQ", "alias": "j-spec-new-york", "name": "J-Spec", "image_url": "https://s3-media4.fl.yelpcdn.com/bphoto/qMhkjzHK9IVJkiruyXW1qA/o.jpg", "is_closed": false, "url": "https://www.yelp.com/biz/j-spec-new-york?adjust_creative=vyhy616UjsMTA_hrWyg_5w&utm_campaign=yelp_api_v3&utm_medium=api_v3_business_search&utm_source=vyhy616UjsMTA_hrWyg_5w", "review_count": 53, "categories": [{"alias": "japanese", "title": "Japanese"}], "rating": 4.5, "coordinates": {"latitude": 40.72699, "longitude": -73.98922}, "transactions": ["delivery", "pickup"], "location": {"address1": "239 E 5th St", "address2": null, "address3": "", "city": "New York", "zip_code": "10003", "country": "US", "state": "NY", "display_address": ["239 E 5th St", "New York, NY 10003"]}, "phone": "+12122870107", "display_phone": "(212) 287-0107", "distance": 2438.0326883939874}, {"id": "cgiwHTmlUD-2em2MCvmzeA", "alias": "java-indonesian-restaurant-brooklyn", "name": "Java Indonesian Restaurant", "image_url": "https://s3-media1.fl.yelpcdn.com/bphoto/f69eNiuQELsYLf_Ob3I27w/o.jpg", "is_closed": false, "url": "https://www.yelp.com/biz/java-indonesian-restaurant-brooklyn?adjust_creative=vyhy616UjsMTA_hrWyg_5w&utm_campaign=yelp_api_v3&utm_medium=api_v3_business_search&utm_source=vyhy616UjsMTA_hrWyg_5w", "review_count": 210, "categories": [{"alias": "indonesian", "title": "Indonesian"}], "rating": 4.0, "coordinates": {"latitude": 40.662645, "longitude": -73.9847769}, "transactions": ["delivery", "pickup"], "price": "$$", "location": {"address1": "455 7th Ave", "address2": "", "address3": "", "city": "Brooklyn", "zip_code": "11215", "country": "US", "state": "NY", "display_address": ["455 7th Ave", "Brooklyn, NY 11215"]}, "phone": "+17188324583", "display_phone": "(718) 832-4583", "distance": 4826.295641229689}, {"id": "HUKn7SlSjYtemmPiGLnD2w", "alias": "rice-kitchen-new-york", "name": "Rice kitchen", "image_url": "https://s3-media4.fl.yelpcdn.com/bphoto/bWkXw5HQ1f4llF8nyu4rRQ/o.jpg", "is_closed": false, "url": "https://www.yelp.com/biz/rice-kitchen-new-york?adjust_creative=vyhy616UjsMTA_hrWyg_5w&utm_campaign=yelp_api_v3&utm_medium=api_v3_business_search&utm_source=vyhy616UjsMTA_hrWyg_5w", "review_count": 61, "categories": [{"alias": "korean", "title": "Korean"}, {"alias": "asianfusion", "title": "Asian Fusion"}], "rating": 5.0, "coordinates": {"latitude": 40.725166, "longitude": -74.003712}, "transactions": ["delivery", "pickup"], "location": {"address1": "204 Spring St", "address2": null, "address3": "", "city": "New York", "zip_code": "10012", "country": "US", "state": "NY", "display_address": ["204 Spring St", "New York, NY 10012"]}, "phone": "+16466092970", "display_phone": "(646) 609-2970", "distance": 2327.429292016989}, {"id": "FlZ1zdVEKWv7dwqm8Uw8-w", "alias": "raku-new-york-7", "name": "Raku", "image_url": "https://s3-media4.fl.yelpcdn.com/bphoto/GEbZnH1jR4n7D5WOJ3urPg/o.jpg", "is_closed": false, "url": "https://www.yelp.com/biz/raku-new-york-7?adjust_creative=vyhy616UjsMTA_hrWyg_5w&utm_campaign=yelp_api_v3&utm_medium=api_v3_business_search&utm_source=vyhy616UjsMTA_hrWyg_5w", "review_count": 1127, "categories": [{"alias": "japanese", "title": "Japanese"}, {"alias": "noodles", "title": "Noodles"}], "rating": 4.5, "coordinates": {"latitude": 40.7264988089246, "longitude": -73.9866526052356}, "transactions": ["delivery", "pickup"], "price": "$$", "location": {"address1": "342 E 6th St", "address2": "", "address3": "", "city": "New York", "zip_code": "10003", "country": "US", "state": "NY", "display_address": ["342 E 6th St", "New York, NY 10003"]}, "phone": "+12122281324", "display_phone": "(212) 228-1324", "distance": 2428.0392489129867}, {"id": "xtxcAUvrD4dWHJd0cwvW1A", "alias": "jeju-noodle-bar-new-york", "name": "JeJu Noodle Bar", "image_url": "https://s3-media4.fl.yelpcdn.com/bphoto/VN5vdN2OiUmqJd85-Enmew/o.jpg", "is_closed": false, "url": "https://www.yelp.com/biz/jeju-noodle-bar-new-york?adjust_creative=vyhy616UjsMTA_hrWyg_5w&utm_campaign=yelp_api_v3&utm_medium=api_v3_business_search&utm_source=vyhy616UjsMTA_hrWyg_5w", "review_count": 615, "categories": [{"alias": "korean", "title": "Korean"}, {"alias": "noodles", "title": "Noodles"}], "rating": 4.5, "coordinates": {"latitude": 40.73304, "longitude": -74.00734}, "transactions": [], "price": "$$", "location": {"address1": "679 Greenwich St", "address2": "", "address3": null, "city": "New York", "zip_code": "10014", "country": "US", "state": "NY", "display_address": ["679 Greenwich St", "New York, NY 10014"]}, "phone": "+16466660947", "display_phone": "(646) 666-0947", "distance": 3256.137406146092}, {"id": "kBZggrnSP1kcUMnsnfkTaQ", "alias": "nan-xiang-xiao-long-bao-flushing", "name": "Nan Xiang Xiao Long Bao", "image_url": "https://s3-media2.fl.yelpcdn.com/bphoto/_swf0c4gtBCd1Yu9ExJABA/o.jpg", "is_closed": false, "url": "https://www.yelp.com/biz/nan-xiang-xiao-long-bao-flushing?adjust_creative=vyhy616UjsMTA_hrWyg_5w&utm_campaign=yelp_api_v3&utm_medium=api_v3_business_search&utm_source=vyhy616UjsMTA_hrWyg_5w", "review_count": 3719, "categories": [{"alias": "shanghainese", "title": "Shanghainese"}, {"alias": "gourmet", "title": "Specialty Food"}, {"alias": "noodles", "title": "Noodles"}], "rating": 4.0, "coordinates": {"latitude": 40.75924, "longitude": -73.8326}, "transactions": ["delivery", "pickup"], "price": "$", "location": {"address1": "39-16 Prince St", "address2": "Ste 104", "address3": "", "city": "Flushing", "zip_code": "11354", "country": "US", "state": "NY", "display_address": ["39-16 Prince St", "Ste 104", "Flushing, NY 11354"]}, "phone": "+17183213838", "display_phone": "(718) 321-3838", "distance": 14900.419396964291}, {"id": "qEe7nIhPfEL6L0-VYhWRrA", "alias": "raku-new-york-6", "name": "Raku", "image_url": "https://s3-media1.fl.yelpcdn.com/bphoto/EQsQlLlKQjziOrGsEblCbQ/o.jpg", "is_closed": false, "url": "https://www.yelp.com/biz/raku-new-york-6?adjust_creative=vyhy616UjsMTA_hrWyg_5w&utm_campaign=yelp_api_v3&utm_medium=api_v3_business_search&utm_source=vyhy616UjsMTA_hrWyg_5w", "review_count": 455, "categories": [{"alias": "japanese", "title": "Japanese"}, {"alias": "noodles", "title": "Noodles"}], "rating": 4.5, "coordinates": {"latitude": 40.72728, "longitude": -74.00252}, "transactions": ["delivery", "pickup"], "price": "$$", "location": {"address1": "48 Macdougal St", "address2": null, "address3": "", "city": "New York", "zip_code": "10012", "country": "US", "state": "NY", "display_address": ["48 Macdougal St", "New York, NY 10012"]}, "phone": "+12129894797", "display_phone": "(212) 989-4797", "distance": 2522.2670460297}, {"id": "McU7XI3HoWFELTDaGc1SEw", "alias": "ginger-and-lemongrass-new-york-2", "name": "Ginger and Lemongrass", "image_url": "https://s3-media2.fl.yelpcdn.com/bphoto/hsU_1M52BlXu1X5t9a4-ZQ/o.jpg", "is_closed": false, "url": "https://www.yelp.com/biz/ginger-and-lemongrass-new-york-2?adjust_creative=vyhy616UjsMTA_hrWyg_5w&utm_campaign=yelp_api_v3&utm_medium=api_v3_business_search&utm_source=vyhy616UjsMTA_hrWyg_5w", "review_count": 412, "categories": [{"alias": "vietnamese", "title": "Vietnamese"}, {"alias": "thai", "title": "Thai"}, {"alias": "asianfusion", "title": "Asian Fusion"}], "rating": 4.0, "coordinates": {"latitude": 40.71912, "longitude": -73.98567}, "transactions": ["delivery", "pickup"], "price": "$$", "location": {"address1": "153 Rivington St", "address2": null, "address3": "", "city": "New York", "zip_code": "10002", "country": "US", "state": "NY", "display_address": ["153 Rivington St", "New York, NY 10002"]}, "phone": "+16468761237", "display_phone": "(646) 876-1237", "distance": 1686.4399758635075}, {"id": "StFf9fVnAlhwrUWan0C4Ww", "alias": "wanisa-home-kitchen-brooklyn", "name": "Wanisa Home Kitchen", "image_url": "https://s3-media1.fl.yelpcdn.com/bphoto/azd794dZJoROs5zyEizhrA/o.jpg", "is_closed": false, "url": "https://www.yelp.com/biz/wanisa-home-kitchen-brooklyn?adjust_creative=vyhy616UjsMTA_hrWyg_5w&utm_campaign=yelp_api_v3&utm_medium=api_v3_business_search&utm_source=vyhy616UjsMTA_hrWyg_5w", "review_count": 156, "categories": [{"alias": "thai", "title": "Thai"}, {"alias": "noodles", "title": "Noodles"}], "rating": 4.5, "coordinates": {"latitude": 40.687, "longitude": -73.99042}, "transactions": ["delivery", "pickup"], "price": "$$", "location": {"address1": "142 Smith St", "address2": null, "address3": "", "city": "Brooklyn", "zip_code": "11201", "country": "US", "state": "NY", "display_address": ["142 Smith St", "Brooklyn, NY 11201"]}, "phone": "+17185223027", "display_phone": "(718) 522-3027", "distance": 2074.755884968529}, {"id": "rN347NNwQ0hDSlbedzI9BQ", "alias": "kai-sushi-asian-fusion-bronx", "name": "Kai Sushi Asian Fusion", "image_url": "https://s3-media1.fl.yelpcdn.com/bphoto/oxO3r9z24A02zlHJHnTZYg/o.jpg", "is_closed": false, "url": "https://www.yelp.com/biz/kai-sushi-asian-fusion-bronx?adjust_creative=vyhy616UjsMTA_hrWyg_5w&utm_campaign=yelp_api_v3&utm_medium=api_v3_business_search&utm_source=vyhy616UjsMTA_hrWyg_5w", "review_count": 249, "categories": [{"alias": "asianfusion", "title": "Asian Fusion"}, {"alias": "chinese", "title": "Chinese"}, {"alias": "japanese", "title": "Japanese"}], "rating": 4.0, "coordinates": {"latitude": 40.84362, "longitude": -73.84565}, "transactions": ["delivery", "pickup"], "price": "$$", "location": {"address1": "1475 Williamsbridge Rd", "address2": null, "address3": "", "city": "Bronx", "zip_code": "10461", "country": "US", "state": "NY", "display_address": ["1475 Williamsbridge Rd", "Bronx, NY 10461"]}, "phone": "+17188637900", "display_phone": "(718) 863-7900", "distance": 19797.529893592415}, {"id": "wNhO_9gY-ZRZEBSA2anXtA", "alias": "native-noodles-new-york-2", "name": "Native Noodles", "image_url": "https://s3-media1.fl.yelpcdn.com/bphoto/DoWa7yRwu6UDXLXiPi_LDA/o.jpg", "is_closed": false, "url": "https://www.yelp.com/biz/native-noodles-new-york-2?adjust_creative=vyhy616UjsMTA_hrWyg_5w&utm_campaign=yelp_api_v3&utm_medium=api_v3_business_search&utm_source=vyhy616UjsMTA_hrWyg_5w", "review_count": 44, "categories": [{"alias": "singaporean", "title": "Singaporean"}, {"alias": "noodles", "title": "Noodles"}], "rating": 5.0, "coordinates": {"latitude": 40.83824104348622, "longitude": -73.93765379999999}, "transactions": ["delivery", "pickup"], "location": {"address1": "2129 Amsterdam Ave", "address2": null, "address3": "", "city": "New York", "zip_code": "10032", "country": "US", "state": "NY", "display_address": ["2129 Amsterdam Ave", "New York, NY 10032"]}, "phone": "+16463706290", "display_phone": "(646) 370-6290", "distance": 15517.437931086639}, {"id": "liZmIO0FqZwslLJfLDkfgw", "alias": "wayla-new-york", "name": "Wayla", "image_url": "https://s3-media1.fl.yelpcdn.com/bphoto/Se9IRHfGW8z9-292HJyKsQ/o.jpg", "is_closed": false, "url": "https://www.yelp.com/biz/wayla-new-york?adjust_creative=vyhy616UjsMTA_hrWyg_5w&utm_campaign=yelp_api_v3&utm_medium=api_v3_business_search&utm_source=vyhy616UjsMTA_hrWyg_5w", "review_count": 324, "categories": [{"alias": "thai", "title": "Thai"}], "rating": 4.5, "coordinates": {"latitude": 40.7183, "longitude": -73.9926038}, "transactions": ["delivery"], "price": "$$", "location": {"address1": "100 Forsyth St", "address2": "Basement", "address3": null, "city": "New York", "zip_code": "10002", "country": "US", "state": "NY", "display_address": ["100 Forsyth St", "Basement", "New York, NY 10002"]}, "phone": "+12122062500", "display_phone": "(212) 206-2500", "distance": 1436.4990587768912}, {"id": "NebgteFykeM1gwiVgPcCHw", "alias": "the-handpulled-noodle-new-york", "name": "The Handpulled Noodle", "image_url": "https://s3-media2.fl.yelpcdn.com/bphoto/zk3hE3qrROv4_UAekmmzlQ/o.jpg", "is_closed": false, "url": "https://www.yelp.com/biz/the-handpulled-noodle-new-york?adjust_creative=vyhy616UjsMTA_hrWyg_5w&utm_campaign=yelp_api_v3&utm_medium=api_v3_business_search&utm_source=vyhy616UjsMTA_hrWyg_5w", "review_count": 880, "categories": [{"alias": "chinese", "title": "Chinese"}, {"alias": "noodles", "title": "Noodles"}], "rating": 4.0, "coordinates": {"latitude": 40.828384, "longitude": -73.948674}, "transactions": ["delivery", "pickup"], "price": "$$", "location": {"address1": "3600 Broadway", "address2": "Ste 3", "address3": "", "city": "New York", "zip_code": "10031", "country": "US", "state": "NY", "display_address": ["3600 Broadway", "Ste 3", "New York, NY 10031"]}, "phone": "+19172620213", "display_phone": "(917) 262-0213", "distance": 14199.790674065822}, {"id": "feY7PgoRjCp2qReaIitRkQ", "alias": "boran-brooklyn-2", "name": "Boran", "image_url": "https://s3-media1.fl.yelpcdn.com/bphoto/XVr8yWNNAPX1nc4FWD8W5g/o.jpg", "is_closed": false, "url": "https://www.yelp.com/biz/boran-brooklyn-2?adjust_creative=vyhy616UjsMTA_hrWyg_5w&utm_campaign=yelp_api_v3&utm_medium=api_v3_business_search&utm_source=vyhy616UjsMTA_hrWyg_5w", "review_count": 185, "categories": [{"alias": "thai", "title": "Thai"}], "rating": 4.5, "coordinates": {"latitude": 40.6782327, "longitude": -73.998062}, "transactions": ["delivery", "pickup"], "price": "$$", "location": {"address1": "462 Court St", "address2": null, "address3": "", "city": "Brooklyn", "zip_code": "11231", "country": "US", "state": "NY", "display_address": ["462 Court St", "Brooklyn, NY 11231"]}, "phone": "+17184900207", "display_phone": "(718) 490-0207", "distance": 3042.489267250247}, {"id": "6wJOojpF2c4lLeBNbTBB0A", "alias": "baoburg-brooklyn-2", "name": "Baoburg", "image_url": "https://s3-media3.fl.yelpcdn.com/bphoto/dKj992_3gxwfLizCVFBCUA/o.jpg", "is_closed": false, "url": "https://www.yelp.com/biz/baoburg-brooklyn-2?adjust_creative=vyhy616UjsMTA_hrWyg_5w&utm_campaign=yelp_api_v3&utm_medium=api_v3_business_search&utm_source=vyhy616UjsMTA_hrWyg_5w", "review_count": 246, "categories": [{"alias": "asianfusion", "title": "Asian Fusion"}, {"alias": "thai", "title": "Thai"}, {"alias": "panasian", "title": "Pan Asian"}], "rating": 4.0, "coordinates": {"latitude": 40.7234929271998, "longitude": -73.9503321851175}, "transactions": ["delivery", "pickup"], "price": "$$", "location": {"address1": "614 Manhattan Ave", "address2": "", "address3": "", "city": "Brooklyn", "zip_code": "11222", "country": "US", "state": "NY", "display_address": ["614 Manhattan Ave", "Brooklyn, NY 11222"]}, "phone": "+17183490011", "display_phone": "(718) 349-0011", "distance": 4213.725334102182}, {"id": "0GftSP2dRwEzujkv2VKIgA", "alias": "wok-wok-southeast-asian-kitchen-new-york", "name": "Wok Wok Southeast Asian Kitchen", "image_url": "https://s3-media3.fl.yelpcdn.com/bphoto/XOc7n_rq6kYGXySwasouRQ/o.jpg", "is_closed": false, "url": "https://www.yelp.com/biz/wok-wok-southeast-asian-kitchen-new-york?adjust_creative=vyhy616UjsMTA_hrWyg_5w&utm_campaign=yelp_api_v3&utm_medium=api_v3_business_search&utm_source=vyhy616UjsMTA_hrWyg_5w", "review_count": 1014, "categories": [{"alias": "chinese", "title": "Chinese"}, {"alias": "malaysian", "title": "Malaysian"}, {"alias": "thai", "title": "Thai"}], "rating": 4.0, "coordinates": {"latitude": 40.7140555, "longitude": -73.9988387116394}, "transactions": ["delivery", "pickup"], "price": "$$", "location": {"address1": "11 Mott St", "address2": null, "address3": "", "city": "New York", "zip_code": "10013", "country": "US", "state": "NY", "display_address": ["11 Mott St", "New York, NY 10013"]}, "phone": "+19173883627", "display_phone": "(917) 388-3627", "distance": 1031.2690925773445}, {"id": "7DnZWIn1Dcsvq-_pIXXFZQ", "alias": "hortus-nyc-new-york", "name": "Hortus NYC", "image_url": "https://s3-media3.fl.yelpcdn.com/bphoto/BFyIS0Y1BlwL_t9QHuzBJQ/o.jpg", "is_closed": false, "url": "https://www.yelp.com/biz/hortus-nyc-new-york?adjust_creative=vyhy616UjsMTA_hrWyg_5w&utm_campaign=yelp_api_v3&utm_medium=api_v3_business_search&utm_source=vyhy616UjsMTA_hrWyg_5w", "review_count": 233, "categories": [{"alias": "asianfusion", "title": "Asian Fusion"}, {"alias": "korean", "title": "Korean"}, {"alias": "tapasmallplates", "title": "Tapas/Small Plates"}], "rating": 4.5, "coordinates": {"latitude": 40.745481, "longitude": -73.986518}, "transactions": ["restaurant_reservation", "delivery", "pickup"], "location": {"address1": "271 5th Ave", "address2": null, "address3": "", "city": "New York", "zip_code": "10016", "country": "US", "state": "NY", "display_address": ["271 5th Ave", "New York, NY 10016"]}, "phone": "+16468583784", "display_phone": "(646) 858-3784", "distance": 4499.76744743394}, {"id": "SSDOkx5enfRH3nsniS_2jA", "alias": "5ive-spice-brooklyn-3", "name": "5ive Spice", "image_url": "https://s3-media3.fl.yelpcdn.com/bphoto/5QcoRr5a7JvQsOCH3cLW0A/o.jpg", "is_closed": false, "url": "https://www.yelp.com/biz/5ive-spice-brooklyn-3?adjust_creative=vyhy616UjsMTA_hrWyg_5w&utm_campaign=yelp_api_v3&utm_medium=api_v3_business_search&utm_source=vyhy616UjsMTA_hrWyg_5w", "review_count": 701, "categories": [{"alias": "vietnamese", "title": "Vietnamese"}, {"alias": "coffee", "title": "Coffee & Tea"}, {"alias": "tacos", "title": "Tacos"}], "rating": 4.5, "coordinates": {"latitude": 40.681442, "longitude": -73.977241}, "transactions": ["delivery", "pickup"], "price": "$$", "location": {"address1": "52 5th Ave", "address2": "", "address3": "", "city": "Brooklyn", "zip_code": "11217", "country": "US", "state": "NY", "display_address": ["52 5th Ave", "Brooklyn, NY 11217"]}, "phone": "+17188573483", "display_phone": "(718) 857-3483", "distance": 3031.5630577712896}, {"id": "-OixbLnFLCzQclxCSbUQ8w", "alias": "up-thai-new-york", "name": "Up Thai", "image_url": "https://s3-media3.fl.yelpcdn.com/bphoto/i4TPZkTUWJn8aljC0UeU9Q/o.jpg", "is_closed": false, "url": "https://www.yelp.com/biz/up-thai-new-york?adjust_creative=vyhy616UjsMTA_hrWyg_5w&utm_campaign=yelp_api_v3&utm_medium=api_v3_business_search&utm_source=vyhy616UjsMTA_hrWyg_5w", "review_count": 2416, "categories": [{"alias": "thai", "title": "Thai"}, {"alias": "asianfusion", "title": "Asian Fusion"}], "rating": 4.5, "coordinates": {"latitude": 40.7698275926665, "longitude": -73.9576330868512}, "transactions": ["delivery", "pickup"], "price": "$$", "location": {"address1": "1411 2nd Ave", "address2": "", "address3": "", "city": "New York", "zip_code": "10021", "country": "US", "state": "NY", "display_address": ["1411 2nd Ave", "New York, NY 10021"]}, "phone": "+12122561188", "display_phone": "(212) 256-1188", "distance": 7796.9126757590075}, {"id": "8Oo2AtQEPDfxIOnA8wfXoQ", "alias": "886-new-york", "name": "886", "image_url": "https://s3-media3.fl.yelpcdn.com/bphoto/N-V-Dl4nrmMhN1TcVt6a8g/o.jpg", "is_closed": false, "url": "https://www.yelp.com/biz/886-new-york?adjust_creative=vyhy616UjsMTA_hrWyg_5w&utm_campaign=yelp_api_v3&utm_medium=api_v3_business_search&utm_source=vyhy616UjsMTA_hrWyg_5w", "review_count": 390, "categories": [{"alias": "taiwanese", "title": "Taiwanese"}, {"alias": "breakfast_brunch", "title": "Breakfast & Brunch"}, {"alias": "asianfusion", "title": "Asian Fusion"}], "rating": 4.0, "coordinates": {"latitude": 40.72877, "longitude": -73.98873}, "transactions": ["delivery", "pickup"], "price": "$$", "location": {"address1": "26 Saint Marks Pl", "address2": "", "address3": null, "city": "New York", "zip_code": "10003", "country": "US", "state": "NY", "display_address": ["26 Saint Marks Pl", "New York, NY 10003"]}, "phone": "+16468820231", "display_phone": "(646) 882-0231", "distance": 2638.0802791580863}, {"id": "7Q68kpPS6okcC8Kkw7g42A", "alias": "sushi-lab-rooftop-nyc-new-york-2", "name": "Sushi Lab Rooftop NYC", "image_url": "https://s3-media2.fl.yelpcdn.com/bphoto/EZdrheKY7NxhnnZltFD4hQ/o.jpg", "is_closed": false, "url": "https://www.yelp.com/biz/sushi-lab-rooftop-nyc-new-york-2?adjust_creative=vyhy616UjsMTA_hrWyg_5w&utm_campaign=yelp_api_v3&utm_medium=api_v3_business_search&utm_source=vyhy616UjsMTA_hrWyg_5w", "review_count": 165, "categories": [{"alias": "japanese", "title": "Japanese"}, {"alias": "sushi", "title": "Sushi Bars"}, {"alias": "tapasmallplates", "title": "Tapas/Small Plates"}], "rating": 4.0, "coordinates": {"latitude": 40.758417, "longitude": -73.983301}, "transactions": [], "location": {"address1": "132 West 47th St", "address2": null, "address3": "", "city": "New York", "zip_code": "10036", "country": "US", "state": "NY", "display_address": ["132 West 47th St", "New York, NY 10036"]}, "phone": "+12124320000", "display_phone": "(212) 432-0000", "distance": 5961.292620383107}, {"id": "B9_TgZa8rgW5oZOtXZUMCw", "alias": "laut-singapura-new-york", "name": "Laut Singapura", "image_url": "https://s3-media4.fl.yelpcdn.com/bphoto/idcKZdodv7WEHRXDjJRdGw/o.jpg", "is_closed": false, "url": "https://www.yelp.com/biz/laut-singapura-new-york?adjust_creative=vyhy616UjsMTA_hrWyg_5w&utm_campaign=yelp_api_v3&utm_medium=api_v3_business_search&utm_source=vyhy616UjsMTA_hrWyg_5w", "review_count": 189, "categories": [{"alias": "singaporean", "title": "Singaporean"}], "rating": 4.0, "coordinates": {"latitude": 40.73895, "longitude": -73.98896}, "transactions": ["delivery", "pickup"], "location": {"address1": "31 E 20th St", "address2": null, "address3": "", "city": "New York", "zip_code": "10003", "country": "US", "state": "NY", "display_address": ["31 E 20th St", "New York, NY 10003"]}, "phone": "+16464299986", "display_phone": "(646) 429-9986", "distance": 3756.5340970208595}, {"id": "Txm8KtUh9Mn2E7980jTr5g", "alias": "dhamaka-new-york", "name": "Dhamaka", "image_url": "https://s3-media3.fl.yelpcdn.com/bphoto/d1Enko4WUVZH5JT_ZAWVaQ/o.jpg", "is_closed": false, "url": "https://www.yelp.com/biz/dhamaka-new-york?adjust_creative=vyhy616UjsMTA_hrWyg_5w&utm_campaign=yelp_api_v3&utm_medium=api_v3_business_search&utm_source=vyhy616UjsMTA_hrWyg_5w", "review_count": 27, "categories": [{"alias": "indpak", "title": "Indian"}], "rating": 4.5, "coordinates": {"latitude": 40.7180658, "longitude": -73.9881304}, "transactions": [], "location": {"address1": "119 Delancey St", "address2": "Essex Market, Store  34", "address3": null, "city": "New York", "zip_code": "10002", "country": "US", "state": "NY", "display_address": ["119 Delancey St", "Essex Market, Store  34", "New York, NY 10002"]}, "phone": "+12122048616", "display_phone": "(212) 204-8616", "distance": 1496.4281506417149}, {"id": "qd9_gxrmskbOT6OLN9sShA", "alias": "dock-asian-eatery-brooklyn-4", "name": "Dock Asian Eatery", "image_url": "https://s3-media2.fl.yelpcdn.com/bphoto/Is5eOCQDCT70FcTshlxblg/o.jpg", "is_closed": false, "url": "https://www.yelp.com/biz/dock-asian-eatery-brooklyn-4?adjust_creative=vyhy616UjsMTA_hrWyg_5w&utm_campaign=yelp_api_v3&utm_medium=api_v3_business_search&utm_source=vyhy616UjsMTA_hrWyg_5w", "review_count": 154, "categories": [{"alias": "ramen", "title": "Ramen"}, {"alias": "thai", "title": "Thai"}, {"alias": "sushi", "title": "Sushi Bars"}], "rating": 4.0, "coordinates": {"latitude": 40.70628, "longitude": -73.92274}, "transactions": ["delivery", "pickup"], "price": "$$", "location": {"address1": "22 Wyckoff Ave", "address2": "", "address3": null, "city": "Brooklyn", "zip_code": "11237", "country": "US", "state": "NY", "display_address": ["22 Wyckoff Ave", "Brooklyn, NY 11237"]}, "phone": "+17188213900", "display_phone": "(718) 821-3900", "distance": 6032.162438148474}, {"id": "9QK3vhI04Q8ylqk49C3JcQ", "alias": "rule-of-thirds-brooklyn", "name": "Rule of Thirds", "image_url": "https://s3-media3.fl.yelpcdn.com/bphoto/z3wcWXhTpcFm-yTiQgwekQ/o.jpg", "is_closed": false, "url": "https://www.yelp.com/biz/rule-of-thirds-brooklyn?adjust_creative=vyhy616UjsMTA_hrWyg_5w&utm_campaign=yelp_api_v3&utm_medium=api_v3_business_search&utm_source=vyhy616UjsMTA_hrWyg_5w", "review_count": 59, "categories": [{"alias": "breakfast_brunch", "title": "Breakfast & Brunch"}, {"alias": "izakaya", "title": "Izakaya"}, {"alias": "coffee", "title": "Coffee & Tea"}], "rating": 4.0, "coordinates": {"latitude": 40.7246328, "longitude": -73.9551096}, "transactions": ["delivery", "pickup"], "location": {"address1": "171 Banker St", "address2": null, "address3": null, "city": "Brooklyn", "zip_code": "11222", "country": "US", "state": "NY", "display_address": ["171 Banker St", "Brooklyn, NY 11222"]}, "phone": "+13473346684", "display_phone": "(347) 334-6684", "distance": 3944.454297372159}, {"id": "xVduej7-JiPrZzsFXIkIDw", "alias": "lazy-sius-brooklyn", "name": "Lazy Siu's", "image_url": "https://s3-media1.fl.yelpcdn.com/bphoto/0s0ZcA2sk__SsM_xNhwHbg/o.jpg", "is_closed": false, "url": "https://www.yelp.com/biz/lazy-sius-brooklyn?adjust_creative=vyhy616UjsMTA_hrWyg_5w&utm_campaign=yelp_api_v3&utm_medium=api_v3_business_search&utm_source=vyhy616UjsMTA_hrWyg_5w", "review_count": 41, "categories": [{"alias": "chinese", "title": "Chinese"}, {"alias": "bbq", "title": "Barbeque"}], "rating": 5.0, "coordinates": {"latitude": 40.71261, "longitude": -73.96077}, "transactions": ["delivery", "pickup"], "location": {"address1": "742 Driggs Ave", "address2": "", "address3": null, "city": "Brooklyn", "zip_code": "11211", "country": "US", "state": "NY", "display_address": ["742 Driggs Ave", "Brooklyn, NY 11211"]}, "phone": "+19293376352", "display_phone": "(929) 337-6352", "distance": 2933.585593999067}, {"id": "R26zweQ8-xoZS7iHkXQOvw", "alias": "shanghai-21-new-york-2", "name": "Shanghai 21", "image_url": "https://s3-media3.fl.yelpcdn.com/bphoto/1rNQzY87fKHPOEexZIGHGg/o.jpg", "is_closed": false, "url": "https://www.yelp.com/biz/shanghai-21-new-york-2?adjust_creative=vyhy616UjsMTA_hrWyg_5w&utm_campaign=yelp_api_v3&utm_medium=api_v3_business_search&utm_source=vyhy616UjsMTA_hrWyg_5w", "review_count": 1709, "categories": [{"alias": "shanghainese", "title": "Shanghainese"}], "rating": 4.0, "coordinates": {"latitude": 40.71441, "longitude": -73.99902}, "transactions": ["delivery", "pickup"], "price": "$$", "location": {"address1": "21 Mott St", "address2": "", "address3": "", "city": "New York", "zip_code": "10013", "country": "US", "state": "NY", "display_address": ["21 Mott St", "New York, NY 10013"]}, "phone": "+12127666311", "display_phone": "(212) 766-6311", "distance": 1073.6754859131381}, {"id": "59oP8zLjQLPY0Dyh004HSQ", "alias": "omai-new-york-2", "name": "Omai", "image_url": "https://s3-media1.fl.yelpcdn.com/bphoto/2WrZA4eVQn3m3cobP1eMHQ/o.jpg", "is_closed": false, "url": "https://www.yelp.com/biz/omai-new-york-2?adjust_creative=vyhy616UjsMTA_hrWyg_5w&utm_campaign=yelp_api_v3&utm_medium=api_v3_business_search&utm_source=vyhy616UjsMTA_hrWyg_5w", "review_count": 270, "categories": [{"alias": "vietnamese", "title": "Vietnamese"}], "rating": 4.0, "coordinates": {"latitude": 40.744289, "longitude": -74.002563}, "transactions": ["delivery", "pickup"], "price": "$$", "location": {"address1": "158 9th Ave", "address2": "", "address3": "", "city": "New York", "zip_code": "10011", "country": "US", "state": "NY", "display_address": ["158 9th Ave", "New York, NY 10011"]}, "phone": "+12126330550", "display_phone": "(212) 633-0550", "distance": 4378.469523810043}, {"id": "O1fUmxt3kbV-rnyjBtzAfw", "alias": "thep-thai-restaurant-new-york-5", "name": "THEP Thai Restaurant", "image_url": "https://s3-media4.fl.yelpcdn.com/bphoto/MKCdkV2v209he52ImIOSeA/o.jpg", "is_closed": false, "url": "https://www.yelp.com/biz/thep-thai-restaurant-new-york-5?adjust_creative=vyhy616UjsMTA_hrWyg_5w&utm_campaign=yelp_api_v3&utm_medium=api_v3_business_search&utm_source=vyhy616UjsMTA_hrWyg_5w", "review_count": 1403, "categories": [{"alias": "thai", "title": "Thai"}, {"alias": "noodles", "title": "Noodles"}, {"alias": "asianfusion", "title": "Asian Fusion"}], "rating": 4.5, "coordinates": {"latitude": 40.77078, "longitude": -73.95727}, "transactions": ["delivery", "pickup"], "price": "$$", "location": {"address1": "1439 2nd Ave", "address2": "", "address3": null, "city": "New York", "zip_code": "10021", "country": "US", "state": "NY", "display_address": ["1439 2nd Ave", "New York, NY 10021"]}, "phone": "+12128999995", "display_phone": "(212) 899-9995", "distance": 7904.787644740089}, {"id": "EvAJBgBdgOt1jx1EufRN7w", "alias": "jin-ramen-new-york-7", "name": "Jin Ramen", "image_url": "https://s3-media3.fl.yelpcdn.com/bphoto/Z6WBd_v58IIASNWDAJQ3ug/o.jpg", "is_closed": false, "url": "https://www.yelp.com/biz/jin-ramen-new-york-7?adjust_creative=vyhy616UjsMTA_hrWyg_5w&utm_campaign=yelp_api_v3&utm_medium=api_v3_business_search&utm_source=vyhy616UjsMTA_hrWyg_5w", "review_count": 932, "categories": [{"alias": "ramen", "title": "Ramen"}], "rating": 4.0, "coordinates": {"latitude": 40.7854, "longitude": -73.97709}, "transactions": ["delivery", "pickup"], "price": "$$", "location": {"address1": "462 Amsterdam Ave", "address2": "", "address3": "", "city": "New York", "zip_code": "10024", "country": "US", "state": "NY", "display_address": ["462 Amsterdam Ave", "New York, NY 10024"]}, "phone": "+16466570755", "display_phone": "(646) 657-0755", "distance": 9009.477930552632}], "total": 4800, "region": {"center": {"longitude": -73.99429321289062, "latitude": 40.70544486444615}}}