{"businesses": [{"id": "HlB6kVtJwVjZGKrBmULk0A", "alias": "tiger-lily-columbus", "name": "Tiger + Lily", "image_url": "https://s3-media2.fl.yelpcdn.com/bphoto/RqU-og8aqnZXEZgohhfbZg/o.jpg", "is_closed": false, "url": "https://www.yelp.com/biz/tiger-lily-columbus?adjust_creative=vyhy616UjsMTA_hrWyg_5w&utm_campaign=yelp_api_v3&utm_medium=api_v3_business_search&utm_source=vyhy616UjsMTA_hrWyg_5w", "review_count": 302, "categories": [{"alias": "asianfusion", "title": "Asian Fusion"}, {"alias": "japanese", "title": "Japanese"}, {"alias": "chinese", "title": "Chinese"}], "rating": 4.0, "coordinates": {"latitude": 39.96356, "longitude": -83.00021}, "transactions": ["delivery", "pickup"], "price": "$$", "location": {"address1": "19 E Gay St", "address2": "", "address3": null, "city": "Columbus", "zip_code": "43215", "country": "US", "state": "OH", "display_address": ["19 E Gay St", "Columbus, OH 43215"]}, "phone": "+16149289989", "display_phone": "(614) 928-9989", "distance": 5349.150051199493}, {"id": "Okf2Qd9wVqpTN-aFScqbXw", "alias": "jiu-thai-asian-cafe-columbus", "name": "Jiu Thai Asian Cafe", "image_url": "https://s3-media4.fl.yelpcdn.com/bphoto/Ms1vasg5ZS-hek8617-sOw/o.jpg", "is_closed": false, "url": "https://www.yelp.com/biz/jiu-thai-asian-cafe-columbus?adjust_creative=vyhy616UjsMTA_hrWyg_5w&utm_campaign=yelp_api_v3&utm_medium=api_v3_business_search&utm_source=vyhy616UjsMTA_hrWyg_5w", "review_count": 299, "categories": [{"alias": "chinese", "title": "Chinese"}], "rating": 4.5, "coordinates": {"latitude": 40.0621574870438, "longitude": -83.0411403558197}, "transactions": ["delivery", "pickup"], "price": "$$", "location": {"address1": "787 Bethel Rd", "address2": "", "address3": "", "city": "Columbus", "zip_code": "43214", "country": "US", "state": "OH", "display_address": ["787 Bethel Rd", "Columbus, OH 43214"]}, "phone": "+16147325939", "display_phone": "(614) 732-5939", "distance": 6665.344403657105}, {"id": "WXROkiRaS0Kj3aPYdF5iOw", "alias": "xi-xia-western-chinese-cuisine-columbus", "name": "Xi Xia Western Chinese Cuisine", "image_url": "https://s3-media2.fl.yelpcdn.com/bphoto/_PLH51yTXdNrKXhcVtc0ZA/o.jpg", "is_closed": false, "url": "https://www.yelp.com/biz/xi-xia-western-chinese-cuisine-columbus?adjust_creative=vyhy616UjsMTA_hrWyg_5w&utm_campaign=yelp_api_v3&utm_medium=api_v3_business_search&utm_source=vyhy616UjsMTA_hrWyg_5w", "review_count": 86, "categories": [{"alias": "chinese", "title": "Chinese"}, {"alias": "noodles", "title": "Noodles"}, {"alias": "asianfusion", "title": "Asian Fusion"}], "rating": 4.5, "coordinates": {"latitude": 40.050337, "longitude": -83.05106}, "transactions": ["delivery", "pickup"], "price": "$$", "location": {"address1": "1140 Kenny Centre Mall", "address2": null, "address3": "", "city": "Columbus", "zip_code": "43220", "country": "US", "state": "OH", "display_address": ["1140 Kenny Centre Mall", "Columbus, OH 43220"]}, "phone": "+16146707736", "display_phone": "(614) 670-7736", "distance": 6178.529865588341}, {"id": "1MHEntGVnZ53mhryc7rO8w", "alias": "so-gong-dong-tofu-and-korean-bbq-columbus", "name": "So Gong Dong Tofu and Korean BBQ", "image_url": "https://s3-media3.fl.yelpcdn.com/bphoto/lG6OXrx9DYdnSds5Ov2kKw/o.jpg", "is_closed": false, "url": "https://www.yelp.com/biz/so-gong-dong-tofu-and-korean-bbq-columbus?adjust_creative=vyhy616UjsMTA_hrWyg_5w&utm_campaign=yelp_api_v3&utm_medium=api_v3_business_search&utm_source=vyhy616UjsMTA_hrWyg_5w", "review_count": 153, "categories": [{"alias": "korean", "title": "Korean"}, {"alias": "bbq", "title": "Barbeque"}], "rating": 4.5, "coordinates": {"latitude": 40.066523, "longitude": -83.096507}, "transactions": ["delivery", "pickup"], "price": "$$", "location": {"address1": "2950 Hayden Rd", "address2": null, "address3": "", "city": "Columbus", "zip_code": "43235", "country": "US", "state": "OH", "display_address": ["2950 Hayden Rd", "Columbus, OH 43235"]}, "phone": "+16143891050", "display_phone": "(614) 389-1050", "distance": 10304.30030439782}, {"id": "vm_cC9MZP5CxA2MN_6Jfjg", "alias": "leis-asian-bistro-columbus", "name": "Lei's Asian Bistro", "image_url": "https://s3-media4.fl.yelpcdn.com/bphoto/tlts6IntT30myxYN97WRHA/o.jpg", "is_closed": false, "url": "https://www.yelp.com/biz/leis-asian-bistro-columbus?adjust_creative=vyhy616UjsMTA_hrWyg_5w&utm_campaign=yelp_api_v3&utm_medium=api_v3_business_search&utm_source=vyhy616UjsMTA_hrWyg_5w", "review_count": 90, "categories": [{"alias": "chinese", "title": "Chinese"}, {"alias": "asianfusion", "title": "Asian Fusion"}], "rating": 4.5, "coordinates": {"latitude": 40.14434, "longitude": -82.96081}, "transactions": ["delivery", "pickup"], "location": {"address1": "2107 Polaris Pkwy", "address2": null, "address3": "", "city": "Columbus", "zip_code": "43240", "country": "US", "state": "OH", "display_address": ["2107 Polaris Pkwy", "Columbus, OH 43240"]}, "phone": "+16144681805", "display_phone": "(614) 468-1805", "distance": 15096.254695024501}, {"id": "46GEloUuRKGW35aMAM1sKA", "alias": "bendi-wok-n-bar-columbus", "name": "Bendi Wok N Bar", "image_url": "https://s3-media4.fl.yelpcdn.com/bphoto/rMNi1-m0-8FmwCy_v9u-xg/o.jpg", "is_closed": false, "url": "https://www.yelp.com/biz/bendi-wok-n-bar-columbus?adjust_creative=vyhy616UjsMTA_hrWyg_5w&utm_campaign=yelp_api_v3&utm_medium=api_v3_business_search&utm_source=vyhy616UjsMTA_hrWyg_5w", "review_count": 10, "categories": [{"alias": "asianfusion", "title": "Asian Fusion"}, {"alias": "cocktailbars", "title": "Cocktail Bars"}, {"alias": "tapasmallplates", "title": "Tapas/Small Plates"}], "rating": 4.5, "coordinates": {"latitude": 39.9524, "longitude": -82.99096}, "transactions": [], "location": {"address1": "277 E Livingston Ave", "address2": "", "address3": null, "city": "Columbus", "zip_code": "43215", "country": "US", "state": "OH", "display_address": ["277 E Livingston Ave", "Columbus, OH 43215"]}, "phone": "+16147547040", "display_phone": "(614) 754-7040", "distance": 6632.134844151645}, {"id": "Lq6E0bhVn30hKLDyQ5PVIw", "alias": "wild-ginger-hilliard", "name": "Wild Ginger", "image_url": "https://s3-media4.fl.yelpcdn.com/bphoto/oOxYqd4bS5hRptA_Oj6UzQ/o.jpg", "is_closed": false, "url": "https://www.yelp.com/biz/wild-ginger-hilliard?adjust_creative=vyhy616UjsMTA_hrWyg_5w&utm_campaign=yelp_api_v3&utm_medium=api_v3_business_search&utm_source=vyhy616UjsMTA_hrWyg_5w", "review_count": 254, "categories": [{"alias": "asianfusion", "title": "Asian Fusion"}, {"alias": "sushi", "title": "Sushi Bars"}, {"alias": "japanese", "title": "Japanese"}], "rating": 4.5, "coordinates": {"latitude": 39.9864571541548, "longitude": -83.1510389596224}, "transactions": ["delivery"], "price": "$$", "location": {"address1": "1726 Hilliard Rome Rd", "address2": "", "address3": "", "city": "Hilliard", "zip_code": "43026", "country": "US", "state": "OH", "display_address": ["1726 Hilliard Rome Rd", "Hilliard, OH 43026"]}, "phone": "+16148766888", "display_phone": "(614) 876-6888", "distance": 13261.269113111035}, {"id": "dp_60ZST2ZzwwQH-vgojqA", "alias": "gogi-korean-bbq-columbus", "name": "GOGI Korean BBQ", "image_url": "https://s3-media3.fl.yelpcdn.com/bphoto/abJckZpItjtjfKMp6vdl1w/o.jpg", "is_closed": false, "url": "https://www.yelp.com/biz/gogi-korean-bbq-columbus?adjust_creative=vyhy616UjsMTA_hrWyg_5w&utm_campaign=yelp_api_v3&utm_medium=api_v3_business_search&utm_source=vyhy616UjsMTA_hrWyg_5w", "review_count": 251, "categories": [{"alias": "korean", "title": "Korean"}, {"alias": "bbq", "title": "Barbeque"}], "rating": 4.0, "coordinates": {"latitude": 40.0638, "longitude": -83.04919}, "transactions": ["delivery", "pickup"], "price": "$$", "location": {"address1": "1138 Bethel Rd", "address2": "", "address3": "", "city": "Columbus", "zip_code": "43220", "country": "US", "state": "OH", "display_address": ["1138 Bethel Rd", "Columbus, OH 43220"]}, "phone": "+16146704790", "display_phone": "(614) 670-4790", "distance": 7219.631242313749}, {"id": "yOYw8oFAeWLCYzjMoBLl1A", "alias": "ampersand-asian-supper-club-columbus-2", "name": "Ampersand Asian Supper Club", "image_url": "https://s3-media2.fl.yelpcdn.com/bphoto/xS_ocF3vXBphGyRTgMlpvQ/o.jpg", "is_closed": false, "url": "https://www.yelp.com/biz/ampersand-asian-supper-club-columbus-2?adjust_creative=vyhy616UjsMTA_hrWyg_5w&utm_campaign=yelp_api_v3&utm_medium=api_v3_business_search&utm_source=vyhy616UjsMTA_hrWyg_5w", "review_count": 133, "categories": [{"alias": "ramen", "title": "Ramen"}], "rating": 4.5, "coordinates": {"latitude": 39.981380357771, "longitude": -83.0041667804701}, "transactions": ["delivery", "pickup"], "price": "$$", "location": {"address1": "940 N High St", "address2": null, "address3": "", "city": "Columbus", "zip_code": "43201", "country": "US", "state": "OH", "display_address": ["940 N High St", "Columbus, OH 43201"]}, "phone": "+16149283333", "display_phone": "(614) 928-3333", "distance": 3395.627832657917}, {"id": "vXgNswX8dt6uaE8XfFPAEg", "alias": "pho-asian-noodle-house-and-grill-columbus", "name": "Pho Asian Noodle House & Grill", "image_url": "https://s3-media3.fl.yelpcdn.com/bphoto/agkXyh5hjL4ufBy5xMSx-A/o.jpg", "is_closed": false, "url": "https://www.yelp.com/biz/pho-asian-noodle-house-and-grill-columbus?adjust_creative=vyhy616UjsMTA_hrWyg_5w&utm_campaign=yelp_api_v3&utm_medium=api_v3_business_search&utm_source=vyhy616UjsMTA_hrWyg_5w", "review_count": 357, "categories": [{"alias": "vietnamese", "title": "Vietnamese"}, {"alias": "noodles", "title": "Noodles"}, {"alias": "thai", "title": "Thai"}], "rating": 3.5, "coordinates": {"latitude": 40.007486, "longitude": -83.045727}, "transactions": ["delivery", "pickup"], "price": "$", "location": {"address1": "1288 W Lane Ave", "address2": "", "address3": "", "city": "Columbus", "zip_code": "43221", "country": "US", "state": "OH", "display_address": ["1288 W Lane Ave", "Columbus, OH 43221"]}, "phone": "+16144888886", "display_phone": "(614) 488-8886", "distance": 4009.765434512844}, {"id": "yeG7DOQTcX-_JDhhNd3pmg", "alias": "lemonshark-pok\u00e9-and-makai-grill-columbus", "name": "LemonShark Pok\u00e9 & Makai Grill ", "image_url": "https://s3-media4.fl.yelpcdn.com/bphoto/AM4KaNL7z-IUpKE-Hh5NNA/o.jpg", "is_closed": false, "url": "https://www.yelp.com/biz/lemonshark-pok%C3%A9-and-makai-grill-columbus?adjust_creative=vyhy616UjsMTA_hrWyg_5w&utm_campaign=yelp_api_v3&utm_medium=api_v3_business_search&utm_source=vyhy616UjsMTA_hrWyg_5w", "review_count": 42, "categories": [{"alias": "poke", "title": "Poke"}, {"alias": "asianfusion", "title": "Asian Fusion"}, {"alias": "hawaiian", "title": "Hawaiian"}], "rating": 4.5, "coordinates": {"latitude": 40.05465651094546, "longitude": -82.91330004324165}, "transactions": ["delivery", "restaurant_reservation", "pickup"], "location": {"address1": "3969 Merchants Row", "address2": "", "address3": null, "city": "Columbus", "zip_code": "43219", "country": "US", "state": "OH", "display_address": ["3969 Merchants Row", "Columbus, OH 43219"]}, "phone": "+16146187653", "display_phone": "(614) 618-7653", "distance": 8720.782355773816}, {"id": "n-yw1FfAnXZzL3Uce7DodQ", "alias": "tais-asian-bistro-columbus", "name": "Tai's Asian Bistro", "image_url": "https://s3-media3.fl.yelpcdn.com/bphoto/WbHux_wV6kRO8OpU88eE8w/o.jpg", "is_closed": false, "url": "https://www.yelp.com/biz/tais-asian-bistro-columbus?adjust_creative=vyhy616UjsMTA_hrWyg_5w&utm_campaign=yelp_api_v3&utm_medium=api_v3_business_search&utm_source=vyhy616UjsMTA_hrWyg_5w", "review_count": 408, "categories": [{"alias": "chinese", "title": "Chinese"}, {"alias": "sushi", "title": "Sushi Bars"}, {"alias": "japanese", "title": "Japanese"}], "rating": 4.0, "coordinates": {"latitude": 40.0068322, "longitude": -83.0445495}, "transactions": ["delivery", "pickup"], "price": "$$", "location": {"address1": "1285 W Lane Ave", "address2": "", "address3": "", "city": "Columbus", "zip_code": "43221", "country": "US", "state": "OH", "display_address": ["1285 W Lane Ave", "Columbus, OH 43221"]}, "phone": "+16144850016", "display_phone": "(614) 485-0016", "distance": 3899.276390280668}, {"id": "ei7tFGEM4y3r2Jtw5FAyKQ", "alias": "akai-hana-columbus", "name": "Akai Hana", "image_url": "https://s3-media3.fl.yelpcdn.com/bphoto/uAZGvlP1FjQO-89g1DZCsw/o.jpg", "is_closed": false, "url": "https://www.yelp.com/biz/akai-hana-columbus?adjust_creative=vyhy616UjsMTA_hrWyg_5w&utm_campaign=yelp_api_v3&utm_medium=api_v3_business_search&utm_source=vyhy616UjsMTA_hrWyg_5w", "review_count": 600, "categories": [{"alias": "japanese", "title": "Japanese"}, {"alias": "sushi", "title": "Sushi Bars"}, {"alias": "seafood", "title": "Seafood"}], "rating": 4.5, "coordinates": {"latitude": 40.0508, "longitude": -83.05175}, "transactions": ["delivery", "pickup"], "price": "$$", "location": {"address1": "1173 Old Henderson Rd", "address2": "", "address3": "", "city": "Columbus", "zip_code": "43220", "country": "US", "state": "OH", "display_address": ["1173 Old Henderson Rd", "Columbus, OH 43220"]}, "phone": "+16144515411", "display_phone": "(614) 451-5411", "distance": 6258.451403578049}, {"id": "ACcxaRBYNHQR8dwYt8BpKA", "alias": "lemon-grass-fusion-bistro-columbus-3", "name": "Lemon Grass Fusion Bistro", "image_url": "https://s3-media1.fl.yelpcdn.com/bphoto/bo-9YGixZJGcKSiA93AdIQ/o.jpg", "is_closed": false, "url": "https://www.yelp.com/biz/lemon-grass-fusion-bistro-columbus-3?adjust_creative=vyhy616UjsMTA_hrWyg_5w&utm_campaign=yelp_api_v3&utm_medium=api_v3_business_search&utm_source=vyhy616UjsMTA_hrWyg_5w", "review_count": 598, "categories": [{"alias": "sushi", "title": "Sushi Bars"}, {"alias": "asianfusion", "title": "Asian Fusion"}, {"alias": "thai", "title": "Thai"}], "rating": 4.0, "coordinates": {"latitude": 39.975296, "longitude": -83.00331}, "transactions": ["delivery", "restaurant_reservation", "pickup"], "price": "$$", "location": {"address1": "641 N High St", "address2": "Ste 103", "address3": "", "city": "Columbus", "zip_code": "43215", "country": "US", "state": "OH", "display_address": ["641 N High St", "Ste 103", "Columbus, OH 43215"]}, "phone": "+16142241414", "display_phone": "(614) 224-1414", "distance": 4060.0396818419836}, {"id": "aoZ6S97rgx61zm_roPMjDg", "alias": "poong-mei-upper-arlington", "name": "Poong Mei", "image_url": "https://s3-media1.fl.yelpcdn.com/bphoto/HkCOFDigq1SC9vBI84qPSw/o.jpg", "is_closed": false, "url": "https://www.yelp.com/biz/poong-mei-upper-arlington?adjust_creative=vyhy616UjsMTA_hrWyg_5w&utm_campaign=yelp_api_v3&utm_medium=api_v3_business_search&utm_source=vyhy616UjsMTA_hrWyg_5w", "review_count": 164, "categories": [{"alias": "japanese", "title": "Japanese"}, {"alias": "korean", "title": "Korean"}, {"alias": "chinese", "title": "Chinese"}], "rating": 4.0, "coordinates": {"latitude": 40.0524870749664, "longitude": -83.0664566976183}, "transactions": ["delivery", "pickup"], "price": "$$", "location": {"address1": "4720 Reed Rd", "address2": "", "address3": "", "city": "Upper Arlington", "zip_code": "43220", "country": "US", "state": "OH", "display_address": ["4720 Reed Rd", "Upper Arlington, OH 43220"]}, "phone": "+16142739998", "display_phone": "(614) 273-9998", "distance": 7323.576783003847}, {"id": "SZiJNGijxR7rTp2d6OTqBA", "alias": "huong-vietnamese-restaurant-columbus-12", "name": "Huong Vietnamese Restaurant", "image_url": "https://s3-media2.fl.yelpcdn.com/bphoto/IeIfHXZqRFDOPPP-A3b_Rw/o.jpg", "is_closed": false, "url": "https://www.yelp.com/biz/huong-vietnamese-restaurant-columbus-12?adjust_creative=vyhy616UjsMTA_hrWyg_5w&utm_campaign=yelp_api_v3&utm_medium=api_v3_business_search&utm_source=vyhy616UjsMTA_hrWyg_5w", "review_count": 318, "categories": [{"alias": "vietnamese", "title": "Vietnamese"}, {"alias": "desserts", "title": "Desserts"}, {"alias": "soup", "title": "Soup"}], "rating": 4.0, "coordinates": {"latitude": 40.0617, "longitude": -82.98504}, "transactions": ["delivery"], "price": "$", "location": {"address1": "1270 Morse Rd", "address2": "", "address3": "", "city": "Columbus", "zip_code": "43229", "country": "US", "state": "OH", "display_address": ["1270 Morse Rd", "Columbus, OH 43229"]}, "phone": "+16143218160", "display_phone": "(614) 321-8160", "distance": 5695.497430592995}, {"id": "NR-CkQYadMK_DuxewllOpg", "alias": "bangkok-grocery-and-restaurant-columbus", "name": "Bangkok Grocery & Restaurant", "image_url": "https://s3-media4.fl.yelpcdn.com/bphoto/1aqn_0HRDhBbwVleQfcpxA/o.jpg", "is_closed": false, "url": "https://www.yelp.com/biz/bangkok-grocery-and-restaurant-columbus?adjust_creative=vyhy616UjsMTA_hrWyg_5w&utm_campaign=yelp_api_v3&utm_medium=api_v3_business_search&utm_source=vyhy616UjsMTA_hrWyg_5w", "review_count": 294, "categories": [{"alias": "thai", "title": "Thai"}, {"alias": "importedfood", "title": "Imported Food"}], "rating": 4.5, "coordinates": {"latitude": 39.91708, "longitude": -82.91392}, "transactions": ["delivery"], "price": "$$", "location": {"address1": "3277 Refugee Rd", "address2": "", "address3": "", "city": "Columbus", "zip_code": "43232", "country": "US", "state": "OH", "display_address": ["3277 Refugee Rd", "Columbus, OH 43232"]}, "phone": "+16142318787", "display_phone": "(614) 231-8787", "distance": 12781.450673521726}, {"id": "AScoRXoWMVPhGmnmq39Njg", "alias": "n-e-chinese-restaurant-columbus-2", "name": "N.E. Chinese Restaurant", "image_url": "https://s3-media4.fl.yelpcdn.com/bphoto/JKayEr17CdeZLP-ixcvJmA/o.jpg", "is_closed": false, "url": "https://www.yelp.com/biz/n-e-chinese-restaurant-columbus-2?adjust_creative=vyhy616UjsMTA_hrWyg_5w&utm_campaign=yelp_api_v3&utm_medium=api_v3_business_search&utm_source=vyhy616UjsMTA_hrWyg_5w", "review_count": 119, "categories": [{"alias": "chinese", "title": "Chinese"}], "rating": 4.5, "coordinates": {"latitude": 40.01576, "longitude": -83.01142}, "transactions": ["delivery", "pickup"], "price": "$$", "location": {"address1": "2620 N High St", "address2": "", "address3": null, "city": "Columbus", "zip_code": "43202", "country": "US", "state": "OH", "display_address": ["2620 N High St", "Columbus, OH 43202"]}, "phone": "+16147250880", "display_phone": "(614) 725-0880", "distance": 1160.0715847631839}, {"id": "PL0xy29--FEHr9-u8xk5Yg", "alias": "bamboo-thai-kitchen-columbus", "name": "Bamboo Thai Kitchen", "image_url": "https://s3-media2.fl.yelpcdn.com/bphoto/khJTcMZAooWb0gkMZGF1Gw/o.jpg", "is_closed": false, "url": "https://www.yelp.com/biz/bamboo-thai-kitchen-columbus?adjust_creative=vyhy616UjsMTA_hrWyg_5w&utm_campaign=yelp_api_v3&utm_medium=api_v3_business_search&utm_source=vyhy616UjsMTA_hrWyg_5w", "review_count": 201, "categories": [{"alias": "vietnamese", "title": "Vietnamese"}, {"alias": "thai", "title": "Thai"}], "rating": 4.0, "coordinates": {"latitude": 40.0632876, "longitude": -83.0402631}, "transactions": [], "price": "$$", "location": {"address1": "774 Bethel Rd", "address2": "", "address3": "", "city": "Columbus", "zip_code": "43214", "country": "US", "state": "OH", "display_address": ["774 Bethel Rd", "Columbus, OH 43214"]}, "phone": "+16143261950", "display_phone": "(614) 326-1950", "distance": 6768.706612035402}, {"id": "rUSzb_bcrIBPP1rj4s_VQQ", "alias": "meshikou-columbus-3", "name": "Meshikou", "image_url": "https://s3-media2.fl.yelpcdn.com/bphoto/YcYkHcf3QEFYIgDFjOvgdg/o.jpg", "is_closed": false, "url": "https://www.yelp.com/biz/meshikou-columbus-3?adjust_creative=vyhy616UjsMTA_hrWyg_5w&utm_campaign=yelp_api_v3&utm_medium=api_v3_business_search&utm_source=vyhy616UjsMTA_hrWyg_5w", "review_count": 401, "categories": [{"alias": "ramen", "title": "Ramen"}, {"alias": "noodles", "title": "Noodles"}, {"alias": "chicken_wings", "title": "Chicken Wings"}], "rating": 4.5, "coordinates": {"latitude": 40.065109, "longitude": -83.059043}, "transactions": ["delivery"], "price": "$$", "location": {"address1": "1506 Bethel Rd", "address2": "", "address3": "", "city": "Columbus", "zip_code": "43235", "country": "US", "state": "OH", "display_address": ["1506 Bethel Rd", "Columbus, OH 43235"]}, "phone": "+16144571689", "display_phone": "(614) 457-1689", "distance": 7841.418633798097}, {"id": "apOJUav4sZymt_Tj0zEDgQ", "alias": "oshio-columbus-2", "name": "Oshio", "image_url": "https://s3-media1.fl.yelpcdn.com/bphoto/wQRYp76VGkkxuV7PrR3nfA/o.jpg", "is_closed": false, "url": "https://www.yelp.com/biz/oshio-columbus-2?adjust_creative=vyhy616UjsMTA_hrWyg_5w&utm_campaign=yelp_api_v3&utm_medium=api_v3_business_search&utm_source=vyhy616UjsMTA_hrWyg_5w", "review_count": 167, "categories": [{"alias": "sushi", "title": "Sushi Bars"}, {"alias": "japanese", "title": "Japanese"}, {"alias": "korean", "title": "Korean"}], "rating": 4.0, "coordinates": {"latitude": 39.988514, "longitude": -83.0323405}, "transactions": ["delivery", "pickup"], "price": "$$", "location": {"address1": "974 W 5th Ave", "address2": null, "address3": "", "city": "Columbus", "zip_code": "43212", "country": "US", "state": "OH", "display_address": ["974 W 5th Ave", "Columbus, OH 43212"]}, "phone": "+16149728443", "display_phone": "(614) 972-8443", "distance": 3834.783412443548}, {"id": "X7aalACyBzoXASiUyRfg5Q", "alias": "j-zhen-asian-bistro-and-bar-columbus", "name": "J Zhen Asian Bistro & Bar", "image_url": "https://s3-media4.fl.yelpcdn.com/bphoto/qR2wM2hl3kqmUxQflg5pWA/o.jpg", "is_closed": false, "url": "https://www.yelp.com/biz/j-zhen-asian-bistro-and-bar-columbus?adjust_creative=vyhy616UjsMTA_hrWyg_5w&utm_campaign=yelp_api_v3&utm_medium=api_v3_business_search&utm_source=vyhy616UjsMTA_hrWyg_5w", "review_count": 37, "categories": [{"alias": "chinese", "title": "Chinese"}], "rating": 4.0, "coordinates": {"latitude": 40.0566205822701, "longitude": -82.9757398366928}, "transactions": ["delivery", "pickup"], "location": {"address1": "4400 Karl Rd", "address2": "", "address3": null, "city": "Columbus", "zip_code": "43224", "country": "US", "state": "OH", "display_address": ["4400 Karl Rd", "Columbus, OH 43224"]}, "phone": "+16144478862", "display_phone": "(614) 447-8862", "distance": 5376.482637650209}, {"id": "eJHhG6tbGfyPHAfw05sg_A", "alias": "diaspora-columbus", "name": "Diaspora", "image_url": "https://s3-media3.fl.yelpcdn.com/bphoto/grKmVu6sJVtF8sVW0bLrKA/o.jpg", "is_closed": false, "url": "https://www.yelp.com/biz/diaspora-columbus?adjust_creative=vyhy616UjsMTA_hrWyg_5w&utm_campaign=yelp_api_v3&utm_medium=api_v3_business_search&utm_source=vyhy616UjsMTA_hrWyg_5w", "review_count": 157, "categories": [{"alias": "korean", "title": "Korean"}, {"alias": "sushi", "title": "Sushi Bars"}], "rating": 4.0, "coordinates": {"latitude": 40.00558, "longitude": -83.00887}, "transactions": ["delivery"], "price": "$$", "location": {"address1": "2118 N High St", "address2": "", "address3": "", "city": "Columbus", "zip_code": "43201", "country": "US", "state": "OH", "display_address": ["2118 N High St", "Columbus, OH 43201"]}, "phone": "+16144581141", "display_phone": "(614) 458-1141", "distance": 1074.570095574723}, {"id": "59WC7xqAx4gZZ_fhujH34A", "alias": "slurping-turtle-columbus", "name": "Slurping Turtle", "image_url": "https://s3-media3.fl.yelpcdn.com/bphoto/eIWVlFRcdXQIIJQorJuMxA/o.jpg", "is_closed": false, "url": "https://www.yelp.com/biz/slurping-turtle-columbus?adjust_creative=vyhy616UjsMTA_hrWyg_5w&utm_campaign=yelp_api_v3&utm_medium=api_v3_business_search&utm_source=vyhy616UjsMTA_hrWyg_5w", "review_count": 90, "categories": [{"alias": "sushi", "title": "Sushi Bars"}, {"alias": "ramen", "title": "Ramen"}], "rating": 4.5, "coordinates": {"latitude": 40.05431409120868, "longitude": -82.91393525715385}, "transactions": ["delivery"], "location": {"address1": "4049 Worth Ave", "address2": null, "address3": null, "city": "Columbus", "zip_code": "43219", "country": "US", "state": "OH", "display_address": ["4049 Worth Ave", "Columbus, OH 43219"]}, "phone": "+16144146310", "display_phone": "(614) 414-6310", "distance": 8654.694000025534}, {"id": "Wle0H63aFvKdB-mXCTjR0A", "alias": "indochine-cafe-whitehall", "name": "Indochine Cafe", "image_url": "https://s3-media3.fl.yelpcdn.com/bphoto/eaEux5GI4OnpLBU8ms3eZw/o.jpg", "is_closed": false, "url": "https://www.yelp.com/biz/indochine-cafe-whitehall?adjust_creative=vyhy616UjsMTA_hrWyg_5w&utm_campaign=yelp_api_v3&utm_medium=api_v3_business_search&utm_source=vyhy616UjsMTA_hrWyg_5w", "review_count": 460, "categories": [{"alias": "vietnamese", "title": "Vietnamese"}, {"alias": "laotian", "title": "Laotian"}], "rating": 4.5, "coordinates": {"latitude": 39.96387, "longitude": -82.8766}, "transactions": ["delivery"], "price": "$$", "location": {"address1": "561 S Hamilton Rd", "address2": "", "address3": "", "city": "Whitehall", "zip_code": "43213", "country": "US", "state": "OH", "display_address": ["561 S Hamilton Rd", "Whitehall, OH 43213"]}, "phone": "+16142317357", "display_phone": "(614) 231-7357", "distance": 11705.615751708057}, {"id": "pKdv-j1llPa93H61bk99RA", "alias": "min-ga-korean-restaurant-columbus-2", "name": "Min-Ga Korean Restaurant", "image_url": "https://s3-media1.fl.yelpcdn.com/bphoto/Dj9kF1CBtUBVYFUDLyngIQ/o.jpg", "is_closed": false, "url": "https://www.yelp.com/biz/min-ga-korean-restaurant-columbus-2?adjust_creative=vyhy616UjsMTA_hrWyg_5w&utm_campaign=yelp_api_v3&utm_medium=api_v3_business_search&utm_source=vyhy616UjsMTA_hrWyg_5w", "review_count": 227, "categories": [{"alias": "korean", "title": "Korean"}], "rating": 4.0, "coordinates": {"latitude": 40.0632913, "longitude": -83.0403653}, "transactions": ["delivery"], "price": "$$", "location": {"address1": "800 Bethel Rd", "address2": "", "address3": "", "city": "Columbus", "zip_code": "43214", "country": "US", "state": "OH", "display_address": ["800 Bethel Rd", "Columbus, OH 43214"]}, "phone": "+16144577331", "display_phone": "(614) 457-7331", "distance": 6800.451054664697}, {"id": "6_juRpfIoSmt3_wRVlvKtA", "alias": "sun-tong-luck-asian-cuisine-columbus", "name": "Sun Tong Luck Asian Cuisine", "image_url": "https://s3-media4.fl.yelpcdn.com/bphoto/VvcI0oG4x0RU6Xd4LuPVSA/o.jpg", "is_closed": false, "url": "https://www.yelp.com/biz/sun-tong-luck-asian-cuisine-columbus?adjust_creative=vyhy616UjsMTA_hrWyg_5w&utm_campaign=yelp_api_v3&utm_medium=api_v3_business_search&utm_source=vyhy616UjsMTA_hrWyg_5w", "review_count": 179, "categories": [{"alias": "chinese", "title": "Chinese"}, {"alias": "vegan", "title": "Vegan"}, {"alias": "soup", "title": "Soup"}], "rating": 4.0, "coordinates": {"latitude": 40.065657683811, "longitude": -83.0869704829422}, "transactions": ["delivery", "pickup"], "price": "$", "location": {"address1": "2500 Bethel Rd", "address2": "", "address3": "", "city": "Columbus", "zip_code": "43220", "country": "US", "state": "OH", "display_address": ["2500 Bethel Rd", "Columbus, OH 43220"]}, "phone": "+16144423375", "display_phone": "(614) 442-3375", "distance": 9601.571194042477}, {"id": "P92lofEhmprrlfxpRTIX0w", "alias": "don-pocha-upper-arlington", "name": "Don Pocha", "image_url": "https://s3-media2.fl.yelpcdn.com/bphoto/YBvKNETY1pm0nCLKcUInvg/o.jpg", "is_closed": false, "url": "https://www.yelp.com/biz/don-pocha-upper-arlington?adjust_creative=vyhy616UjsMTA_hrWyg_5w&utm_campaign=yelp_api_v3&utm_medium=api_v3_business_search&utm_source=vyhy616UjsMTA_hrWyg_5w", "review_count": 10, "categories": [{"alias": "korean", "title": "Korean"}, {"alias": "bbq", "title": "Barbeque"}], "rating": 4.5, "coordinates": {"latitude": 40.052247, "longitude": -83.0664}, "transactions": ["delivery", "pickup"], "location": {"address1": "4710 Reed Rd", "address2": "", "address3": null, "city": "Upper Arlington", "zip_code": "43220", "country": "US", "state": "OH", "display_address": ["4710 Reed Rd", "Upper Arlington, OH 43220"]}, "phone": "+16144599292", "display_phone": "(614) 459-9292", "distance": 7300.432156502903}, {"id": "670uYG2W19te4Uy9EVVdgQ", "alias": "ty-ginger-asian-bistro-dublin", "name": "Ty Ginger Asian Bistro", "image_url": "https://s3-media2.fl.yelpcdn.com/bphoto/jigGu8CLWRB5GhKV8Xv1Ig/o.jpg", "is_closed": false, "url": "https://www.yelp.com/biz/ty-ginger-asian-bistro-dublin?adjust_creative=vyhy616UjsMTA_hrWyg_5w&utm_campaign=yelp_api_v3&utm_medium=api_v3_business_search&utm_source=vyhy616UjsMTA_hrWyg_5w", "review_count": 254, "categories": [{"alias": "asianfusion", "title": "Asian Fusion"}, {"alias": "dimsum", "title": "Dim Sum"}], "rating": 4.0, "coordinates": {"latitude": 40.0841224040013, "longitude": -83.1427492477394}, "transactions": ["delivery", "pickup"], "price": "$$", "location": {"address1": "5689 Woerner Temple Rd", "address2": "", "address3": "", "city": "Dublin", "zip_code": "43016", "country": "US", "state": "OH", "display_address": ["5689 Woerner Temple Rd", "Dublin, OH 43016"]}, "phone": "+16148898885", "display_phone": "(614) 889-8885", "distance": 14653.53822273682}, {"id": "6rJwbvMfV45b52-LLbpreQ", "alias": "lieus-asian-cuisine-columbus-3", "name": "Lieu's Asian Cuisine", "image_url": "https://s3-media1.fl.yelpcdn.com/bphoto/78R8ID6hYb7uOiqspa2YfQ/o.jpg", "is_closed": false, "url": "https://www.yelp.com/biz/lieus-asian-cuisine-columbus-3?adjust_creative=vyhy616UjsMTA_hrWyg_5w&utm_campaign=yelp_api_v3&utm_medium=api_v3_business_search&utm_source=vyhy616UjsMTA_hrWyg_5w", "review_count": 71, "categories": [{"alias": "asianfusion", "title": "Asian Fusion"}, {"alias": "chinese", "title": "Chinese"}, {"alias": "vietnamese", "title": "Vietnamese"}], "rating": 4.0, "coordinates": {"latitude": 40.07089, "longitude": -83.01866}, "transactions": ["delivery", "pickup"], "price": "$$", "location": {"address1": "5320 N High St", "address2": "", "address3": "", "city": "Columbus", "zip_code": "43214", "country": "US", "state": "OH", "display_address": ["5320 N High St", "Columbus, OH 43214"]}, "phone": "+16144681818", "display_phone": "(614) 468-1818", "distance": 6791.261170981063}, {"id": "pZc8rwUrvieemrnvRLpxqw", "alias": "helen-asian-kitchen-columbus-2", "name": "Helen Asian Kitchen", "image_url": "https://s3-media4.fl.yelpcdn.com/bphoto/mshSa1FI67GvFdJBA_qIYg/o.jpg", "is_closed": false, "url": "https://www.yelp.com/biz/helen-asian-kitchen-columbus-2?adjust_creative=vyhy616UjsMTA_hrWyg_5w&utm_campaign=yelp_api_v3&utm_medium=api_v3_business_search&utm_source=vyhy616UjsMTA_hrWyg_5w", "review_count": 259, "categories": [{"alias": "chinese", "title": "Chinese"}], "rating": 3.5, "coordinates": {"latitude": 40.0886023631923, "longitude": -82.9891861822784}, "transactions": ["delivery", "pickup"], "price": "$$", "location": {"address1": "1070 E Dublin Granville Rd", "address2": "", "address3": "", "city": "Columbus", "zip_code": "43229", "country": "US", "state": "OH", "display_address": ["1070 E Dublin Granville Rd", "Columbus, OH 43229"]}, "phone": "+16149875121", "display_phone": "(614) 987-5121", "distance": 8596.336971466159}, {"id": "5eq56X-e9YbAKmHgUOyXSg", "alias": "hunan-lion-columbus", "name": "Hunan Lion", "image_url": "https://s3-media2.fl.yelpcdn.com/bphoto/u9Q-PhNdsEFPSBR0MiLZGQ/o.jpg", "is_closed": false, "url": "https://www.yelp.com/biz/hunan-lion-columbus?adjust_creative=vyhy616UjsMTA_hrWyg_5w&utm_campaign=yelp_api_v3&utm_medium=api_v3_business_search&utm_source=vyhy616UjsMTA_hrWyg_5w", "review_count": 170, "categories": [{"alias": "chinese", "title": "Chinese"}], "rating": 4.0, "coordinates": {"latitude": 40.0653778, "longitude": -83.0714151}, "transactions": ["delivery"], "price": "$$", "location": {"address1": "2038 Crown Plaza", "address2": null, "address3": null, "city": "Columbus", "zip_code": "43220", "country": "US", "state": "OH", "display_address": ["2038 Crown Plaza", "Columbus, OH 43220"]}, "phone": "+16144593933", "display_phone": "(614) 459-3933", "distance": 8586.484994383289}, {"id": "yMKqogaBleGIbdIY75D2oA", "alias": "chilispot-columbus-2", "name": "Chilispot", "image_url": "https://s3-media2.fl.yelpcdn.com/bphoto/wcN2JM64beMs2k7ry4Co-g/o.jpg", "is_closed": false, "url": "https://www.yelp.com/biz/chilispot-columbus-2?adjust_creative=vyhy616UjsMTA_hrWyg_5w&utm_campaign=yelp_api_v3&utm_medium=api_v3_business_search&utm_source=vyhy616UjsMTA_hrWyg_5w", "review_count": 49, "categories": [{"alias": "szechuan", "title": "Szechuan"}, {"alias": "noodles", "title": "Noodles"}, {"alias": "hotpot", "title": "Hot Pot"}], "rating": 4.5, "coordinates": {"latitude": 40.05049, "longitude": -83.0504667}, "transactions": ["delivery", "pickup"], "location": {"address1": "1178 Kenny Centre Mall", "address2": null, "address3": "", "city": "Columbus", "zip_code": "43220", "country": "US", "state": "OH", "display_address": ["1178 Kenny Centre Mall", "Columbus, OH 43220"]}, "phone": "+16149295565", "display_phone": "(614) 929-5565", "distance": 6209.45928351785}, {"id": "IhWYUSneSZnjWqWJnljI4g", "alias": "chicken-and-tea-columbus", "name": "Chicken & Tea", "image_url": "https://s3-media4.fl.yelpcdn.com/bphoto/kij5tJGavn0z03sP2SmmLQ/o.jpg", "is_closed": false, "url": "https://www.yelp.com/biz/chicken-and-tea-columbus?adjust_creative=vyhy616UjsMTA_hrWyg_5w&utm_campaign=yelp_api_v3&utm_medium=api_v3_business_search&utm_source=vyhy616UjsMTA_hrWyg_5w", "review_count": 11, "categories": [{"alias": "taiwanese", "title": "Taiwanese"}, {"alias": "foodtrucks", "title": "Food Trucks"}], "rating": 5.0, "coordinates": {"latitude": 40.01779, "longitude": -83.0239063}, "transactions": ["delivery", "pickup"], "location": {"address1": "2781 Olentangy River Rd", "address2": null, "address3": "", "city": "Columbus", "zip_code": "43202", "country": "US", "state": "OH", "display_address": ["2781 Olentangy River Rd", "Columbus, OH 43202"]}, "phone": "+16145585889", "display_phone": "(614) 558-5889", "distance": 2231.0613246150865}, {"id": "p6fXUm2l77xr-tF9e3VaqA", "alias": "restaurant-silla-columbus", "name": "Restaurant Silla", "image_url": "https://s3-media2.fl.yelpcdn.com/bphoto/TN-HHbSZeG-mikdmWhz0tA/o.jpg", "is_closed": false, "url": "https://www.yelp.com/biz/restaurant-silla-columbus?adjust_creative=vyhy616UjsMTA_hrWyg_5w&utm_campaign=yelp_api_v3&utm_medium=api_v3_business_search&utm_source=vyhy616UjsMTA_hrWyg_5w", "review_count": 165, "categories": [{"alias": "japanese", "title": "Japanese"}, {"alias": "korean", "title": "Korean"}, {"alias": "sushi", "title": "Sushi Bars"}], "rating": 3.5, "coordinates": {"latitude": 40.0562893124594, "longitude": -83.067690955867}, "transactions": ["delivery", "pickup"], "price": "$$", "location": {"address1": "1802 Henderson Rd", "address2": "", "address3": "", "city": "Columbus", "zip_code": "43220", "country": "US", "state": "OH", "display_address": ["1802 Henderson Rd", "Columbus, OH 43220"]}, "phone": "+16144595990", "display_phone": "(614) 459-5990", "distance": 7672.641932240989}, {"id": "8lS-sVYxXqVbhV8vjitzDg", "alias": "hong-kong-house-columbus-2", "name": "Hong Kong House", "image_url": "https://s3-media3.fl.yelpcdn.com/bphoto/eFYEa461RAcotQ0XK551eg/o.jpg", "is_closed": false, "url": "https://www.yelp.com/biz/hong-kong-house-columbus-2?adjust_creative=vyhy616UjsMTA_hrWyg_5w&utm_campaign=yelp_api_v3&utm_medium=api_v3_business_search&utm_source=vyhy616UjsMTA_hrWyg_5w", "review_count": 142, "categories": [{"alias": "szechuan", "title": "Szechuan"}, {"alias": "dimsum", "title": "Dim Sum"}, {"alias": "seafood", "title": "Seafood"}], "rating": 3.5, "coordinates": {"latitude": 40.0526773421072, "longitude": -83.0676714481983}, "transactions": ["delivery", "pickup"], "price": "$$", "location": {"address1": "1831 W Henderson Rd", "address2": "", "address3": "", "city": "Columbus", "zip_code": "43220", "country": "US", "state": "OH", "display_address": ["1831 W Henderson Rd", "Columbus, OH 43220"]}, "phone": "+16145389288", "display_phone": "(614) 538-9288", "distance": 7417.990355886281}, {"id": "yjho5qRn56fnsgfph6hxrQ", "alias": "bento-go-columbus", "name": "Bento Go", "image_url": "https://s3-media4.fl.yelpcdn.com/bphoto/z7RVWsP1rto8TMdCG6KP3A/o.jpg", "is_closed": false, "url": "https://www.yelp.com/biz/bento-go-columbus?adjust_creative=vyhy616UjsMTA_hrWyg_5w&utm_campaign=yelp_api_v3&utm_medium=api_v3_business_search&utm_source=vyhy616UjsMTA_hrWyg_5w", "review_count": 144, "categories": [{"alias": "asianfusion", "title": "Asian Fusion"}], "rating": 4.0, "coordinates": {"latitude": 40.05867, "longitude": -83.07805}, "transactions": ["delivery"], "price": "$", "location": {"address1": "2226 W Henderson Rd", "address2": "", "address3": "", "city": "Columbus", "zip_code": "43220", "country": "US", "state": "OH", "display_address": ["2226 W Henderson Rd", "Columbus, OH 43220"]}, "phone": "+16144570888", "display_phone": "(614) 457-0888", "distance": 8524.147070069435}, {"id": "RiQWvLN3pdWhBEE1FguYtg", "alias": "asian-kitchen-columbus", "name": "Asian Kitchen", "image_url": "https://s3-media2.fl.yelpcdn.com/bphoto/zdxZyD5a5tQze0hEHMGQmg/o.jpg", "is_closed": false, "url": "https://www.yelp.com/biz/asian-kitchen-columbus?adjust_creative=vyhy616UjsMTA_hrWyg_5w&utm_campaign=yelp_api_v3&utm_medium=api_v3_business_search&utm_source=vyhy616UjsMTA_hrWyg_5w", "review_count": 124, "categories": [{"alias": "chinese", "title": "Chinese"}], "rating": 4.0, "coordinates": {"latitude": 40.030932, "longitude": -82.9084471}, "transactions": ["delivery"], "price": "$", "location": {"address1": "2828 Stelzer Rd", "address2": "", "address3": "", "city": "Columbus", "zip_code": "43219", "country": "US", "state": "OH", "display_address": ["2828 Stelzer Rd", "Columbus, OH 43219"]}, "phone": "+16144718881", "display_phone": "(614) 471-8881", "distance": 8000.156898815606}, {"id": "HNiud2MlrVy17JUsR8U9Kw", "alias": "mala-hotpot-columbus-hilliard", "name": "Mala Hotpot Columbus", "image_url": "https://s3-media4.fl.yelpcdn.com/bphoto/n76ypMKFvb48e1f6D8SE8A/o.jpg", "is_closed": false, "url": "https://www.yelp.com/biz/mala-hotpot-columbus-hilliard?adjust_creative=vyhy616UjsMTA_hrWyg_5w&utm_campaign=yelp_api_v3&utm_medium=api_v3_business_search&utm_source=vyhy616UjsMTA_hrWyg_5w", "review_count": 2, "categories": [{"alias": "hotpot", "title": "Hot Pot"}, {"alias": "chinese", "title": "Chinese"}], "rating": 5.0, "coordinates": {"latitude": 40.03125893192213, "longitude": -83.1219883}, "transactions": ["delivery"], "location": {"address1": "3777 Park Mill Run Dr", "address2": null, "address3": "", "city": "Hilliard", "zip_code": "43026", "country": "US", "state": "OH", "display_address": ["3777 Park Mill Run Dr", "Hilliard, OH 43026"]}, "phone": "+16149713045", "display_phone": "(614) 971-3045", "distance": 10700.422758298211}, {"id": "59QvvLdB6FA-JjCpxATvdQ", "alias": "dumplings-of-fury-hilliard", "name": "Dumplings of Fury", "image_url": "https://s3-media3.fl.yelpcdn.com/bphoto/YhwGwG2MMXRMhT8yssit7Q/o.jpg", "is_closed": false, "url": "https://www.yelp.com/biz/dumplings-of-fury-hilliard?adjust_creative=vyhy616UjsMTA_hrWyg_5w&utm_campaign=yelp_api_v3&utm_medium=api_v3_business_search&utm_source=vyhy616UjsMTA_hrWyg_5w", "review_count": 37, "categories": [{"alias": "chinese", "title": "Chinese"}], "rating": 4.0, "coordinates": {"latitude": 40.0345646027811, "longitude": -83.1599080190063}, "transactions": ["delivery", "pickup"], "location": {"address1": "5354 Center St", "address2": "", "address3": null, "city": "Hilliard", "zip_code": "43026", "country": "US", "state": "OH", "display_address": ["5354 Center St", "Hilliard, OH 43026"]}, "phone": "+16149693015", "display_phone": "(614) 969-3015", "distance": 13939.444364529218}, {"id": "j5OxszXURPk2DR3p47aF1w", "alias": "silk-road-asian-cuisine-westerville-2", "name": "Silk Road Asian Cuisine", "image_url": "https://s3-media3.fl.yelpcdn.com/bphoto/cc5xaAs-JNFXr3a8bcji6w/o.jpg", "is_closed": false, "url": "https://www.yelp.com/biz/silk-road-asian-cuisine-westerville-2?adjust_creative=vyhy616UjsMTA_hrWyg_5w&utm_campaign=yelp_api_v3&utm_medium=api_v3_business_search&utm_source=vyhy616UjsMTA_hrWyg_5w", "review_count": 52, "categories": [{"alias": "chinese", "title": "Chinese"}, {"alias": "thai", "title": "Thai"}], "rating": 4.0, "coordinates": {"latitude": 40.08379, "longitude": -82.89709}, "transactions": ["delivery", "pickup"], "location": {"address1": "5963 S Sunbury Rd", "address2": "", "address3": null, "city": "Westerville", "zip_code": "43081", "country": "US", "state": "OH", "display_address": ["5963 S Sunbury Rd", "Westerville, OH 43081"]}, "phone": "+16147764295", "display_phone": "(614) 776-4295", "distance": 11795.576152471584}, {"id": "AHMA7314bg975Gy1JxZDkg", "alias": "erawan-thai-columbus", "name": "Erawan Thai", "image_url": "https://s3-media2.fl.yelpcdn.com/bphoto/VeLUJZou1Uc_fFKYyDxtig/o.jpg", "is_closed": false, "url": "https://www.yelp.com/biz/erawan-thai-columbus?adjust_creative=vyhy616UjsMTA_hrWyg_5w&utm_campaign=yelp_api_v3&utm_medium=api_v3_business_search&utm_source=vyhy616UjsMTA_hrWyg_5w", "review_count": 170, "categories": [{"alias": "thai", "title": "Thai"}], "rating": 4.0, "coordinates": {"latitude": 39.916240752255, "longitude": -82.9007383553253}, "transactions": ["delivery", "pickup"], "price": "$$", "location": {"address1": "3589 Refugee Rd", "address2": null, "address3": "", "city": "Columbus", "zip_code": "43232", "country": "US", "state": "OH", "display_address": ["3589 Refugee Rd", "Columbus, OH 43232"]}, "phone": "+16142379310", "display_phone": "(614) 237-9310", "distance": 13514.546041237147}, {"id": "LDlJN87epr7BEU7fVyepYg", "alias": "bonsai-upper-arlington", "name": "Bonsai", "image_url": "https://s3-media3.fl.yelpcdn.com/bphoto/LNzoRNo-ar59dP-EI07N-A/o.jpg", "is_closed": false, "url": "https://www.yelp.com/biz/bonsai-upper-arlington?adjust_creative=vyhy616UjsMTA_hrWyg_5w&utm_campaign=yelp_api_v3&utm_medium=api_v3_business_search&utm_source=vyhy616UjsMTA_hrWyg_5w", "review_count": 95, "categories": [{"alias": "japanese", "title": "Japanese"}, {"alias": "korean", "title": "Korean"}, {"alias": "sushi", "title": "Sushi Bars"}], "rating": 4.5, "coordinates": {"latitude": 40.0217742, "longitude": -83.0602216}, "transactions": ["delivery", "pickup"], "price": "$$", "location": {"address1": "3108 Kingsdale Ctr", "address2": "", "address3": null, "city": "Upper Arlington", "zip_code": "43221", "country": "US", "state": "OH", "display_address": ["3108 Kingsdale Ctr", "Upper Arlington, OH 43221"]}, "phone": "+16143899551", "display_phone": "(614) 389-9551", "distance": 5261.262180237857}, {"id": "g0vuYI9x-RdvnUxYiayXyQ", "alias": "asian-taste-new-albany", "name": "Asian Taste", "image_url": "https://s3-media3.fl.yelpcdn.com/bphoto/uqW-X4S5XdBBcbfpw-2Kkg/o.jpg", "is_closed": false, "url": "https://www.yelp.com/biz/asian-taste-new-albany?adjust_creative=vyhy616UjsMTA_hrWyg_5w&utm_campaign=yelp_api_v3&utm_medium=api_v3_business_search&utm_source=vyhy616UjsMTA_hrWyg_5w", "review_count": 94, "categories": [{"alias": "asianfusion", "title": "Asian Fusion"}], "rating": 4.0, "coordinates": {"latitude": 40.0945476693674, "longitude": -82.8260169523999}, "transactions": ["delivery"], "price": "$$", "location": {"address1": "5505 New Albany Rd W", "address2": "", "address3": "", "city": "New Albany", "zip_code": "43054", "country": "US", "state": "OH", "display_address": ["5505 New Albany Rd W", "New Albany, OH 43054"]}, "phone": "+16149338888", "display_phone": "(614) 933-8888", "distance": 17367.614248845857}, {"id": "qvo44UnlBRi_SL-Pv3iCGw", "alias": "h-y-asian-cuisine-columbus", "name": "H.Y. Asian Cuisine", "image_url": "https://s3-media3.fl.yelpcdn.com/bphoto/c20BHgh9NHdSRow7ZAYUtg/o.jpg", "is_closed": false, "url": "https://www.yelp.com/biz/h-y-asian-cuisine-columbus?adjust_creative=vyhy616UjsMTA_hrWyg_5w&utm_campaign=yelp_api_v3&utm_medium=api_v3_business_search&utm_source=vyhy616UjsMTA_hrWyg_5w", "review_count": 90, "categories": [{"alias": "chinese", "title": "Chinese"}, {"alias": "japanese", "title": "Japanese"}, {"alias": "asianfusion", "title": "Asian Fusion"}], "rating": 3.5, "coordinates": {"latitude": 40.0220353738857, "longitude": -83.0256759149484}, "transactions": ["delivery"], "price": "$$", "location": {"address1": "3011 Olentangy River Rd", "address2": "", "address3": null, "city": "Columbus", "zip_code": "43202", "country": "US", "state": "OH", "display_address": ["3011 Olentangy River Rd", "Columbus, OH 43202"]}, "phone": "+16147548754", "display_phone": "(614) 754-8754", "distance": 2550.888536842497}, {"id": "oI3Ee5qwQLmbyr8JVTVKnw", "alias": "asian-gourmet-and-sushi-bar-columbus-3", "name": "Asian Gourmet & Sushi Bar", "image_url": "https://s3-media2.fl.yelpcdn.com/bphoto/Yq0bU525CvTsb0hzFIPLew/o.jpg", "is_closed": false, "url": "https://www.yelp.com/biz/asian-gourmet-and-sushi-bar-columbus-3?adjust_creative=vyhy616UjsMTA_hrWyg_5w&utm_campaign=yelp_api_v3&utm_medium=api_v3_business_search&utm_source=vyhy616UjsMTA_hrWyg_5w", "review_count": 145, "categories": [{"alias": "asianfusion", "title": "Asian Fusion"}, {"alias": "japanese", "title": "Japanese"}, {"alias": "sushi", "title": "Sushi Bars"}], "rating": 4.0, "coordinates": {"latitude": 40.0532075, "longitude": -82.8659797}, "transactions": ["delivery"], "price": "$$", "location": {"address1": "1325 Stoneridge Dr", "address2": "", "address3": "", "city": "Columbus", "zip_code": "43230", "country": "US", "state": "OH", "display_address": ["1325 Stoneridge Dr", "Columbus, OH 43230"]}, "phone": "+16144718871", "display_phone": "(614) 471-8871", "distance": 12129.334913657623}, {"id": "id90kv6SICSGqHPuW5wHDg", "alias": "ninja-grill-columbus", "name": "Ninja Grill", "image_url": "https://s3-media3.fl.yelpcdn.com/bphoto/hVMAQoXqcCLT9R90j-Pw6w/o.jpg", "is_closed": false, "url": "https://www.yelp.com/biz/ninja-grill-columbus?adjust_creative=vyhy616UjsMTA_hrWyg_5w&utm_campaign=yelp_api_v3&utm_medium=api_v3_business_search&utm_source=vyhy616UjsMTA_hrWyg_5w", "review_count": 20, "categories": [{"alias": "japanese", "title": "Japanese"}], "rating": 4.5, "coordinates": {"latitude": 40.00596, "longitude": -83.00884}, "transactions": ["delivery", "pickup"], "location": {"address1": "9 East Lane Ave", "address2": null, "address3": "", "city": "Columbus", "zip_code": "43201", "country": "US", "state": "OH", "display_address": ["9 East Lane Ave", "Columbus, OH 43201"]}, "phone": "+16145020005", "display_phone": "(614) 502-0005", "distance": 1067.3751213584442}, {"id": "zQvb59sORmpGg44AnszBtw", "alias": "jasmine-fusion-grill-columbus-2", "name": "Jasmine Fusion Grill", "image_url": "https://s3-media2.fl.yelpcdn.com/bphoto/VM2q3ouC2fVraw3-OAajuQ/o.jpg", "is_closed": false, "url": "https://www.yelp.com/biz/jasmine-fusion-grill-columbus-2?adjust_creative=vyhy616UjsMTA_hrWyg_5w&utm_campaign=yelp_api_v3&utm_medium=api_v3_business_search&utm_source=vyhy616UjsMTA_hrWyg_5w", "review_count": 7, "categories": [{"alias": "asianfusion", "title": "Asian Fusion"}, {"alias": "indpak", "title": "Indian"}], "rating": 5.0, "coordinates": {"latitude": 39.95066, "longitude": -82.99819}, "transactions": ["delivery", "pickup"], "location": {"address1": "560 S High St", "address2": "Fl 2nd", "address3": null, "city": "Columbus", "zip_code": "43215", "country": "US", "state": "OH", "display_address": ["560 S High St", "Fl 2nd", "Columbus, OH 43215"]}, "phone": "+16143775735", "display_phone": "(614) 377-5735", "distance": 6783.601733446496}, {"id": "hdEhrKtMx_DZx-FZnPWozQ", "alias": "fck-gluten-columbus", "name": "Fck Gluten", "image_url": "https://s3-media1.fl.yelpcdn.com/bphoto/UQoCBPE3-DknOt1E8D-cig/o.jpg", "is_closed": false, "url": "https://www.yelp.com/biz/fck-gluten-columbus?adjust_creative=vyhy616UjsMTA_hrWyg_5w&utm_campaign=yelp_api_v3&utm_medium=api_v3_business_search&utm_source=vyhy616UjsMTA_hrWyg_5w", "review_count": 1, "categories": [{"alias": "fooddeliveryservices", "title": "Food Delivery Services"}, {"alias": "gluten_free", "title": "Gluten-Free"}, {"alias": "asianfusion", "title": "Asian Fusion"}], "rating": 4.0, "coordinates": {"latitude": 39.990177, "longitude": -82.986875}, "transactions": ["delivery", "pickup"], "location": {"address1": "1282 Essex Ave", "address2": null, "address3": null, "city": "Columbus", "zip_code": "43201", "country": "US", "state": "OH", "display_address": ["1282 Essex Ave", "Columbus, OH 43201"]}, "phone": "+16148776038", "display_phone": "(614) 877-6038", "distance": 2591.019134626263}, {"id": "w-cmezQrbE5LvtoVVsX_5g", "alias": "japanese-oriental-restaurant-columbus", "name": "Japanese Oriental Restaurant", "image_url": "https://s3-media2.fl.yelpcdn.com/bphoto/QPTzqXz1V8VnAq-alBRSdQ/o.jpg", "is_closed": false, "url": "https://www.yelp.com/biz/japanese-oriental-restaurant-columbus?adjust_creative=vyhy616UjsMTA_hrWyg_5w&utm_campaign=yelp_api_v3&utm_medium=api_v3_business_search&utm_source=vyhy616UjsMTA_hrWyg_5w", "review_count": 107, "categories": [{"alias": "japanese", "title": "Japanese"}, {"alias": "korean", "title": "Korean"}, {"alias": "chinese", "title": "Chinese"}], "rating": 3.5, "coordinates": {"latitude": 40.00884, "longitude": -83.01005}, "transactions": ["delivery", "pickup"], "price": "$$", "location": {"address1": "2283 N High St", "address2": "", "address3": "", "city": "Columbus", "zip_code": "43201", "country": "US", "state": "OH", "display_address": ["2283 N High St", "Columbus, OH 43201"]}, "phone": "+16148227053", "display_phone": "(614) 822-7053", "distance": 1002.9098796680595}], "total": 377, "region": {"center": {"longitude": -82.99896240234375, "latitude": 40.011656617607905}}}