{"businesses": [{"id": "saYuaer3GhA4zLWgNXq6lw", "alias": "phuong-long-memphis", "name": "Phuong Long", "image_url": "https://s3-media3.fl.yelpcdn.com/bphoto/y7_wsftWabB_4v8hbyl2eQ/o.jpg", "is_closed": false, "url": "https://www.yelp.com/biz/phuong-long-memphis?adjust_creative=vyhy616UjsMTA_hrWyg_5w&utm_campaign=yelp_api_v3&utm_medium=api_v3_business_search&utm_source=vyhy616UjsMTA_hrWyg_5w", "review_count": 128, "categories": [{"alias": "vietnamese", "title": "Vietnamese"}, {"alias": "chinese", "title": "Chinese"}], "rating": 4.0, "coordinates": {"latitude": 35.1471607, "longitude": -90.0145209}, "transactions": ["delivery"], "price": "$$", "location": {"address1": "306 N Cleveland St", "address2": "", "address3": "", "city": "Memphis", "zip_code": "38104", "country": "US", "state": "TN", "display_address": ["306 N Cleveland St", "Memphis, TN 38104"]}, "phone": "+19015523652", "display_phone": "(901) 552-3652", "distance": 2325.0107185880433}, {"id": "X8Ru-q6O5GiZPQatvV02zg", "alias": "pho-binh-memphis", "name": "Pho Binh", "image_url": "https://s3-media2.fl.yelpcdn.com/bphoto/70W8FRJqOe5dY331dKxgPQ/o.jpg", "is_closed": false, "url": "https://www.yelp.com/biz/pho-binh-memphis?adjust_creative=vyhy616UjsMTA_hrWyg_5w&utm_campaign=yelp_api_v3&utm_medium=api_v3_business_search&utm_source=vyhy616UjsMTA_hrWyg_5w", "review_count": 291, "categories": [{"alias": "vegetarian", "title": "Vegetarian"}, {"alias": "vietnamese", "title": "Vietnamese"}, {"alias": "cantonese", "title": "Cantonese"}], "rating": 4.5, "coordinates": {"latitude": 35.1379125, "longitude": -90.0073402}, "transactions": ["delivery"], "price": "$", "location": {"address1": "1615 Madison Ave", "address2": "", "address3": "", "city": "Memphis", "zip_code": "38104", "country": "US", "state": "TN", "display_address": ["1615 Madison Ave", "Memphis, TN 38104"]}, "phone": "+19012760006", "display_phone": "(901) 276-0006", "distance": 2198.248919190485}, {"id": "0JSehHtftoXpdJf2qQNHOQ", "alias": "fam-memphis", "name": "Fam", "image_url": "https://s3-media3.fl.yelpcdn.com/bphoto/mbik_YDQap70TU-Dd1vAWw/o.jpg", "is_closed": false, "url": "https://www.yelp.com/biz/fam-memphis?adjust_creative=vyhy616UjsMTA_hrWyg_5w&utm_campaign=yelp_api_v3&utm_medium=api_v3_business_search&utm_source=vyhy616UjsMTA_hrWyg_5w", "review_count": 54, "categories": [{"alias": "sushi", "title": "Sushi Bars"}, {"alias": "asianfusion", "title": "Asian Fusion"}, {"alias": "japanese", "title": "Japanese"}], "rating": 4.5, "coordinates": {"latitude": 35.14457, "longitude": -90.05121}, "transactions": ["delivery", "pickup"], "location": {"address1": "149 Madison Ave", "address2": "", "address3": null, "city": "Memphis", "zip_code": "38103", "country": "US", "state": "TN", "display_address": ["149 Madison Ave", "Memphis, TN 38103"]}, "phone": "+19017016666", "display_phone": "(901) 701-6666", "distance": 2433.619710537422}, {"id": "ik0DPOCTbbuN-z85vWb1hg", "alias": "bhan-thai-memphis", "name": "Bhan Thai", "image_url": "https://s3-media4.fl.yelpcdn.com/bphoto/pErz1PCgfC52orDSyvTUcg/o.jpg", "is_closed": false, "url": "https://www.yelp.com/biz/bhan-thai-memphis?adjust_creative=vyhy616UjsMTA_hrWyg_5w&utm_campaign=yelp_api_v3&utm_medium=api_v3_business_search&utm_source=vyhy616UjsMTA_hrWyg_5w", "review_count": 153, "categories": [{"alias": "thai", "title": "Thai"}], "rating": 4.0, "coordinates": {"latitude": 35.1329308, "longitude": -90.0174103}, "transactions": ["delivery", "pickup"], "price": "$$", "location": {"address1": "1324 Peabody Ave", "address2": "", "address3": "", "city": "Memphis", "zip_code": "38104", "country": "US", "state": "TN", "display_address": ["1324 Peabody Ave", "Memphis, TN 38104"]}, "phone": "+19012721538", "display_phone": "(901) 272-1538", "distance": 1184.4075821777053}, {"id": "Zzls9Bdub5Zc42S9wREkTA", "alias": "takashi-bistro-memphis", "name": "Takashi Bistro", "image_url": "https://s3-media2.fl.yelpcdn.com/bphoto/i6or5SJ9OgLDC-4S1egJ2g/o.jpg", "is_closed": false, "url": "https://www.yelp.com/biz/takashi-bistro-memphis?adjust_creative=vyhy616UjsMTA_hrWyg_5w&utm_campaign=yelp_api_v3&utm_medium=api_v3_business_search&utm_source=vyhy616UjsMTA_hrWyg_5w", "review_count": 41, "categories": [{"alias": "japanese", "title": "Japanese"}, {"alias": "thai", "title": "Thai"}, {"alias": "sushi", "title": "Sushi Bars"}], "rating": 4.0, "coordinates": {"latitude": 35.13625, "longitude": -90.00581}, "transactions": ["restaurant_reservation", "delivery", "pickup"], "price": "$$", "location": {"address1": "1680 Union Ave", "address2": "Ste 109", "address3": null, "city": "Memphis", "zip_code": "38104", "country": "US", "state": "TN", "display_address": ["1680 Union Ave", "Ste 109", "Memphis, TN 38104"]}, "phone": "+19018002936", "display_phone": "(901) 800-2936", "distance": 2289.3360030439535}, {"id": "EHRzsTZOCF0AfJfV174ATw", "alias": "mulan-asian-bistro-memphis", "name": "Mulan Asian Bistro", "image_url": "https://s3-media2.fl.yelpcdn.com/bphoto/QRK6_aJ-Ry7vXkHFyeSeDw/o.jpg", "is_closed": false, "url": "https://www.yelp.com/biz/mulan-asian-bistro-memphis?adjust_creative=vyhy616UjsMTA_hrWyg_5w&utm_campaign=yelp_api_v3&utm_medium=api_v3_business_search&utm_source=vyhy616UjsMTA_hrWyg_5w", "review_count": 248, "categories": [{"alias": "sushi", "title": "Sushi Bars"}, {"alias": "asianfusion", "title": "Asian Fusion"}, {"alias": "szechuan", "title": "Szechuan"}], "rating": 3.5, "coordinates": {"latitude": 35.1195615154836, "longitude": -89.9906801966445}, "transactions": ["delivery", "pickup"], "price": "$$", "location": {"address1": "2149 Young Ave", "address2": "", "address3": "", "city": "Memphis", "zip_code": "38104", "country": "US", "state": "TN", "display_address": ["2149 Young Ave", "Memphis, TN 38104"]}, "phone": "+19013473965", "display_phone": "(901) 347-3965", "distance": 3800.9483331088536}, {"id": "ZygJGvLVXenhQl66btB1cw", "alias": "the-crazy-noodle-memphis", "name": "The Crazy Noodle", "image_url": "https://s3-media2.fl.yelpcdn.com/bphoto/X4fJYrUFO1rcd-DNIfd7Wg/o.jpg", "is_closed": false, "url": "https://www.yelp.com/biz/the-crazy-noodle-memphis?adjust_creative=vyhy616UjsMTA_hrWyg_5w&utm_campaign=yelp_api_v3&utm_medium=api_v3_business_search&utm_source=vyhy616UjsMTA_hrWyg_5w", "review_count": 218, "categories": [{"alias": "korean", "title": "Korean"}, {"alias": "noodles", "title": "Noodles"}], "rating": 3.5, "coordinates": {"latitude": 35.1368522644043, "longitude": -89.9943084716797}, "transactions": ["delivery"], "price": "$$", "location": {"address1": "2015 Madison", "address2": "", "address3": "", "city": "Memphis", "zip_code": "38104", "country": "US", "state": "TN", "display_address": ["2015 Madison", "Memphis, TN 38104"]}, "phone": "+19012720928", "display_phone": "(901) 272-0928", "distance": 3324.8858147120363}, {"id": "JmnRQjNx0_yg0uuq5LcTQg", "alias": "vietnam-restaurant-memphis", "name": "Vietnam Restaurant", "image_url": "https://s3-media2.fl.yelpcdn.com/bphoto/TNE-S6hsZGgpv0jUygruhQ/o.jpg", "is_closed": false, "url": "https://www.yelp.com/biz/vietnam-restaurant-memphis?adjust_creative=vyhy616UjsMTA_hrWyg_5w&utm_campaign=yelp_api_v3&utm_medium=api_v3_business_search&utm_source=vyhy616UjsMTA_hrWyg_5w", "review_count": 83, "categories": [{"alias": "vietnamese", "title": "Vietnamese"}], "rating": 4.0, "coordinates": {"latitude": 35.1407997588325, "longitude": -90.0158097901231}, "transactions": ["delivery"], "price": "$", "location": {"address1": "74 N Cleveland St", "address2": "", "address3": "", "city": "Memphis", "zip_code": "38104", "country": "US", "state": "TN", "display_address": ["74 N Cleveland St", "Memphis, TN 38104"]}, "phone": "+19012495349", "display_phone": "(901) 249-5349", "distance": 1706.1220265999661}, {"id": "e6pgw9oO0YpCurlSSkWJ1Q", "alias": "pho-house-memphis", "name": "Pho House", "image_url": "https://s3-media2.fl.yelpcdn.com/bphoto/DY-2SlcfMCYwdZLLEUx0LA/o.jpg", "is_closed": false, "url": "https://www.yelp.com/biz/pho-house-memphis?adjust_creative=vyhy616UjsMTA_hrWyg_5w&utm_campaign=yelp_api_v3&utm_medium=api_v3_business_search&utm_source=vyhy616UjsMTA_hrWyg_5w", "review_count": 13, "categories": [{"alias": "vietnamese", "title": "Vietnamese"}], "rating": 4.0, "coordinates": {"latitude": 35.14214, "longitude": -90.01818}, "transactions": [], "location": {"address1": "1278 Jefferson Ave", "address2": "", "address3": null, "city": "Memphis", "zip_code": "38104", "country": "US", "state": "TN", "display_address": ["1278 Jefferson Ave", "Memphis, TN 38104"]}, "phone": "+19013215425", "display_phone": "(901) 321-5425", "distance": 1655.5474431084833}, {"id": "eJdgQe5IfkfmLrG4KS29QQ", "alias": "kwik-chek-memphis-2", "name": "Kwik Chek", "image_url": "https://s3-media1.fl.yelpcdn.com/bphoto/if4EjwzBQB7lZ2766o34Iw/o.jpg", "is_closed": false, "url": "https://www.yelp.com/biz/kwik-chek-memphis-2?adjust_creative=vyhy616UjsMTA_hrWyg_5w&utm_campaign=yelp_api_v3&utm_medium=api_v3_business_search&utm_source=vyhy616UjsMTA_hrWyg_5w", "review_count": 240, "categories": [{"alias": "mediterranean", "title": "Mediterranean"}, {"alias": "korean", "title": "Korean"}, {"alias": "sandwiches", "title": "Sandwiches"}], "rating": 4.0, "coordinates": {"latitude": 35.1369433, "longitude": -89.9942878}, "transactions": ["delivery", "pickup"], "price": "$", "location": {"address1": "2013 Madison Ave", "address2": "", "address3": "", "city": "Memphis", "zip_code": "38104", "country": "US", "state": "TN", "display_address": ["2013 Madison Ave", "Memphis, TN 38104"]}, "phone": "+19012749293", "display_phone": "(901) 274-9293", "distance": 3326.641092778195}, {"id": "nbGrDfvwoE5ZqeunyfxkWw", "alias": "lotus-vietnamese-restaurant-memphis", "name": "Lotus Vietnamese Restaurant", "image_url": "https://s3-media3.fl.yelpcdn.com/bphoto/WU0utmXnZWH8y8CSx5tkgQ/o.jpg", "is_closed": false, "url": "https://www.yelp.com/biz/lotus-vietnamese-restaurant-memphis?adjust_creative=vyhy616UjsMTA_hrWyg_5w&utm_campaign=yelp_api_v3&utm_medium=api_v3_business_search&utm_source=vyhy616UjsMTA_hrWyg_5w", "review_count": 72, "categories": [{"alias": "vietnamese", "title": "Vietnamese"}], "rating": 4.5, "coordinates": {"latitude": 35.1494522094727, "longitude": -89.8952789306641}, "transactions": ["delivery"], "price": "$$", "location": {"address1": "4970 Summer Ave", "address2": "", "address3": "", "city": "Memphis", "zip_code": "38122", "country": "US", "state": "TN", "display_address": ["4970 Summer Ave", "Memphis, TN 38122"]}, "phone": "+19016821151", "display_phone": "(901) 682-1151", "distance": 12435.051542820549}, {"id": "xaFb7mMaZVQ0kFZrby1Xcg", "alias": "urban-fusion-and-asian-bistro-germantown", "name": "Urban Fusion & Asian Bistro", "image_url": "https://s3-media1.fl.yelpcdn.com/bphoto/CFUZ4JGa-d5WSm8OKEMnyA/o.jpg", "is_closed": false, "url": "https://www.yelp.com/biz/urban-fusion-and-asian-bistro-germantown?adjust_creative=vyhy616UjsMTA_hrWyg_5w&utm_campaign=yelp_api_v3&utm_medium=api_v3_business_search&utm_source=vyhy616UjsMTA_hrWyg_5w", "review_count": 185, "categories": [{"alias": "japanese", "title": "Japanese"}, {"alias": "sushi", "title": "Sushi Bars"}, {"alias": "asianfusion", "title": "Asian Fusion"}], "rating": 4.5, "coordinates": {"latitude": 35.093869, "longitude": -89.8036270141602}, "transactions": ["delivery"], "price": "$$", "location": {"address1": "2015 Exeter Rd", "address2": "", "address3": null, "city": "Germantown", "zip_code": "38138", "country": "US", "state": "TN", "display_address": ["2015 Exeter Rd", "Germantown, TN 38138"]}, "phone": "+19013092191", "display_phone": "(901) 309-2191", "distance": 21018.98174540607}, {"id": "8Abm0onwW0w_EjIAVf4Pvg", "alias": "mulan-asian-bistro-east-memphis-3", "name": "Mulan Asian Bistro East", "image_url": "https://s3-media1.fl.yelpcdn.com/bphoto/KhgzBW1Nj5shHmTaxJnwbg/o.jpg", "is_closed": false, "url": "https://www.yelp.com/biz/mulan-asian-bistro-east-memphis-3?adjust_creative=vyhy616UjsMTA_hrWyg_5w&utm_campaign=yelp_api_v3&utm_medium=api_v3_business_search&utm_source=vyhy616UjsMTA_hrWyg_5w", "review_count": 64, "categories": [{"alias": "asianfusion", "title": "Asian Fusion"}, {"alias": "chinese", "title": "Chinese"}, {"alias": "sushi", "title": "Sushi Bars"}], "rating": 3.0, "coordinates": {"latitude": 35.1115918, "longitude": -89.9055469}, "transactions": ["delivery", "pickup"], "price": "$$", "location": {"address1": "4698 Spottswood Ave", "address2": null, "address3": "", "city": "Memphis", "zip_code": "38117", "country": "US", "state": "TN", "display_address": ["4698 Spottswood Ave", "Memphis, TN 38117"]}, "phone": "+19016098680", "display_phone": "(901) 609-8680", "distance": 11577.338407268302}, {"id": "WhdS3LnmcNKo8DcTRWfIjQ", "alias": "mosa-asian-bistro-memphis", "name": "Mosa Asian Bistro", "image_url": "https://s3-media2.fl.yelpcdn.com/bphoto/z3mZ2UtgW3eVeKZ3Op3rZg/o.jpg", "is_closed": false, "url": "https://www.yelp.com/biz/mosa-asian-bistro-memphis?adjust_creative=vyhy616UjsMTA_hrWyg_5w&utm_campaign=yelp_api_v3&utm_medium=api_v3_business_search&utm_source=vyhy616UjsMTA_hrWyg_5w", "review_count": 184, "categories": [{"alias": "asianfusion", "title": "Asian Fusion"}, {"alias": "thai", "title": "Thai"}, {"alias": "chinese", "title": "Chinese"}], "rating": 4.0, "coordinates": {"latitude": 35.1078909942364, "longitude": -89.8880606969829}, "transactions": ["delivery"], "price": "$$", "location": {"address1": "850 S White Station", "address2": "", "address3": "", "city": "Memphis", "zip_code": "38117", "country": "US", "state": "TN", "display_address": ["850 S White Station", "Memphis, TN 38117"]}, "phone": "+19016838889", "display_phone": "(901) 683-8889", "distance": 13181.172975612013}, {"id": "01a8ZjnALnJ8NzW33ccOzw", "alias": "ph\u00f3-s\u00f3-8-memphis", "name": "Ph\u00f3 S\u00f3 8", "image_url": "https://s3-media2.fl.yelpcdn.com/bphoto/QGnNmUQSAqTAJupNYqLcZQ/o.jpg", "is_closed": false, "url": "https://www.yelp.com/biz/ph%C3%B3-s%C3%B3-8-memphis?adjust_creative=vyhy616UjsMTA_hrWyg_5w&utm_campaign=yelp_api_v3&utm_medium=api_v3_business_search&utm_source=vyhy616UjsMTA_hrWyg_5w", "review_count": 66, "categories": [{"alias": "vietnamese", "title": "Vietnamese"}, {"alias": "chinese", "title": "Chinese"}], "rating": 4.0, "coordinates": {"latitude": 35.0508389020952, "longitude": -89.8572777029912}, "transactions": ["delivery"], "price": "$", "location": {"address1": "3588 Ridgeway Rd", "address2": "", "address3": "", "city": "Memphis", "zip_code": "38115", "country": "US", "state": "TN", "display_address": ["3588 Ridgeway Rd", "Memphis, TN 38115"]}, "phone": "+19013667827", "display_phone": "(901) 366-7827", "distance": 18081.822544686467}, {"id": "JBuVR8F37WKfKkGIJXMH-A", "alias": "robata-ramen-and-yakitori-bar-memphis", "name": "Robata Ramen and Yakitori Bar", "image_url": "https://s3-media1.fl.yelpcdn.com/bphoto/wGAdEzFQTdNwuLIack1t3Q/o.jpg", "is_closed": false, "url": "https://www.yelp.com/biz/robata-ramen-and-yakitori-bar-memphis?adjust_creative=vyhy616UjsMTA_hrWyg_5w&utm_campaign=yelp_api_v3&utm_medium=api_v3_business_search&utm_source=vyhy616UjsMTA_hrWyg_5w", "review_count": 230, "categories": [{"alias": "ramen", "title": "Ramen"}], "rating": 3.0, "coordinates": {"latitude": 35.1367035, "longitude": -89.9906104}, "transactions": ["delivery"], "price": "$$", "location": {"address1": "2116 Madison Ave", "address2": "", "address3": "", "city": "Memphis", "zip_code": "38104", "country": "US", "state": "TN", "display_address": ["2116 Madison Ave", "Memphis, TN 38104"]}, "phone": "+19014108290", "display_phone": "(901) 410-8290", "distance": 3657.3237073425985}, {"id": "YT50HvPFX_owMTLkKvdp4Q", "alias": "fam-memphis-2", "name": "fam", "image_url": "https://s3-media3.fl.yelpcdn.com/bphoto/o3-A69IRVGDwJEE9LSEYZg/o.jpg", "is_closed": false, "url": "https://www.yelp.com/biz/fam-memphis-2?adjust_creative=vyhy616UjsMTA_hrWyg_5w&utm_campaign=yelp_api_v3&utm_medium=api_v3_business_search&utm_source=vyhy616UjsMTA_hrWyg_5w", "review_count": 15, "categories": [{"alias": "asianfusion", "title": "Asian Fusion"}, {"alias": "sushi", "title": "Sushi Bars"}, {"alias": "japanese", "title": "Japanese"}], "rating": 4.5, "coordinates": {"latitude": 35.11739, "longitude": -89.94612}, "transactions": ["delivery", "pickup"], "location": {"address1": "521 S Highland St", "address2": "Ste 101", "address3": "", "city": "Memphis", "zip_code": "38111", "country": "US", "state": "TN", "display_address": ["521 S Highland St", "Ste 101", "Memphis, TN 38111"]}, "phone": "+19012492636", "display_phone": "(901) 249-2636", "distance": 7796.989017849245}, {"id": "FhMSYBMVHW3v1NP8g_LoWg", "alias": "asian-palace-memphis", "name": "Asian Palace", "image_url": "https://s3-media3.fl.yelpcdn.com/bphoto/x8wRYwQVlgnP2hMEMINpGA/o.jpg", "is_closed": false, "url": "https://www.yelp.com/biz/asian-palace-memphis?adjust_creative=vyhy616UjsMTA_hrWyg_5w&utm_campaign=yelp_api_v3&utm_medium=api_v3_business_search&utm_source=vyhy616UjsMTA_hrWyg_5w", "review_count": 115, "categories": [{"alias": "chinese", "title": "Chinese"}, {"alias": "seafood", "title": "Seafood"}], "rating": 3.0, "coordinates": {"latitude": 35.1570410606596, "longitude": -89.886499239534}, "transactions": ["delivery"], "price": "$$", "location": {"address1": "5266 Summer Ave", "address2": "Ste 65", "address3": "", "city": "Memphis", "zip_code": "38122", "country": "US", "state": "TN", "display_address": ["5266 Summer Ave", "Ste 65", "Memphis, TN 38122"]}, "phone": "+19017660831", "display_phone": "(901) 766-0831", "distance": 13384.895244420994}, {"id": "WxDWsNoETSGy02z7Ah_14A", "alias": "dwj-2-memphis", "name": "DWJ 2", "image_url": "https://s3-media4.fl.yelpcdn.com/bphoto/Omq5tSo3t8-NpBSL3daQBw/o.jpg", "is_closed": false, "url": "https://www.yelp.com/biz/dwj-2-memphis?adjust_creative=vyhy616UjsMTA_hrWyg_5w&utm_campaign=yelp_api_v3&utm_medium=api_v3_business_search&utm_source=vyhy616UjsMTA_hrWyg_5w", "review_count": 65, "categories": [{"alias": "korean", "title": "Korean"}, {"alias": "bbq", "title": "Barbeque"}], "rating": 4.0, "coordinates": {"latitude": 35.1197015202399, "longitude": -89.9902250245213}, "transactions": ["delivery", "pickup"], "price": "$$", "location": {"address1": "2156 Young Ave", "address2": "", "address3": null, "city": "Memphis", "zip_code": "38104", "country": "US", "state": "TN", "display_address": ["2156 Young Ave", "Memphis, TN 38104"]}, "phone": "+19012076204", "display_phone": "(901) 207-6204", "distance": 3846.3530147290076}, {"id": "udrqmUHi136h0ST6EL0Rjw", "alias": "asian-eatery-germantown", "name": "Asian Eatery", "image_url": "https://s3-media1.fl.yelpcdn.com/bphoto/U_588uRVsnn_vKmCwMqQ9Q/o.jpg", "is_closed": false, "url": "https://www.yelp.com/biz/asian-eatery-germantown?adjust_creative=vyhy616UjsMTA_hrWyg_5w&utm_campaign=yelp_api_v3&utm_medium=api_v3_business_search&utm_source=vyhy616UjsMTA_hrWyg_5w", "review_count": 92, "categories": [{"alias": "asianfusion", "title": "Asian Fusion"}], "rating": 4.0, "coordinates": {"latitude": 35.092519, "longitude": -89.810937}, "transactions": ["delivery", "pickup"], "price": "$$", "location": {"address1": "2072 W St", "address2": "", "address3": "", "city": "Germantown", "zip_code": "38138", "country": "US", "state": "TN", "display_address": ["2072 W St", "Germantown, TN 38138"]}, "phone": "+19017373988", "display_phone": "(901) 737-3988", "distance": 20398.50703314429}, {"id": "Cc7YeCgFtV9ImvYqSVi00g", "alias": "green-bamboo-noodle-house-cordova", "name": "Green Bamboo Noodle House", "image_url": "https://s3-media2.fl.yelpcdn.com/bphoto/lvY4ooDj6LzHfRTqxdVYUQ/o.jpg", "is_closed": false, "url": "https://www.yelp.com/biz/green-bamboo-noodle-house-cordova?adjust_creative=vyhy616UjsMTA_hrWyg_5w&utm_campaign=yelp_api_v3&utm_medium=api_v3_business_search&utm_source=vyhy616UjsMTA_hrWyg_5w", "review_count": 179, "categories": [{"alias": "vietnamese", "title": "Vietnamese"}, {"alias": "noodles", "title": "Noodles"}], "rating": 4.5, "coordinates": {"latitude": 35.1520900078371, "longitude": -89.7946435459286}, "transactions": ["delivery"], "price": "$$", "location": {"address1": "990 N Germantown Pkwy", "address2": "", "address3": "", "city": "Cordova", "zip_code": "38018", "country": "US", "state": "TN", "display_address": ["990 N Germantown Pkwy", "Cordova, TN 38018"]}, "phone": "+19017535488", "display_phone": "(901) 753-5488", "distance": 21548.112287480977}, {"id": "CsJZPWZQ3RTxTT_q0q_QYA", "alias": "new-asia-restaurant-germantown", "name": "New Asia Restaurant", "image_url": "https://s3-media1.fl.yelpcdn.com/bphoto/oCQFx0IhOhyl12W_oR0xVA/o.jpg", "is_closed": false, "url": "https://www.yelp.com/biz/new-asia-restaurant-germantown?adjust_creative=vyhy616UjsMTA_hrWyg_5w&utm_campaign=yelp_api_v3&utm_medium=api_v3_business_search&utm_source=vyhy616UjsMTA_hrWyg_5w", "review_count": 92, "categories": [{"alias": "chinese", "title": "Chinese"}], "rating": 3.5, "coordinates": {"latitude": 35.092067, "longitude": -89.804039}, "transactions": ["delivery"], "price": "$$", "location": {"address1": "2075 Exeter Rd", "address2": "Ste 90", "address3": "", "city": "Germantown", "zip_code": "38138", "country": "US", "state": "TN", "display_address": ["2075 Exeter Rd", "Ste 90", "Germantown, TN 38138"]}, "phone": "+19017518889", "display_phone": "(901) 751-8889", "distance": 21022.770689927107}, {"id": "ZpCinbWKdztwZJcpwGXOWg", "alias": "kohesian-germantown-2", "name": "Kohesian", "image_url": "https://s3-media4.fl.yelpcdn.com/bphoto/pcvioBhA8tNcL_073IwjNw/o.jpg", "is_closed": false, "url": "https://www.yelp.com/biz/kohesian-germantown-2?adjust_creative=vyhy616UjsMTA_hrWyg_5w&utm_campaign=yelp_api_v3&utm_medium=api_v3_business_search&utm_source=vyhy616UjsMTA_hrWyg_5w", "review_count": 68, "categories": [{"alias": "korean", "title": "Korean"}, {"alias": "asianfusion", "title": "Asian Fusion"}], "rating": 4.0, "coordinates": {"latitude": 35.1019286, "longitude": -89.8048771}, "transactions": [], "price": "$$", "location": {"address1": "1730 S Germantown Rd", "address2": "Ste 115", "address3": null, "city": "Germantown", "zip_code": "38138", "country": "US", "state": "TN", "display_address": ["1730 S Germantown Rd", "Ste 115", "Germantown, TN 38138"]}, "phone": "+19013080223", "display_phone": "(901) 308-0223", "distance": 20772.684386289206}, {"id": "39faN48_Cgs3bplVeHKTpQ", "alias": "red-koi-japanese-cuisine-memphis", "name": "Red Koi Japanese Cuisine", "image_url": "https://s3-media3.fl.yelpcdn.com/bphoto/Cmb54n5bovDlXPZuA5bVaQ/o.jpg", "is_closed": false, "url": "https://www.yelp.com/biz/red-koi-japanese-cuisine-memphis?adjust_creative=vyhy616UjsMTA_hrWyg_5w&utm_campaign=yelp_api_v3&utm_medium=api_v3_business_search&utm_source=vyhy616UjsMTA_hrWyg_5w", "review_count": 237, "categories": [{"alias": "japanese", "title": "Japanese"}, {"alias": "sushi", "title": "Sushi Bars"}], "rating": 4.0, "coordinates": {"latitude": 35.100636884303, "longitude": -89.8671947792172}, "transactions": ["delivery"], "price": "$$", "location": {"address1": "5847 Poplar Ave", "address2": "Ste 101", "address3": "", "city": "Memphis", "zip_code": "38119", "country": "US", "state": "TN", "display_address": ["5847 Poplar Ave", "Ste 101", "Memphis, TN 38119"]}, "phone": "+19017673456", "display_phone": "(901) 767-3456", "distance": 15206.183156188963}, {"id": "DchGnQriZHYffXlfTA8c-A", "alias": "panda-garden-memphis", "name": "Panda Garden", "image_url": "https://s3-media3.fl.yelpcdn.com/bphoto/1X8jJIrp__GnlUrufJ_Jmw/o.jpg", "is_closed": false, "url": "https://www.yelp.com/biz/panda-garden-memphis?adjust_creative=vyhy616UjsMTA_hrWyg_5w&utm_campaign=yelp_api_v3&utm_medium=api_v3_business_search&utm_source=vyhy616UjsMTA_hrWyg_5w", "review_count": 76, "categories": [{"alias": "chinese", "title": "Chinese"}], "rating": 4.0, "coordinates": {"latitude": 35.1489199, "longitude": -89.93644}, "transactions": ["delivery"], "price": "$", "location": {"address1": "3735 Summer Ave", "address2": null, "address3": null, "city": "Memphis", "zip_code": "38122", "country": "US", "state": "TN", "display_address": ["3735 Summer Ave", "Memphis, TN 38122"]}, "phone": "+19013234819", "display_phone": "(901) 323-4819", "distance": 8758.881794510427}, {"id": "M-4YAREWkDwNhPVdyWWg3g", "alias": "goodies-memphis-2", "name": "Goodie's", "image_url": "https://s3-media2.fl.yelpcdn.com/bphoto/XdKb7iCMCC2XuZUhXm-P9g/o.jpg", "is_closed": false, "url": "https://www.yelp.com/biz/goodies-memphis-2?adjust_creative=vyhy616UjsMTA_hrWyg_5w&utm_campaign=yelp_api_v3&utm_medium=api_v3_business_search&utm_source=vyhy616UjsMTA_hrWyg_5w", "review_count": 18, "categories": [{"alias": "chinese", "title": "Chinese"}, {"alias": "diners", "title": "Diners"}, {"alias": "chicken_wings", "title": "Chicken Wings"}], "rating": 4.0, "coordinates": {"latitude": 35.1335907, "longitude": -89.9629211}, "transactions": ["delivery"], "price": "$", "location": {"address1": "2962 Poplar Ave", "address2": "", "address3": "", "city": "Memphis", "zip_code": "38111", "country": "US", "state": "TN", "display_address": ["2962 Poplar Ave", "Memphis, TN 38111"]}, "phone": "+19013257979", "display_phone": "(901) 325-7979", "distance": 6115.461680708539}, {"id": "K_KiN4a8VFMnXiLS9i4GsA", "alias": "zen-japanese-fine-cuisine-germantown", "name": "Zen Japanese Fine Cuisine", "image_url": "https://s3-media2.fl.yelpcdn.com/bphoto/_i7a9HdYMbBh7B2rl9sP8g/o.jpg", "is_closed": false, "url": "https://www.yelp.com/biz/zen-japanese-fine-cuisine-germantown?adjust_creative=vyhy616UjsMTA_hrWyg_5w&utm_campaign=yelp_api_v3&utm_medium=api_v3_business_search&utm_source=vyhy616UjsMTA_hrWyg_5w", "review_count": 21, "categories": [{"alias": "japanese", "title": "Japanese"}, {"alias": "sushi", "title": "Sushi Bars"}, {"alias": "asianfusion", "title": "Asian Fusion"}], "rating": 4.5, "coordinates": {"latitude": 35.101877551516985, "longitude": -89.80461549013853}, "transactions": [], "location": {"address1": "1730 S Germantown Rd", "address2": "Ste 125", "address3": null, "city": "Germantown", "zip_code": "38138", "country": "US", "state": "TN", "display_address": ["1730 S Germantown Rd", "Ste 125", "Germantown, TN 38138"]}, "phone": "+19017792796", "display_phone": "(901) 779-2796", "distance": 20772.682630061317}, {"id": "3GnkopIWZtku2YBSdwvjZg", "alias": "east-meets-west-germantown", "name": "East Meets West", "image_url": "https://s3-media3.fl.yelpcdn.com/bphoto/qDCMvyuVgBoWBFHNwxubQw/o.jpg", "is_closed": false, "url": "https://www.yelp.com/biz/east-meets-west-germantown?adjust_creative=vyhy616UjsMTA_hrWyg_5w&utm_campaign=yelp_api_v3&utm_medium=api_v3_business_search&utm_source=vyhy616UjsMTA_hrWyg_5w", "review_count": 55, "categories": [{"alias": "japanese", "title": "Japanese"}, {"alias": "thai", "title": "Thai"}, {"alias": "chinese", "title": "Chinese"}], "rating": 4.5, "coordinates": {"latitude": 35.09508, "longitude": -89.80045}, "transactions": ["delivery"], "price": "$$", "location": {"address1": "7867 Farmington Blvd", "address2": "", "address3": null, "city": "Germantown", "zip_code": "38138", "country": "US", "state": "TN", "display_address": ["7867 Farmington Blvd", "Germantown, TN 38138"]}, "phone": "+19015098188", "display_phone": "(901) 509-8188", "distance": 21259.658570293563}, {"id": "iMiGQ2HXpD-8DXW1qIcZmg", "alias": "dwj-korean-restaurant-memphis", "name": "DWJ Korean Restaurant", "image_url": "https://s3-media4.fl.yelpcdn.com/bphoto/iCIlCqbEPR50eqUyRZXjMg/o.jpg", "is_closed": false, "url": "https://www.yelp.com/biz/dwj-korean-restaurant-memphis?adjust_creative=vyhy616UjsMTA_hrWyg_5w&utm_campaign=yelp_api_v3&utm_medium=api_v3_business_search&utm_source=vyhy616UjsMTA_hrWyg_5w", "review_count": 65, "categories": [{"alias": "korean", "title": "Korean"}], "rating": 3.0, "coordinates": {"latitude": 35.046396, "longitude": -89.794713}, "transactions": ["delivery", "pickup"], "price": "$$", "location": {"address1": "3750 Hacks Cross Rd", "address2": "", "address3": "", "city": "Memphis", "zip_code": "38125", "country": "US", "state": "TN", "display_address": ["3750 Hacks Cross Rd", "Memphis, TN 38125"]}, "phone": "+19017468057", "display_phone": "(901) 746-8057", "distance": 23399.994710277315}, {"id": "l2GhS7rDCnj1A-d-WQF5Ng", "alias": "pho-and-sushi-bistro-memphis", "name": "Pho and Sushi Bistro", "image_url": "https://s3-media3.fl.yelpcdn.com/bphoto/swV1iThfyTwXfqEaBpgUdA/o.jpg", "is_closed": false, "url": "https://www.yelp.com/biz/pho-and-sushi-bistro-memphis?adjust_creative=vyhy616UjsMTA_hrWyg_5w&utm_campaign=yelp_api_v3&utm_medium=api_v3_business_search&utm_source=vyhy616UjsMTA_hrWyg_5w", "review_count": 32, "categories": [{"alias": "vietnamese", "title": "Vietnamese"}, {"alias": "japanese", "title": "Japanese"}], "rating": 4.5, "coordinates": {"latitude": 35.09562, "longitude": -89.86007}, "transactions": [], "price": "$$", "location": {"address1": "1315 Ridgeway Rd", "address2": "ste 104", "address3": null, "city": "Memphis", "zip_code": "38119", "country": "US", "state": "TN", "display_address": ["1315 Ridgeway Rd", "ste 104", "Memphis, TN 38119"]}, "phone": "+19017469537", "display_phone": "(901) 746-9537", "distance": 16027.694855067934}, {"id": "6w4RB3RuWaphtd2I4hYmCg", "alias": "fulin-chinese-restaurant-cordova", "name": "Fulin Chinese Restaurant", "image_url": "https://s3-media1.fl.yelpcdn.com/bphoto/Vmi-6yd3vAeFCurE9_6_VA/o.jpg", "is_closed": false, "url": "https://www.yelp.com/biz/fulin-chinese-restaurant-cordova?adjust_creative=vyhy616UjsMTA_hrWyg_5w&utm_campaign=yelp_api_v3&utm_medium=api_v3_business_search&utm_source=vyhy616UjsMTA_hrWyg_5w", "review_count": 84, "categories": [{"alias": "chinese", "title": "Chinese"}], "rating": 4.0, "coordinates": {"latitude": 35.1621752163324, "longitude": -89.7959619654001}, "transactions": ["delivery"], "price": "$", "location": {"address1": "1351 N Germantown Pkwy", "address2": "", "address3": "", "city": "Cordova", "zip_code": "38016", "country": "US", "state": "TN", "display_address": ["1351 N Germantown Pkwy", "Cordova, TN 38016"]}, "phone": "+19017559131", "display_phone": "(901) 755-9131", "distance": 21579.373072324714}, {"id": "5q5wv9gzgXsvYPnojRSvbA", "alias": "tsunami-restaurant-memphis", "name": "Tsunami Restaurant", "image_url": "https://s3-media3.fl.yelpcdn.com/bphoto/V0Qz2CyV9AM8ZeK9t1LCPw/o.jpg", "is_closed": false, "url": "https://www.yelp.com/biz/tsunami-restaurant-memphis?adjust_creative=vyhy616UjsMTA_hrWyg_5w&utm_campaign=yelp_api_v3&utm_medium=api_v3_business_search&utm_source=vyhy616UjsMTA_hrWyg_5w", "review_count": 102, "categories": [{"alias": "seafood", "title": "Seafood"}, {"alias": "tapasmallplates", "title": "Tapas/Small Plates"}], "rating": 4.0, "coordinates": {"latitude": 35.1202011, "longitude": -89.9908371}, "transactions": ["delivery"], "price": "$$", "location": {"address1": "928 S Cooper St", "address2": "", "address3": "", "city": "Memphis", "zip_code": "38104", "country": "US", "state": "TN", "display_address": ["928 S Cooper St", "Memphis, TN 38104"]}, "phone": "+19012742556", "display_phone": "(901) 274-2556", "distance": 3780.237478245311}, {"id": "1yvZEK-gZrNMigHjjMRmiw", "alias": "wasabi-sushi-and-asian-fusion-memphis-2", "name": "Wasabi Sushi & Asian Fusion", "image_url": "https://s3-media2.fl.yelpcdn.com/bphoto/HWR-TyoO1xiwj9G4OFUh1Q/o.jpg", "is_closed": false, "url": "https://www.yelp.com/biz/wasabi-sushi-and-asian-fusion-memphis-2?adjust_creative=vyhy616UjsMTA_hrWyg_5w&utm_campaign=yelp_api_v3&utm_medium=api_v3_business_search&utm_source=vyhy616UjsMTA_hrWyg_5w", "review_count": 100, "categories": [{"alias": "japanese", "title": "Japanese"}, {"alias": "sushi", "title": "Sushi Bars"}, {"alias": "steak", "title": "Steakhouses"}], "rating": 4.5, "coordinates": {"latitude": 35.116105, "longitude": -89.891903}, "transactions": ["delivery"], "price": "$$", "location": {"address1": "5101 Sanderlin Ave", "address2": "Ste 105", "address3": "", "city": "Memphis", "zip_code": "38117", "country": "US", "state": "TN", "display_address": ["5101 Sanderlin Ave", "Ste 105", "Memphis, TN 38117"]}, "phone": "+19014216399", "display_phone": "(901) 421-6399", "distance": 12687.005736623281}, {"id": "FKVVFGMAm5y6JDZxWhIopg", "alias": "thai-bistro-bartlett", "name": "Thai Bistro", "image_url": "https://s3-media3.fl.yelpcdn.com/bphoto/ordjfcxy2-PMspFQApWyQQ/o.jpg", "is_closed": false, "url": "https://www.yelp.com/biz/thai-bistro-bartlett?adjust_creative=vyhy616UjsMTA_hrWyg_5w&utm_campaign=yelp_api_v3&utm_medium=api_v3_business_search&utm_source=vyhy616UjsMTA_hrWyg_5w", "review_count": 75, "categories": [{"alias": "thai", "title": "Thai"}], "rating": 4.5, "coordinates": {"latitude": 35.2047687244025, "longitude": -89.8245144635439}, "transactions": ["delivery"], "location": {"address1": "7140 Hwy 64", "address2": "Ste 102", "address3": null, "city": "Bartlett", "zip_code": "38133", "country": "US", "state": "TN", "display_address": ["7140 Hwy 64", "Ste 102", "Bartlett, TN 38133"]}, "phone": "+19014356489", "display_phone": "(901) 435-6489", "distance": 20419.22154632198}, {"id": "mI4M7Cp_vkprynrHD8MFPQ", "alias": "sakura-japanese-restaurant-memphis-2", "name": "Sakura Japanese Restaurant", "image_url": "https://s3-media2.fl.yelpcdn.com/bphoto/euW6j-_VUahuJLJAg4bSFQ/o.jpg", "is_closed": false, "url": "https://www.yelp.com/biz/sakura-japanese-restaurant-memphis-2?adjust_creative=vyhy616UjsMTA_hrWyg_5w&utm_campaign=yelp_api_v3&utm_medium=api_v3_business_search&utm_source=vyhy616UjsMTA_hrWyg_5w", "review_count": 174, "categories": [{"alias": "japanese", "title": "Japanese"}, {"alias": "sushi", "title": "Sushi Bars"}], "rating": 4.0, "coordinates": {"latitude": 35.1142824, "longitude": -89.9003128}, "transactions": ["delivery"], "price": "$$", "location": {"address1": "4840 Poplar Ave", "address2": "", "address3": "", "city": "Memphis", "zip_code": "38117", "country": "US", "state": "TN", "display_address": ["4840 Poplar Ave", "Memphis, TN 38117"]}, "phone": "+19015721002", "display_phone": "(901) 572-1002", "distance": 11951.06766131664}, {"id": "zfny9cuhy1deOotqCpyjhA", "alias": "asian-star-bartlett-5", "name": "Asian Star", "image_url": "https://s3-media4.fl.yelpcdn.com/bphoto/_yuvI076Rg6ioQZbVrVAOQ/o.jpg", "is_closed": false, "url": "https://www.yelp.com/biz/asian-star-bartlett-5?adjust_creative=vyhy616UjsMTA_hrWyg_5w&utm_campaign=yelp_api_v3&utm_medium=api_v3_business_search&utm_source=vyhy616UjsMTA_hrWyg_5w", "review_count": 122, "categories": [{"alias": "japanese", "title": "Japanese"}, {"alias": "chinese", "title": "Chinese"}, {"alias": "asianfusion", "title": "Asian Fusion"}], "rating": 4.0, "coordinates": {"latitude": 35.2047429, "longitude": -89.8577517}, "transactions": ["delivery", "pickup"], "price": "$", "location": {"address1": "6158 Stage Rd", "address2": null, "address3": "", "city": "Bartlett", "zip_code": "38134", "country": "US", "state": "TN", "display_address": ["6158 Stage Rd", "Bartlett, TN 38134"]}, "phone": "+19015900577", "display_phone": "(901) 590-0577", "distance": 17693.36973030581}, {"id": "5F44ek4WBSIoy3Bf94mhSA", "alias": "tokyo-grill-memphis-4", "name": "Tokyo Grill", "image_url": "https://s3-media1.fl.yelpcdn.com/bphoto/rn-dh_3tjjpL4gGXCkO42Q/o.jpg", "is_closed": false, "url": "https://www.yelp.com/biz/tokyo-grill-memphis-4?adjust_creative=vyhy616UjsMTA_hrWyg_5w&utm_campaign=yelp_api_v3&utm_medium=api_v3_business_search&utm_source=vyhy616UjsMTA_hrWyg_5w", "review_count": 82, "categories": [{"alias": "japanese", "title": "Japanese"}, {"alias": "sushi", "title": "Sushi Bars"}], "rating": 4.5, "coordinates": {"latitude": 35.150209, "longitude": -89.910357}, "transactions": ["delivery"], "price": "$", "location": {"address1": "4514 Summer Ave", "address2": "Ste 4", "address3": "", "city": "Memphis", "zip_code": "38122", "country": "US", "state": "TN", "display_address": ["4514 Summer Ave", "Ste 4", "Memphis, TN 38122"]}, "phone": "+19016828028", "display_phone": "(901) 682-8028", "distance": 11106.350762878134}, {"id": "g3bB7jczGj8fNg_EYA2DeQ", "alias": "golden-city-cordova", "name": "Golden City", "image_url": "https://s3-media2.fl.yelpcdn.com/bphoto/OKJL6dxDJ41zYRlRqFPDOA/o.jpg", "is_closed": false, "url": "https://www.yelp.com/biz/golden-city-cordova?adjust_creative=vyhy616UjsMTA_hrWyg_5w&utm_campaign=yelp_api_v3&utm_medium=api_v3_business_search&utm_source=vyhy616UjsMTA_hrWyg_5w", "review_count": 43, "categories": [{"alias": "chinese", "title": "Chinese"}], "rating": 4.0, "coordinates": {"latitude": 35.1478756, "longitude": -89.7977789}, "transactions": ["delivery"], "price": "$$", "location": {"address1": "815 Exocet Dr", "address2": "", "address3": null, "city": "Cordova", "zip_code": "38018", "country": "US", "state": "TN", "display_address": ["815 Exocet Dr", "Cordova, TN 38018"]}, "phone": "+19015900063", "display_phone": "(901) 590-0063", "distance": 21218.63874640358}, {"id": "aqTsSg3rGqvw4y7GEaW23w", "alias": "asiana-garden-restaurant-memphis", "name": "Asiana Garden Restaurant", "image_url": "https://s3-media3.fl.yelpcdn.com/bphoto/qQ_X5nzORymw4Q2axJxWRg/o.jpg", "is_closed": false, "url": "https://www.yelp.com/biz/asiana-garden-restaurant-memphis?adjust_creative=vyhy616UjsMTA_hrWyg_5w&utm_campaign=yelp_api_v3&utm_medium=api_v3_business_search&utm_source=vyhy616UjsMTA_hrWyg_5w", "review_count": 70, "categories": [{"alias": "korean", "title": "Korean"}], "rating": 3.5, "coordinates": {"latitude": 35.07324, "longitude": -89.86399}, "transactions": ["delivery"], "price": "$$", "location": {"address1": "5992 Mount Moriah Rd", "address2": "", "address3": "", "city": "Memphis", "zip_code": "38115", "country": "US", "state": "TN", "display_address": ["5992 Mount Moriah Rd", "Memphis, TN 38115"]}, "phone": "+19017956147", "display_phone": "(901) 795-6147", "distance": 16409.892280229225}, {"id": "DR4hCqSC2DSn50CaADkFsw", "alias": "pho-64-bartlett", "name": "Pho 64", "image_url": "https://s3-media2.fl.yelpcdn.com/bphoto/9tK0PstquFZiZl6e6o3WsQ/o.jpg", "is_closed": false, "url": "https://www.yelp.com/biz/pho-64-bartlett?adjust_creative=vyhy616UjsMTA_hrWyg_5w&utm_campaign=yelp_api_v3&utm_medium=api_v3_business_search&utm_source=vyhy616UjsMTA_hrWyg_5w", "review_count": 136, "categories": [{"alias": "vietnamese", "title": "Vietnamese"}, {"alias": "thai", "title": "Thai"}], "rating": 4.5, "coordinates": {"latitude": 35.20474, "longitude": -89.837604}, "transactions": ["delivery"], "price": "$", "location": {"address1": "6773 Stage Rd", "address2": "", "address3": "", "city": "Bartlett", "zip_code": "38134", "country": "US", "state": "TN", "display_address": ["6773 Stage Rd", "Bartlett, TN 38134"]}, "phone": "+19012660033", "display_phone": "(901) 266-0033", "distance": 19334.28805421524}, {"id": "NO_k07jvWKi5dhN-lMoTEQ", "alias": "salt-soy-memphis", "name": "SALT|SOY", "image_url": "https://s3-media1.fl.yelpcdn.com/bphoto/Qb-Gqi63viI3UAmg_o9VBA/o.jpg", "is_closed": false, "url": "https://www.yelp.com/biz/salt-soy-memphis?adjust_creative=vyhy616UjsMTA_hrWyg_5w&utm_campaign=yelp_api_v3&utm_medium=api_v3_business_search&utm_source=vyhy616UjsMTA_hrWyg_5w", "review_count": 5, "categories": [{"alias": "sushi", "title": "Sushi Bars"}, {"alias": "izakaya", "title": "Izakaya"}, {"alias": "asianfusion", "title": "Asian Fusion"}], "rating": 2.5, "coordinates": {"latitude": 35.1476863732081, "longitude": -89.97321849373023}, "transactions": [], "location": {"address1": "2583 Broad Ave", "address2": "", "address3": null, "city": "Memphis", "zip_code": "38112", "country": "US", "state": "TN", "display_address": ["2583 Broad Ave", "Memphis, TN 38112"]}, "phone": "+19012071531", "display_phone": "(901) 207-1531", "distance": 5505.855968040479}, {"id": "hiMYAvSb65Bg0yOWKV2aAA", "alias": "urban-japanese-fusion-cuisine-olive-branch", "name": "Urban Japanese Fusion Cuisine", "image_url": "https://s3-media2.fl.yelpcdn.com/bphoto/ivOzEwfKnm7cqCAWwlWPVw/o.jpg", "is_closed": false, "url": "https://www.yelp.com/biz/urban-japanese-fusion-cuisine-olive-branch?adjust_creative=vyhy616UjsMTA_hrWyg_5w&utm_campaign=yelp_api_v3&utm_medium=api_v3_business_search&utm_source=vyhy616UjsMTA_hrWyg_5w", "review_count": 112, "categories": [{"alias": "asianfusion", "title": "Asian Fusion"}, {"alias": "sushi", "title": "Sushi Bars"}, {"alias": "japanese", "title": "Japanese"}], "rating": 4.0, "coordinates": {"latitude": 34.9631653406368, "longitude": -89.8966360447424}, "transactions": ["delivery"], "price": "$$", "location": {"address1": "5218 Goodman Rd", "address2": "Ste 111", "address3": "", "city": "Olive Branch", "zip_code": "38654", "country": "US", "state": "MS", "display_address": ["5218 Goodman Rd", "Ste 111", "Olive Branch, MS 38654"]}, "phone": "+16628934005", "display_phone": "(662) 893-4005", "distance": 22271.176660164936}, {"id": "HTJJ4-wMGI3XieBeGiAxKg", "alias": "pho-saigon-memphis", "name": "Pho Saigon", "image_url": "https://s3-media3.fl.yelpcdn.com/bphoto/3MkasNHqUOO0L7HP7iturA/o.jpg", "is_closed": false, "url": "https://www.yelp.com/biz/pho-saigon-memphis?adjust_creative=vyhy616UjsMTA_hrWyg_5w&utm_campaign=yelp_api_v3&utm_medium=api_v3_business_search&utm_source=vyhy616UjsMTA_hrWyg_5w", "review_count": 122, "categories": [{"alias": "vietnamese", "title": "Vietnamese"}], "rating": 3.0, "coordinates": {"latitude": 35.1336322, "longitude": -89.9635911}, "transactions": ["delivery"], "price": "$", "location": {"address1": "2946 Poplar Ave", "address2": "", "address3": "", "city": "Memphis", "zip_code": "38111", "country": "US", "state": "TN", "display_address": ["2946 Poplar Ave", "Memphis, TN 38111"]}, "phone": "+19014581644", "display_phone": "(901) 458-1644", "distance": 6062.168673012904}, {"id": "4rcq1S28cYboSDdFOYFqEw", "alias": "le-delights-banh-mi-and-pho-cordova", "name": "Le Delights - Banh Mi & Pho", "image_url": "https://s3-media3.fl.yelpcdn.com/bphoto/k7lM9BQX6Z_eArB9mp7Kew/o.jpg", "is_closed": false, "url": "https://www.yelp.com/biz/le-delights-banh-mi-and-pho-cordova?adjust_creative=vyhy616UjsMTA_hrWyg_5w&utm_campaign=yelp_api_v3&utm_medium=api_v3_business_search&utm_source=vyhy616UjsMTA_hrWyg_5w", "review_count": 134, "categories": [{"alias": "vietnamese", "title": "Vietnamese"}], "rating": 4.0, "coordinates": {"latitude": 35.1534723, "longitude": -89.793364}, "transactions": ["delivery"], "price": "$$", "location": {"address1": "8095 Macon Rd", "address2": "Ste 104", "address3": "", "city": "Cordova", "zip_code": "38018", "country": "US", "state": "TN", "display_address": ["8095 Macon Rd", "Ste 104", "Cordova, TN 38018"]}, "phone": "+19012072746", "display_phone": "(901) 207-2746", "distance": 21680.79041183008}, {"id": "NfQolVwTHoxRfIwUTbk5jQ", "alias": "formosa-chinese-restaurant-memphis", "name": "Formosa Chinese Restaurant", "image_url": "https://s3-media2.fl.yelpcdn.com/bphoto/pj0JMB3gWdfEzzCF1BcCOw/o.jpg", "is_closed": false, "url": "https://www.yelp.com/biz/formosa-chinese-restaurant-memphis?adjust_creative=vyhy616UjsMTA_hrWyg_5w&utm_campaign=yelp_api_v3&utm_medium=api_v3_business_search&utm_source=vyhy616UjsMTA_hrWyg_5w", "review_count": 46, "categories": [{"alias": "chinese", "title": "Chinese"}], "rating": 3.5, "coordinates": {"latitude": 35.066122, "longitude": -89.840053}, "transactions": ["delivery"], "price": "$$", "location": {"address1": "6685 Quince Rd", "address2": "Ste 126", "address3": "", "city": "Memphis", "zip_code": "38119", "country": "US", "state": "TN", "display_address": ["6685 Quince Rd", "Ste 126", "Memphis, TN 38119"]}, "phone": "+19017539898", "display_phone": "(901) 753-9898", "distance": 18741.94690718933}, {"id": "U87I_GA5CRpX5EERnPJQKQ", "alias": "changs-house-memphis", "name": "Chang's House", "image_url": "https://s3-media1.fl.yelpcdn.com/bphoto/lqReQnaNRPCBh9XxV7C6Bg/o.jpg", "is_closed": false, "url": "https://www.yelp.com/biz/changs-house-memphis?adjust_creative=vyhy616UjsMTA_hrWyg_5w&utm_campaign=yelp_api_v3&utm_medium=api_v3_business_search&utm_source=vyhy616UjsMTA_hrWyg_5w", "review_count": 79, "categories": [{"alias": "chinese", "title": "Chinese"}], "rating": 4.5, "coordinates": {"latitude": 35.2058075478764, "longitude": -89.8630088567734}, "transactions": ["delivery"], "price": "$", "location": {"address1": "5999 Bartlett Center Dr", "address2": "", "address3": "", "city": "Memphis", "zip_code": "38134", "country": "US", "state": "TN", "display_address": ["5999 Bartlett Center Dr", "Memphis, TN 38134"]}, "phone": "+19013827581", "display_phone": "(901) 382-7581", "distance": 17327.61450267855}, {"id": "zMgZfOr-TngqetnLLXxbbg", "alias": "changs-bubble-tea-cafe-cordova", "name": "Chang's Bubble Tea Cafe", "image_url": "https://s3-media1.fl.yelpcdn.com/bphoto/gT39M7UPIp8eob0axdkrIg/o.jpg", "is_closed": false, "url": "https://www.yelp.com/biz/changs-bubble-tea-cafe-cordova?adjust_creative=vyhy616UjsMTA_hrWyg_5w&utm_campaign=yelp_api_v3&utm_medium=api_v3_business_search&utm_source=vyhy616UjsMTA_hrWyg_5w", "review_count": 103, "categories": [{"alias": "chinese", "title": "Chinese"}], "rating": 4.0, "coordinates": {"latitude": 35.1534805297852, "longitude": -89.7931900024414}, "transactions": ["delivery"], "price": "$", "location": {"address1": "8095 Macon Rd", "address2": null, "address3": null, "city": "Cordova", "zip_code": "38018", "country": "US", "state": "TN", "display_address": ["8095 Macon Rd", "Cordova, TN 38018"]}, "phone": "+19017378839", "display_phone": "(901) 737-8839", "distance": 21693.2002954961}, {"id": "cHKoe2v4dv11q9CSS-Xa8Q", "alias": "oriental-noodle-millington", "name": "Oriental Noodle", "image_url": "https://s3-media1.fl.yelpcdn.com/bphoto/7g-912PdFF48wgVI-_NGrg/o.jpg", "is_closed": false, "url": "https://www.yelp.com/biz/oriental-noodle-millington?adjust_creative=vyhy616UjsMTA_hrWyg_5w&utm_campaign=yelp_api_v3&utm_medium=api_v3_business_search&utm_source=vyhy616UjsMTA_hrWyg_5w", "review_count": 91, "categories": [{"alias": "noodles", "title": "Noodles"}], "rating": 4.5, "coordinates": {"latitude": 35.3413682, "longitude": -89.9027324}, "transactions": [], "price": "$", "location": {"address1": "4816 Navy Rd", "address2": "", "address3": "", "city": "Millington", "zip_code": "38053", "country": "US", "state": "TN", "display_address": ["4816 Navy Rd", "Millington, TN 38053"]}, "phone": "+19018720048", "display_phone": "(901) 872-0048", "distance": 26103.687683908265}, {"id": "03TrF2OIhH7slGhyvRac_g", "alias": "bluefin-memphis", "name": "Bluefin", "image_url": "https://s3-media4.fl.yelpcdn.com/bphoto/njdbPs-z90ROwKUSpjYA6g/o.jpg", "is_closed": false, "url": "https://www.yelp.com/biz/bluefin-memphis?adjust_creative=vyhy616UjsMTA_hrWyg_5w&utm_campaign=yelp_api_v3&utm_medium=api_v3_business_search&utm_source=vyhy616UjsMTA_hrWyg_5w", "review_count": 276, "categories": [{"alias": "japanese", "title": "Japanese"}, {"alias": "sushi", "title": "Sushi Bars"}, {"alias": "steak", "title": "Steakhouses"}], "rating": 3.0, "coordinates": {"latitude": 35.141441, "longitude": -90.054486}, "transactions": ["delivery", "pickup"], "price": "$$", "location": {"address1": "135 S Main St", "address2": "", "address3": "", "city": "Memphis", "zip_code": "38103", "country": "US", "state": "TN", "display_address": ["135 S Main St", "Memphis, TN 38103"]}, "phone": "+19015281010", "display_phone": "(901) 528-1010", "distance": 2495.7351425119873}, {"id": "CsJXJrqKWd8zdHgsiT-TCA", "alias": "bangkok-alley-memphis-3", "name": "Bangkok Alley", "image_url": "https://s3-media1.fl.yelpcdn.com/bphoto/U6UU5egkwOmy7N3pX5AZvQ/o.jpg", "is_closed": false, "url": "https://www.yelp.com/biz/bangkok-alley-memphis-3?adjust_creative=vyhy616UjsMTA_hrWyg_5w&utm_campaign=yelp_api_v3&utm_medium=api_v3_business_search&utm_source=vyhy616UjsMTA_hrWyg_5w", "review_count": 68, "categories": [{"alias": "thai", "title": "Thai"}], "rating": 3.5, "coordinates": {"latitude": 35.11319, "longitude": -89.89085}, "transactions": ["delivery"], "price": "$$", "location": {"address1": "715 Brookhaven Cir W", "address2": "", "address3": "", "city": "Memphis", "zip_code": "38137", "country": "US", "state": "TN", "display_address": ["715 Brookhaven Cir W", "Memphis, TN 38137"]}, "phone": "+19015902585", "display_phone": "(901) 590-2585", "distance": 12820.115720371707}], "total": 160, "region": {"center": {"longitude": -90.03021240234375, "latitude": 35.1309663564973}}}