{"businesses": [{"id": "nuFmCfpH9SmFPGRO3OieNw", "alias": "hus-cooking-houston-2", "name": "Hu's Cooking", "image_url": "https://s3-media1.fl.yelpcdn.com/bphoto/Wai7EkjI8co27_qKgG7_8w/o.jpg", "is_closed": false, "url": "https://www.yelp.com/biz/hus-cooking-houston-2?adjust_creative=vyhy616UjsMTA_hrWyg_5w&utm_campaign=yelp_api_v3&utm_medium=api_v3_business_search&utm_source=vyhy616UjsMTA_hrWyg_5w", "review_count": 386, "categories": [{"alias": "chinese", "title": "Chinese"}], "rating": 4.5, "coordinates": {"latitude": 29.70645, "longitude": -95.41693}, "transactions": ["delivery", "pickup"], "price": "$$", "location": {"address1": "2502 W Holcombe Blvd", "address2": null, "address3": "", "city": "Houston", "zip_code": "77030", "country": "US", "state": "TX", "display_address": ["2502 W Holcombe Blvd", "Houston, TX 77030"]}, "phone": "+17136600020", "display_phone": "(713) 660-0020", "distance": 8358.159855273929}, {"id": "bw7wHadI9xfDjJCQnSVuSQ", "alias": "tiger-noodle-house-houston", "name": "Tiger Noodle House", "image_url": "https://s3-media2.fl.yelpcdn.com/bphoto/X9kETK85mmqysukdkVMWxQ/o.jpg", "is_closed": false, "url": "https://www.yelp.com/biz/tiger-noodle-house-houston?adjust_creative=vyhy616UjsMTA_hrWyg_5w&utm_campaign=yelp_api_v3&utm_medium=api_v3_business_search&utm_source=vyhy616UjsMTA_hrWyg_5w", "review_count": 361, "categories": [{"alias": "chinese", "title": "Chinese"}], "rating": 4.0, "coordinates": {"latitude": 29.717709, "longitude": -95.416064}, "transactions": ["delivery"], "price": "$$", "location": {"address1": "2424 Rice Blvd", "address2": "Ste A", "address3": null, "city": "Houston", "zip_code": "77005", "country": "US", "state": "TX", "display_address": ["2424 Rice Blvd", "Ste A", "Houston, TX 77005"]}, "phone": "+12819744507", "display_phone": "(281) 974-4507", "distance": 7398.509808727998}, {"id": "SfZFGfL8DYubrl_k_3wV8w", "alias": "fat-bao-houston", "name": "Fat Bao", "image_url": "https://s3-media4.fl.yelpcdn.com/bphoto/aiM5bYRge5Imuym6dKNoYw/o.jpg", "is_closed": false, "url": "https://www.yelp.com/biz/fat-bao-houston?adjust_creative=vyhy616UjsMTA_hrWyg_5w&utm_campaign=yelp_api_v3&utm_medium=api_v3_business_search&utm_source=vyhy616UjsMTA_hrWyg_5w", "review_count": 1661, "categories": [{"alias": "chinese", "title": "Chinese"}, {"alias": "asianfusion", "title": "Asian Fusion"}], "rating": 4.0, "coordinates": {"latitude": 29.7351499099632, "longitude": -95.4181346297265}, "transactions": ["delivery", "pickup"], "price": "$", "location": {"address1": "3419 Kirby Dr", "address2": "", "address3": "", "city": "Houston", "zip_code": "77098", "country": "US", "state": "TX", "display_address": ["3419 Kirby Dr", "Houston, TX 77098"]}, "phone": "+17136770341", "display_phone": "(713) 677-0341", "distance": 6415.207158756568}, {"id": "Q2VD2XmwmpDRb-qaF7Thag", "alias": "huynh-restaurant-houston", "name": "Huynh Restaurant", "image_url": "https://s3-media3.fl.yelpcdn.com/bphoto/XwtDuTxobTAlGJcUm9A10w/o.jpg", "is_closed": false, "url": "https://www.yelp.com/biz/huynh-restaurant-houston?adjust_creative=vyhy616UjsMTA_hrWyg_5w&utm_campaign=yelp_api_v3&utm_medium=api_v3_business_search&utm_source=vyhy616UjsMTA_hrWyg_5w", "review_count": 934, "categories": [{"alias": "vietnamese", "title": "Vietnamese"}], "rating": 4.0, "coordinates": {"latitude": 29.75179, "longitude": -95.35552}, "transactions": ["pickup"], "price": "$$", "location": {"address1": "912 St Emanuel St", "address2": "", "address3": "", "city": "Houston", "zip_code": "77003", "country": "US", "state": "TX", "display_address": ["912 St Emanuel St", "Houston, TX 77003"]}, "phone": "+17132248964", "display_phone": "(713) 224-8964", "distance": 1330.3134663793012}, {"id": "fm4cord-HSIFxGOAC5k2Vg", "alias": "asia-market-thai-lao-food-houston-2", "name": "Asia Market Thai Lao Food", "image_url": "https://s3-media2.fl.yelpcdn.com/bphoto/Tj4UpmodgDlH_J5B7XtLBA/o.jpg", "is_closed": false, "url": "https://www.yelp.com/biz/asia-market-thai-lao-food-houston-2?adjust_creative=vyhy616UjsMTA_hrWyg_5w&utm_campaign=yelp_api_v3&utm_medium=api_v3_business_search&utm_source=vyhy616UjsMTA_hrWyg_5w", "review_count": 493, "categories": [{"alias": "laotian", "title": "Laotian"}, {"alias": "thai", "title": "Thai"}], "rating": 4.5, "coordinates": {"latitude": 29.7911832, "longitude": -95.3728234}, "transactions": ["delivery", "pickup"], "price": "$", "location": {"address1": "3620 N Main St", "address2": "", "address3": "", "city": "Houston", "zip_code": "77009", "country": "US", "state": "TX", "display_address": ["3620 N Main St", "Houston, TX 77009"]}, "phone": "+18329684559", "display_phone": "(832) 968-4559", "distance": 3368.308497500172}, {"id": "hvz8cactzutFvv5kO4UmSg", "alias": "thai-gourmet-houston", "name": "Thai Gourmet", "image_url": "https://s3-media2.fl.yelpcdn.com/bphoto/Ti8euXa8UGQPjq3ce4uImA/o.jpg", "is_closed": false, "url": "https://www.yelp.com/biz/thai-gourmet-houston?adjust_creative=vyhy616UjsMTA_hrWyg_5w&utm_campaign=yelp_api_v3&utm_medium=api_v3_business_search&utm_source=vyhy616UjsMTA_hrWyg_5w", "review_count": 2125, "categories": [{"alias": "thai", "title": "Thai"}], "rating": 4.0, "coordinates": {"latitude": 29.732623, "longitude": -95.494807}, "transactions": ["delivery"], "price": "$$", "location": {"address1": "6324 Richmond Ave", "address2": "", "address3": "", "city": "Houston", "zip_code": "77057", "country": "US", "state": "TX", "display_address": ["6324 Richmond Ave", "Houston, TX 77057"]}, "phone": "+17137807955", "display_phone": "(713) 780-7955", "distance": 13450.567796549238}, {"id": "9HDjyJW_clJQSQRsGHre6w", "alias": "trinity-street-food-houston", "name": "Trinity Street Food", "image_url": "https://s3-media4.fl.yelpcdn.com/bphoto/rct74Bx-4lpbmDtC1w3Wmw/o.jpg", "is_closed": false, "url": "https://www.yelp.com/biz/trinity-street-food-houston?adjust_creative=vyhy616UjsMTA_hrWyg_5w&utm_campaign=yelp_api_v3&utm_medium=api_v3_business_search&utm_source=vyhy616UjsMTA_hrWyg_5w", "review_count": 21, "categories": [{"alias": "thai", "title": "Thai"}], "rating": 5.0, "coordinates": {"latitude": 29.762888, "longitude": -95.478969}, "transactions": ["delivery", "pickup", "restaurant_reservation"], "location": {"address1": "5709 Woodway Dr", "address2": "Ste J", "address3": null, "city": "Houston", "zip_code": "77057", "country": "US", "state": "TX", "display_address": ["5709 Woodway Dr", "Ste J", "Houston, TX 77057"]}, "phone": "+17134850105", "display_phone": "(713) 485-0105", "distance": 11488.062720867765}, {"id": "oO2wltqIlG0OT8-JybskGg", "alias": "bori-houston-2", "name": "BORI", "image_url": "https://s3-media3.fl.yelpcdn.com/bphoto/a96mqSOc0Qp33yJ3LMEQqQ/o.jpg", "is_closed": false, "url": "https://www.yelp.com/biz/bori-houston-2?adjust_creative=vyhy616UjsMTA_hrWyg_5w&utm_campaign=yelp_api_v3&utm_medium=api_v3_business_search&utm_source=vyhy616UjsMTA_hrWyg_5w", "review_count": 217, "categories": [{"alias": "korean", "title": "Korean"}, {"alias": "steak", "title": "Steakhouses"}, {"alias": "bbq", "title": "Barbeque"}], "rating": 4.5, "coordinates": {"latitude": 29.796564, "longitude": -95.540607}, "transactions": ["delivery", "pickup"], "location": {"address1": "1453 Witte Rd", "address2": null, "address3": "", "city": "Houston", "zip_code": "77080", "country": "US", "state": "TX", "display_address": ["1453 Witte Rd", "Houston, TX 77080"]}, "phone": "+18327404350", "display_phone": "(832) 740-4350", "distance": 17829.211213014612}, {"id": "TLagvISDZ4UcFZWFqsbQTw", "alias": "street-food-thai-market-houston-2", "name": "Street Food Thai Market", "image_url": "https://s3-media4.fl.yelpcdn.com/bphoto/n8PxIiiiXDbxdxJM7y6AxA/o.jpg", "is_closed": false, "url": "https://www.yelp.com/biz/street-food-thai-market-houston-2?adjust_creative=vyhy616UjsMTA_hrWyg_5w&utm_campaign=yelp_api_v3&utm_medium=api_v3_business_search&utm_source=vyhy616UjsMTA_hrWyg_5w", "review_count": 415, "categories": [{"alias": "thai", "title": "Thai"}, {"alias": "laotian", "title": "Laotian"}], "rating": 4.5, "coordinates": {"latitude": 29.80417, "longitude": -95.38505}, "transactions": ["delivery"], "price": "$$", "location": {"address1": "1010 W Cavalcade St", "address2": "Unit D", "address3": "", "city": "Houston", "zip_code": "77009", "country": "US", "state": "TX", "display_address": ["1010 W Cavalcade St", "Unit D", "Houston, TX 77009"]}, "phone": "+13464063177", "display_phone": "(346) 406-3177", "distance": 5186.496313654348}, {"id": "WRAGAD5IJ_cZefsA3X_5sw", "alias": "fu-manchung-spring", "name": "Fu Manchung", "image_url": "https://s3-media2.fl.yelpcdn.com/bphoto/K8U3qJVIVTVDj9U0pHGJbQ/o.jpg", "is_closed": false, "url": "https://www.yelp.com/biz/fu-manchung-spring?adjust_creative=vyhy616UjsMTA_hrWyg_5w&utm_campaign=yelp_api_v3&utm_medium=api_v3_business_search&utm_source=vyhy616UjsMTA_hrWyg_5w", "review_count": 645, "categories": [{"alias": "vietnamese", "title": "Vietnamese"}, {"alias": "bubbletea", "title": "Bubble Tea"}, {"alias": "asianfusion", "title": "Asian Fusion"}], "rating": 5.0, "coordinates": {"latitude": 30.07101, "longitude": -95.47092}, "transactions": ["delivery", "pickup"], "price": "$$", "location": {"address1": "3416 Fm 2920 Rd", "address2": "Ste 210", "address3": null, "city": "Spring", "zip_code": "77388", "country": "US", "state": "TX", "display_address": ["3416 Fm 2920 Rd", "Ste 210", "Spring, TX 77388"]}, "phone": "+18327915873", "display_phone": "(832) 791-5873", "distance": 35875.73915793547}, {"id": "Et7n-Nk8_F41q3bcGohnLw", "alias": "l\u00faa-viet-kitchen-houston-5", "name": "L\u00faa Viet Kitchen", "image_url": "https://s3-media1.fl.yelpcdn.com/bphoto/gk7kD-s9o6bd9h0fScwZ8g/o.jpg", "is_closed": false, "url": "https://www.yelp.com/biz/l%C3%BAa-viet-kitchen-houston-5?adjust_creative=vyhy616UjsMTA_hrWyg_5w&utm_campaign=yelp_api_v3&utm_medium=api_v3_business_search&utm_source=vyhy616UjsMTA_hrWyg_5w", "review_count": 410, "categories": [{"alias": "vietnamese", "title": "Vietnamese"}], "rating": 4.0, "coordinates": {"latitude": 29.73893339475967, "longitude": -95.39874844108012}, "transactions": ["delivery"], "price": "$$", "location": {"address1": "1540 W Alabama St", "address2": "Ste 300", "address3": null, "city": "Houston", "zip_code": "77006", "country": "US", "state": "TX", "display_address": ["1540 W Alabama St", "Ste 300", "Houston, TX 77006"]}, "phone": "+13462277047", "display_phone": "(346) 227-7047", "distance": 4604.587626310512}, {"id": "TujhWBzbB-dtgwaBrfjfcw", "alias": "heights-asian-cafe-houston", "name": "Heights Asian Cafe", "image_url": "https://s3-media2.fl.yelpcdn.com/bphoto/yDhSG_BhL890z_Ev33jC7w/o.jpg", "is_closed": false, "url": "https://www.yelp.com/biz/heights-asian-cafe-houston?adjust_creative=vyhy616UjsMTA_hrWyg_5w&utm_campaign=yelp_api_v3&utm_medium=api_v3_business_search&utm_source=vyhy616UjsMTA_hrWyg_5w", "review_count": 531, "categories": [{"alias": "chinese", "title": "Chinese"}, {"alias": "vietnamese", "title": "Vietnamese"}], "rating": 4.0, "coordinates": {"latitude": 29.8062489, "longitude": -95.3995707}, "transactions": ["delivery", "pickup"], "price": "$$", "location": {"address1": "2201 Yale St", "address2": "", "address3": "", "city": "Houston", "zip_code": "77008", "country": "US", "state": "TX", "display_address": ["2201 Yale St", "Houston, TX 77008"]}, "phone": "+17138809998", "display_phone": "(713) 880-9998", "distance": 6141.343714160402}, {"id": "VAAIANLlwPtArZ__i3wbgg", "alias": "myung-dong-houston-3", "name": "Myung Dong", "image_url": "https://s3-media3.fl.yelpcdn.com/bphoto/BESFlNFHz0feCI_P8Ym-VQ/o.jpg", "is_closed": false, "url": "https://www.yelp.com/biz/myung-dong-houston-3?adjust_creative=vyhy616UjsMTA_hrWyg_5w&utm_campaign=yelp_api_v3&utm_medium=api_v3_business_search&utm_source=vyhy616UjsMTA_hrWyg_5w", "review_count": 356, "categories": [{"alias": "korean", "title": "Korean"}], "rating": 4.0, "coordinates": {"latitude": 29.69315, "longitude": -95.49546}, "transactions": ["delivery"], "price": "$$", "location": {"address1": "6415 Bissonnet St", "address2": "", "address3": "", "city": "Houston", "zip_code": "77074", "country": "US", "state": "TX", "display_address": ["6415 Bissonnet St", "Houston, TX 77074"]}, "phone": "+17137795530", "display_phone": "(713) 779-5530", "distance": 15220.837756063098}, {"id": "ZYhjAafAj2K6pGgE2Lfwpg", "alias": "wanna-bao-houston", "name": "Wanna Bao", "image_url": "https://s3-media3.fl.yelpcdn.com/bphoto/NGgF0QWSkVv_zdcF_lmqIA/o.jpg", "is_closed": false, "url": "https://www.yelp.com/biz/wanna-bao-houston?adjust_creative=vyhy616UjsMTA_hrWyg_5w&utm_campaign=yelp_api_v3&utm_medium=api_v3_business_search&utm_source=vyhy616UjsMTA_hrWyg_5w", "review_count": 527, "categories": [{"alias": "szechuan", "title": "Szechuan"}, {"alias": "shanghainese", "title": "Shanghainese"}], "rating": 4.0, "coordinates": {"latitude": 29.74769, "longitude": -95.38019}, "transactions": ["delivery", "pickup"], "price": "$$", "location": {"address1": "2708 Bagby St", "address2": null, "address3": "", "city": "Houston", "zip_code": "77006", "country": "US", "state": "TX", "display_address": ["2708 Bagby St", "Houston, TX 77006"]}, "phone": "+18326237265", "display_phone": "(832) 623-7265", "distance": 2597.662281161819}, {"id": "lvhxEoKsLSjyOOKZwn_vzQ", "alias": "street-to-kitchen-houston", "name": "Street to Kitchen", "image_url": "https://s3-media3.fl.yelpcdn.com/bphoto/EWTViHzpHlt0ts6XxsPFRw/o.jpg", "is_closed": false, "url": "https://www.yelp.com/biz/street-to-kitchen-houston?adjust_creative=vyhy616UjsMTA_hrWyg_5w&utm_campaign=yelp_api_v3&utm_medium=api_v3_business_search&utm_source=vyhy616UjsMTA_hrWyg_5w", "review_count": 69, "categories": [{"alias": "thai", "title": "Thai"}], "rating": 4.5, "coordinates": {"latitude": 29.7393295683378, "longitude": -95.3110434114933}, "transactions": ["delivery", "pickup"], "location": {"address1": "6501 Harrisburg Blvd", "address2": null, "address3": "", "city": "Houston", "zip_code": "77011", "country": "US", "state": "TX", "display_address": ["6501 Harrisburg Blvd", "Houston, TX 77011"]}, "phone": "+12815013435", "display_phone": "(281) 501-3435", "distance": 5407.230320165855}, {"id": "36laMC_BB-nr9CV8BDqk_g", "alias": "the-rice-box-houston-5", "name": "The Rice Box", "image_url": "https://s3-media1.fl.yelpcdn.com/bphoto/SbVGWSs6mI8WCv2P3nsTwQ/o.jpg", "is_closed": false, "url": "https://www.yelp.com/biz/the-rice-box-houston-5?adjust_creative=vyhy616UjsMTA_hrWyg_5w&utm_campaign=yelp_api_v3&utm_medium=api_v3_business_search&utm_source=vyhy616UjsMTA_hrWyg_5w", "review_count": 753, "categories": [{"alias": "asianfusion", "title": "Asian Fusion"}, {"alias": "chinese", "title": "Chinese"}], "rating": 4.0, "coordinates": {"latitude": 29.8037, "longitude": -95.4017}, "transactions": ["delivery", "pickup"], "price": "$$", "location": {"address1": "300 W 20th St", "address2": "", "address3": null, "city": "Houston", "zip_code": "77008", "country": "US", "state": "TX", "display_address": ["300 W 20th St", "Houston, TX 77008"]}, "phone": "+17134088678", "display_phone": "(713) 408-8678", "distance": 6056.890731149046}, {"id": "ZjAETv70jT4Wd74j_1ZUzQ", "alias": "mian-\u6ecb\u5473\u5c0f\u9762-houston-2", "name": "MIAN | \u6ecb\u5473\u5c0f\u9762", "image_url": "https://s3-media2.fl.yelpcdn.com/bphoto/7y47kPhx_Sdg2x-QPbBhww/o.jpg", "is_closed": false, "url": "https://www.yelp.com/biz/mian-%E6%BB%8B%E5%91%B3%E5%B0%8F%E9%9D%A2-houston-2?adjust_creative=vyhy616UjsMTA_hrWyg_5w&utm_campaign=yelp_api_v3&utm_medium=api_v3_business_search&utm_source=vyhy616UjsMTA_hrWyg_5w", "review_count": 98, "categories": [{"alias": "szechuan", "title": "Szechuan"}, {"alias": "noodles", "title": "Noodles"}], "rating": 4.5, "coordinates": {"latitude": 29.705882, "longitude": -95.5506311868362}, "transactions": [], "price": "$$", "location": {"address1": "9600 Bellaire Blvd", "address2": "Ste 102B", "address3": null, "city": "Houston", "zip_code": "77036", "country": "US", "state": "TX", "display_address": ["9600 Bellaire Blvd", "Ste 102B", "Houston, TX 77036"]}, "phone": "+12819741252", "display_phone": "(281) 974-1252", "distance": 19476.248022455682}, {"id": "q-SZKVmE59vIzV_7lvSvxA", "alias": "rim-tanon-houston-2", "name": "Rim Tanon", "image_url": "https://s3-media2.fl.yelpcdn.com/bphoto/gkxGIWAoecpyvdRWyXxipg/o.jpg", "is_closed": false, "url": "https://www.yelp.com/biz/rim-tanon-houston-2?adjust_creative=vyhy616UjsMTA_hrWyg_5w&utm_campaign=yelp_api_v3&utm_medium=api_v3_business_search&utm_source=vyhy616UjsMTA_hrWyg_5w", "review_count": 453, "categories": [{"alias": "thai", "title": "Thai"}], "rating": 4.5, "coordinates": {"latitude": 29.7340213532774, "longitude": -95.4147996660098}, "transactions": ["delivery", "pickup"], "price": "$$", "location": {"address1": "2241 Richmond Ave", "address2": "", "address3": null, "city": "Houston", "zip_code": "77098", "country": "US", "state": "TX", "display_address": ["2241 Richmond Ave", "Houston, TX 77098"]}, "phone": "+17135293100", "display_phone": "(713) 529-3100", "distance": 6199.667828667563}, {"id": "iQNYPIJ_MWjokyTqrIM8cQ", "alias": "xin-chao-houston", "name": "Xin Chao", "image_url": "https://s3-media3.fl.yelpcdn.com/bphoto/r-WY8kFyshKhQK0CxQ2MXQ/o.jpg", "is_closed": false, "url": "https://www.yelp.com/biz/xin-chao-houston?adjust_creative=vyhy616UjsMTA_hrWyg_5w&utm_campaign=yelp_api_v3&utm_medium=api_v3_business_search&utm_source=vyhy616UjsMTA_hrWyg_5w", "review_count": 99, "categories": [{"alias": "vietnamese", "title": "Vietnamese"}, {"alias": "asianfusion", "title": "Asian Fusion"}], "rating": 4.5, "coordinates": {"latitude": 29.76716, "longitude": -95.38231}, "transactions": ["delivery"], "location": {"address1": "2310 Decatur St", "address2": "", "address3": null, "city": "Houston", "zip_code": "77007", "country": "US", "state": "TX", "display_address": ["2310 Decatur St", "Houston, TX 77007"]}, "phone": "+18327404888", "display_phone": "(832) 740-4888", "distance": 2203.3020372152882}, {"id": "LyHL_OleyFYfn6zKvmLNHA", "alias": "the-blind-goat-houston", "name": "The Blind Goat", "image_url": "https://s3-media2.fl.yelpcdn.com/bphoto/06o8xl5XAcT5NeHzJ7ervQ/o.jpg", "is_closed": false, "url": "https://www.yelp.com/biz/the-blind-goat-houston?adjust_creative=vyhy616UjsMTA_hrWyg_5w&utm_campaign=yelp_api_v3&utm_medium=api_v3_business_search&utm_source=vyhy616UjsMTA_hrWyg_5w", "review_count": 266, "categories": [{"alias": "vietnamese", "title": "Vietnamese"}], "rating": 4.0, "coordinates": {"latitude": 29.76156, "longitude": -95.36228}, "transactions": ["delivery", "pickup"], "price": "$$", "location": {"address1": "409 Travis St", "address2": "Ste 367", "address3": "", "city": "Houston", "zip_code": "77002", "country": "US", "state": "TX", "display_address": ["409 Travis St", "Ste 367", "Houston, TX 77002"]}, "phone": "+13462981660", "display_phone": "(346) 298-1660", "distance": 280.37018091195836}, {"id": "jU1eiW_ofPkiz0usx8pLMg", "alias": "mama-s-kitchen-houston", "name": "Mama\u2019s Kitchen", "image_url": "https://s3-media4.fl.yelpcdn.com/bphoto/2tBg6faIzO-69jByC_qayg/o.jpg", "is_closed": false, "url": "https://www.yelp.com/biz/mama-s-kitchen-houston?adjust_creative=vyhy616UjsMTA_hrWyg_5w&utm_campaign=yelp_api_v3&utm_medium=api_v3_business_search&utm_source=vyhy616UjsMTA_hrWyg_5w", "review_count": 117, "categories": [{"alias": "szechuan", "title": "Szechuan"}, {"alias": "bubbletea", "title": "Bubble Tea"}, {"alias": "noodles", "title": "Noodles"}], "rating": 4.0, "coordinates": {"latitude": 29.7323257688598, "longitude": -95.4388258070098}, "transactions": ["delivery", "pickup"], "price": "$$", "location": {"address1": "3815 Richmond Ave", "address2": "Ste B", "address3": "", "city": "Houston", "zip_code": "77027", "country": "US", "state": "TX", "display_address": ["3815 Richmond Ave", "Ste B", "Houston, TX 77027"]}, "phone": "+17133802956", "display_phone": "(713) 380-2956", "distance": 8344.516778156265}, {"id": "sb6MqLdrWt6BgivSwlapIw", "alias": "krazy-katsu-and-udon-houston-6", "name": "Krazy Katsu & Udon", "image_url": "https://s3-media4.fl.yelpcdn.com/bphoto/DveAMzkxOXYLlecwYR9SQA/o.jpg", "is_closed": false, "url": "https://www.yelp.com/biz/krazy-katsu-and-udon-houston-6?adjust_creative=vyhy616UjsMTA_hrWyg_5w&utm_campaign=yelp_api_v3&utm_medium=api_v3_business_search&utm_source=vyhy616UjsMTA_hrWyg_5w", "review_count": 160, "categories": [{"alias": "japanese", "title": "Japanese"}, {"alias": "korean", "title": "Korean"}, {"alias": "asianfusion", "title": "Asian Fusion"}], "rating": 4.5, "coordinates": {"latitude": 29.73668, "longitude": -95.51505}, "transactions": ["delivery", "pickup"], "price": "$$", "location": {"address1": "8401 Westheimer Rd", "address2": "Ste 165", "address3": "", "city": "Houston", "zip_code": "77063", "country": "US", "state": "TX", "display_address": ["8401 Westheimer Rd", "Ste 165", "Houston, TX 77063"]}, "phone": "+13465711140", "display_phone": "(346) 571-1140", "distance": 15230.601840952395}, {"id": "ulKx-laEAznEnneIBqewBA", "alias": "mein-restaurant-houston", "name": "Mein Restaurant", "image_url": "https://s3-media2.fl.yelpcdn.com/bphoto/CiTHMMx11JgUjX82HVAT2Q/o.jpg", "is_closed": false, "url": "https://www.yelp.com/biz/mein-restaurant-houston?adjust_creative=vyhy616UjsMTA_hrWyg_5w&utm_campaign=yelp_api_v3&utm_medium=api_v3_business_search&utm_source=vyhy616UjsMTA_hrWyg_5w", "review_count": 764, "categories": [{"alias": "chinese", "title": "Chinese"}, {"alias": "asianfusion", "title": "Asian Fusion"}], "rating": 4.0, "coordinates": {"latitude": 29.707539, "longitude": -95.550054}, "transactions": ["delivery"], "price": "$$", "location": {"address1": "9630 Clarewood Dr", "address2": "Ste A13", "address3": "", "city": "Houston", "zip_code": "77036", "country": "US", "state": "TX", "display_address": ["9630 Clarewood Dr", "Ste A13", "Houston, TX 77036"]}, "phone": "+17139237488", "display_phone": "(713) 923-7488", "distance": 19363.941151168056}, {"id": "GNS4Yi2739Zp4NCyUmuZGA", "alias": "spicy-girl-houston", "name": "Spicy Girl", "image_url": "https://s3-media1.fl.yelpcdn.com/bphoto/pv81SLurwGToHNGuRP4SVg/o.jpg", "is_closed": false, "url": "https://www.yelp.com/biz/spicy-girl-houston?adjust_creative=vyhy616UjsMTA_hrWyg_5w&utm_campaign=yelp_api_v3&utm_medium=api_v3_business_search&utm_source=vyhy616UjsMTA_hrWyg_5w", "review_count": 385, "categories": [{"alias": "szechuan", "title": "Szechuan"}], "rating": 4.0, "coordinates": {"latitude": 29.7391899, "longitude": -95.38008137}, "transactions": ["delivery", "pickup"], "price": "$$", "location": {"address1": "917 Winbern St", "address2": "Unit B", "address3": null, "city": "Houston", "zip_code": "77002", "country": "US", "state": "TX", "display_address": ["917 Winbern St", "Unit B", "Houston, TX 77002"]}, "phone": "+18326237990", "display_phone": "(832) 623-7990", "distance": 3286.3141048973425}, {"id": "M7MafvD4pO0rvQCZZg7vbA", "alias": "bamboo-house-humble-2", "name": "Bamboo House", "image_url": "https://s3-media1.fl.yelpcdn.com/bphoto/8n7vZ62kFGoLwXT0XW3a_A/o.jpg", "is_closed": false, "url": "https://www.yelp.com/biz/bamboo-house-humble-2?adjust_creative=vyhy616UjsMTA_hrWyg_5w&utm_campaign=yelp_api_v3&utm_medium=api_v3_business_search&utm_source=vyhy616UjsMTA_hrWyg_5w", "review_count": 411, "categories": [{"alias": "noodles", "title": "Noodles"}, {"alias": "szechuan", "title": "Szechuan"}, {"alias": "seafood", "title": "Seafood"}], "rating": 4.5, "coordinates": {"latitude": 29.93987, "longitude": -95.2702599}, "transactions": ["delivery"], "price": "$$", "location": {"address1": "7855 N Sam Houston Pkwy E", "address2": null, "address3": "", "city": "Humble", "zip_code": "77396", "country": "US", "state": "TX", "display_address": ["7855 N Sam Houston Pkwy E", "Humble, TX 77396"]}, "phone": "+12814413456", "display_phone": "(281) 441-3456", "distance": 21487.87798731444}, {"id": "3URV6UebBqDQJBzPNAp7XA", "alias": "taste-sichuan-houston", "name": "Taste Sichuan", "image_url": "https://s3-media3.fl.yelpcdn.com/bphoto/YZ-Vvvx5zMKDUHRESKMyPw/o.jpg", "is_closed": false, "url": "https://www.yelp.com/biz/taste-sichuan-houston?adjust_creative=vyhy616UjsMTA_hrWyg_5w&utm_campaign=yelp_api_v3&utm_medium=api_v3_business_search&utm_source=vyhy616UjsMTA_hrWyg_5w", "review_count": 67, "categories": [{"alias": "szechuan", "title": "Szechuan"}], "rating": 4.5, "coordinates": {"latitude": 29.74158, "longitude": -95.46178}, "transactions": ["delivery", "pickup"], "price": "$$", "location": {"address1": "5000 Westheimer Rd", "address2": "Ste 624", "address3": "", "city": "Houston", "zip_code": "77056", "country": "US", "state": "TX", "display_address": ["5000 Westheimer Rd", "Ste 624", "Houston, TX 77056"]}, "phone": "+17132428591", "display_phone": "(713) 242-8591", "distance": 10155.46720714997}, {"id": "fIs1oqMQ8V1kC6175N1x-g", "alias": "roostar-vietnamese-grill-houston-2", "name": "Roostar Vietnamese Grill", "image_url": "https://s3-media4.fl.yelpcdn.com/bphoto/yihMPzM9cJTZXBqmBSV1rg/o.jpg", "is_closed": false, "url": "https://www.yelp.com/biz/roostar-vietnamese-grill-houston-2?adjust_creative=vyhy616UjsMTA_hrWyg_5w&utm_campaign=yelp_api_v3&utm_medium=api_v3_business_search&utm_source=vyhy616UjsMTA_hrWyg_5w", "review_count": 1372, "categories": [{"alias": "vietnamese", "title": "Vietnamese"}, {"alias": "sandwiches", "title": "Sandwiches"}, {"alias": "vegetarian", "title": "Vegetarian"}], "rating": 4.5, "coordinates": {"latitude": 29.7956689067855, "longitude": -95.5451280889549}, "transactions": ["delivery", "pickup"], "price": "$", "location": {"address1": "1411 Gessner Rd", "address2": "Ste I", "address3": "", "city": "Houston", "zip_code": "77080", "country": "US", "state": "TX", "display_address": ["1411 Gessner Rd", "Ste I", "Houston, TX 77080"]}, "phone": "+18326498955", "display_phone": "(832) 649-8955", "distance": 18236.127035748817}, {"id": "zDTH1L4tKGR5QSmIiFv-2w", "alias": "honey-pig-houston", "name": "Honey Pig", "image_url": "https://s3-media2.fl.yelpcdn.com/bphoto/CFrrd9eL4iNcGgwHMorx1w/o.jpg", "is_closed": false, "url": "https://www.yelp.com/biz/honey-pig-houston?adjust_creative=vyhy616UjsMTA_hrWyg_5w&utm_campaign=yelp_api_v3&utm_medium=api_v3_business_search&utm_source=vyhy616UjsMTA_hrWyg_5w", "review_count": 81, "categories": [{"alias": "korean", "title": "Korean"}, {"alias": "bbq", "title": "Barbeque"}, {"alias": "noodles", "title": "Noodles"}], "rating": 3.5, "coordinates": {"latitude": 29.706533, "longitude": -95.543989}, "transactions": [], "location": {"address1": "9140 Bellaire Blvd", "address2": "Ste B", "address3": "", "city": "Houston", "zip_code": "77036", "country": "US", "state": "TX", "display_address": ["9140 Bellaire Blvd", "Ste B", "Houston, TX 77036"]}, "phone": "+17138427993", "display_phone": "(713) 842-7993", "distance": 18846.30434301824}, {"id": "1k-rRegaTKg36-VwHTILxA", "alias": "singapore-cafe-sugar-land", "name": "Singapore Cafe", "image_url": "https://s3-media1.fl.yelpcdn.com/bphoto/irv1AlHeLmSbVcIzmwOwMg/o.jpg", "is_closed": false, "url": "https://www.yelp.com/biz/singapore-cafe-sugar-land?adjust_creative=vyhy616UjsMTA_hrWyg_5w&utm_campaign=yelp_api_v3&utm_medium=api_v3_business_search&utm_source=vyhy616UjsMTA_hrWyg_5w", "review_count": 265, "categories": [{"alias": "singaporean", "title": "Singaporean"}, {"alias": "malaysian", "title": "Malaysian"}, {"alias": "chinese", "title": "Chinese"}], "rating": 4.0, "coordinates": {"latitude": 29.593433, "longitude": -95.6065049}, "transactions": ["delivery", "pickup"], "price": "$$", "location": {"address1": "3149 Hwy 6", "address2": null, "address3": "", "city": "Sugar Land", "zip_code": "77478", "country": "US", "state": "TX", "display_address": ["3149 Hwy 6", "Sugar Land, TX 77478"]}, "phone": "+18325326277", "display_phone": "(832) 532-6277", "distance": 30380.09499656437}, {"id": "xeMboytLw4Oy2cfa4HNX-g", "alias": "kin-dee-houston", "name": "Kin Dee", "image_url": "https://s3-media4.fl.yelpcdn.com/bphoto/5G57XdKOnEQnEnOeiNzrJw/o.jpg", "is_closed": false, "url": "https://www.yelp.com/biz/kin-dee-houston?adjust_creative=vyhy616UjsMTA_hrWyg_5w&utm_campaign=yelp_api_v3&utm_medium=api_v3_business_search&utm_source=vyhy616UjsMTA_hrWyg_5w", "review_count": 276, "categories": [{"alias": "thai", "title": "Thai"}, {"alias": "noodles", "title": "Noodles"}, {"alias": "cocktailbars", "title": "Cocktail Bars"}], "rating": 4.5, "coordinates": {"latitude": 29.798875, "longitude": -95.410416}, "transactions": ["delivery", "pickup"], "location": {"address1": "1533 N Shepherd Dr", "address2": "Ste 160", "address3": "", "city": "Houston", "zip_code": "77008", "country": "US", "state": "TX", "display_address": ["1533 N Shepherd Dr", "Ste 160", "Houston, TX 77008"]}, "phone": "+12818262655", "display_phone": "(281) 826-2655", "distance": 6294.61026259031}, {"id": "_nV5h8XHBhWaS-6y3sd9kQ", "alias": "trendy-dumpling-houston", "name": "Trendy Dumpling", "image_url": "https://s3-media1.fl.yelpcdn.com/bphoto/rNdYWgms_NIo1HO8m1rnyA/o.jpg", "is_closed": false, "url": "https://www.yelp.com/biz/trendy-dumpling-houston?adjust_creative=vyhy616UjsMTA_hrWyg_5w&utm_campaign=yelp_api_v3&utm_medium=api_v3_business_search&utm_source=vyhy616UjsMTA_hrWyg_5w", "review_count": 411, "categories": [{"alias": "noodles", "title": "Noodles"}, {"alias": "szechuan", "title": "Szechuan"}, {"alias": "asianfusion", "title": "Asian Fusion"}], "rating": 4.0, "coordinates": {"latitude": 29.72860707559364, "longitude": -95.43209886108463}, "transactions": ["delivery", "pickup"], "price": "$$", "location": {"address1": "3285 Sw Fwy", "address2": null, "address3": "", "city": "Houston", "zip_code": "77027", "country": "US", "state": "TX", "display_address": ["3285 Sw Fwy", "Houston, TX 77027"]}, "phone": "+17137509398", "display_phone": "(713) 750-9398", "distance": 7947.243806967962}, {"id": "daFrZPBjXIF_F4hmIWdfPA", "alias": "jins-cafe-houston", "name": "Jin's Cafe", "image_url": "https://s3-media4.fl.yelpcdn.com/bphoto/MRUcLcOBD6LAKczpl310PQ/o.jpg", "is_closed": false, "url": "https://www.yelp.com/biz/jins-cafe-houston?adjust_creative=vyhy616UjsMTA_hrWyg_5w&utm_campaign=yelp_api_v3&utm_medium=api_v3_business_search&utm_source=vyhy616UjsMTA_hrWyg_5w", "review_count": 199, "categories": [{"alias": "asianfusion", "title": "Asian Fusion"}, {"alias": "szechuan", "title": "Szechuan"}, {"alias": "noodles", "title": "Noodles"}], "rating": 4.5, "coordinates": {"latitude": 29.7371645, "longitude": -95.5233235}, "transactions": ["delivery", "pickup", "restaurant_reservation"], "price": "$$", "location": {"address1": "9013 Westheimer Rd", "address2": null, "address3": "", "city": "Houston", "zip_code": "77063", "country": "US", "state": "TX", "display_address": ["9013 Westheimer Rd", "Houston, TX 77063"]}, "phone": "+18322521888", "display_phone": "(832) 252-1888", "distance": 16034.346988823554}, {"id": "ZdXWrc7G2DtQjHUn6L5TmA", "alias": "gyu-kaku-japanese-bbq-houston", "name": "Gyu-Kaku Japanese BBQ", "image_url": "https://s3-media2.fl.yelpcdn.com/bphoto/A1kZIVWlqE50jSW4TpjuDA/o.jpg", "is_closed": false, "url": "https://www.yelp.com/biz/gyu-kaku-japanese-bbq-houston?adjust_creative=vyhy616UjsMTA_hrWyg_5w&utm_campaign=yelp_api_v3&utm_medium=api_v3_business_search&utm_source=vyhy616UjsMTA_hrWyg_5w", "review_count": 1437, "categories": [{"alias": "japanese", "title": "Japanese"}, {"alias": "bbq", "title": "Barbeque"}, {"alias": "asianfusion", "title": "Asian Fusion"}], "rating": 4.0, "coordinates": {"latitude": 29.7505917766388, "longitude": -95.3753622367706}, "transactions": ["delivery", "pickup"], "price": "$$", "location": {"address1": "510 Gray St", "address2": "Ste A", "address3": "", "city": "Houston", "zip_code": "77002", "country": "US", "state": "TX", "display_address": ["510 Gray St", "Ste A", "Houston, TX 77002"]}, "phone": "+17137509520", "display_phone": "(713) 750-9520", "distance": 2030.678151638288}, {"id": "T3SLQcaVpRv4ea0Sa1OWNA", "alias": "izakaya-houston", "name": "Izakaya", "image_url": "https://s3-media2.fl.yelpcdn.com/bphoto/_YlKyWgsakAfLbH-2rAm_Q/o.jpg", "is_closed": false, "url": "https://www.yelp.com/biz/izakaya-houston?adjust_creative=vyhy616UjsMTA_hrWyg_5w&utm_campaign=yelp_api_v3&utm_medium=api_v3_business_search&utm_source=vyhy616UjsMTA_hrWyg_5w", "review_count": 625, "categories": [{"alias": "poke", "title": "Poke"}, {"alias": "izakaya", "title": "Izakaya"}, {"alias": "ramen", "title": "Ramen"}], "rating": 4.0, "coordinates": {"latitude": 29.7520078, "longitude": -95.3768782}, "transactions": ["delivery", "pickup"], "price": "$$", "location": {"address1": "318 Gray St", "address2": "", "address3": "", "city": "Houston", "zip_code": "77002", "country": "US", "state": "TX", "display_address": ["318 Gray St", "Houston, TX 77002"]}, "phone": "+17135278988", "display_phone": "(713) 527-8988", "distance": 2041.9948209697852}, {"id": "NxpXKtsCNLyDxoCHtYv5NQ", "alias": "house-of-bowls-houston", "name": "House of Bowls", "image_url": "https://s3-media1.fl.yelpcdn.com/bphoto/RlK_pHOeAkkVeAzVf4OhyQ/o.jpg", "is_closed": false, "url": "https://www.yelp.com/biz/house-of-bowls-houston?adjust_creative=vyhy616UjsMTA_hrWyg_5w&utm_campaign=yelp_api_v3&utm_medium=api_v3_business_search&utm_source=vyhy616UjsMTA_hrWyg_5w", "review_count": 779, "categories": [{"alias": "chinese", "title": "Chinese"}, {"alias": "hkcafe", "title": "Hong Kong Style Cafe"}, {"alias": "noodles", "title": "Noodles"}], "rating": 4.0, "coordinates": {"latitude": 29.7062330963194, "longitude": -95.5519842356443}, "transactions": ["delivery"], "price": "$", "location": {"address1": "6650 Corporate Dr", "address2": "Ste F", "address3": "", "city": "Houston", "zip_code": "77036", "country": "US", "state": "TX", "display_address": ["6650 Corporate Dr", "Ste F", "Houston, TX 77036"]}, "phone": "+17137762288", "display_phone": "(713) 776-2288", "distance": 19587.136284257165}, {"id": "3T6zeMh2qbLj2l_rjNDX6w", "alias": "vit-nuong-nha-trang-houston", "name": "Vit Nuong Nha Trang", "image_url": "https://s3-media3.fl.yelpcdn.com/bphoto/LozvSG6dLX3yFX7xoJQwBg/o.jpg", "is_closed": false, "url": "https://www.yelp.com/biz/vit-nuong-nha-trang-houston?adjust_creative=vyhy616UjsMTA_hrWyg_5w&utm_campaign=yelp_api_v3&utm_medium=api_v3_business_search&utm_source=vyhy616UjsMTA_hrWyg_5w", "review_count": 28, "categories": [{"alias": "vietnamese", "title": "Vietnamese"}], "rating": 4.5, "coordinates": {"latitude": 29.7031380338594, "longitude": -95.6157196186628}, "transactions": ["delivery", "pickup"], "location": {"address1": "13241 Bellaire Blvd", "address2": "", "address3": null, "city": "Houston", "zip_code": "77083", "country": "US", "state": "TX", "display_address": ["13241 Bellaire Blvd", "Houston, TX 77083"]}, "phone": "+18322301517", "display_phone": "(832) 230-1517", "distance": 25577.565848783208}, {"id": "GWwNA6g9d_ncOMouSgfSdA", "alias": "teriyaki-kitchen-houston", "name": "Teriyaki Kitchen", "image_url": "https://s3-media3.fl.yelpcdn.com/bphoto/CcSvtp2X15UNAAN-7w-_kA/o.jpg", "is_closed": false, "url": "https://www.yelp.com/biz/teriyaki-kitchen-houston?adjust_creative=vyhy616UjsMTA_hrWyg_5w&utm_campaign=yelp_api_v3&utm_medium=api_v3_business_search&utm_source=vyhy616UjsMTA_hrWyg_5w", "review_count": 176, "categories": [{"alias": "japanese", "title": "Japanese"}, {"alias": "korean", "title": "Korean"}, {"alias": "asianfusion", "title": "Asian Fusion"}], "rating": 4.5, "coordinates": {"latitude": 29.8202682331011, "longitude": -95.5456522107124}, "transactions": ["delivery", "pickup"], "price": "$", "location": {"address1": "2659 Gessner Rd", "address2": "", "address3": null, "city": "Houston", "zip_code": "77080", "country": "US", "state": "TX", "display_address": ["2659 Gessner Rd", "Houston, TX 77080"]}, "phone": "+17132390654", "display_phone": "(713) 239-0654", "distance": 19016.49147528591}, {"id": "q8ErWdf8vwRA3y5w3HvA6Q", "alias": "ginger-and-fork-houston", "name": "Ginger & Fork", "image_url": "https://s3-media4.fl.yelpcdn.com/bphoto/HDAglv25SH8t-3jBDvSYKw/o.jpg", "is_closed": false, "url": "https://www.yelp.com/biz/ginger-and-fork-houston?adjust_creative=vyhy616UjsMTA_hrWyg_5w&utm_campaign=yelp_api_v3&utm_medium=api_v3_business_search&utm_source=vyhy616UjsMTA_hrWyg_5w", "review_count": 261, "categories": [{"alias": "chinese", "title": "Chinese"}, {"alias": "cocktailbars", "title": "Cocktail Bars"}], "rating": 4.0, "coordinates": {"latitude": 29.775371, "longitude": -95.408767}, "transactions": ["delivery"], "price": "$$", "location": {"address1": "4705 Inker St", "address2": "", "address3": "", "city": "Houston", "zip_code": "77007", "country": "US", "state": "TX", "display_address": ["4705 Inker St", "Houston, TX 77007"]}, "phone": "+17138618883", "display_phone": "(713) 861-8883", "distance": 4907.77304894663}, {"id": "kGbr_y_XxapZPnycxCV4Pg", "alias": "ambrosia-houston", "name": "Ambrosia", "image_url": "https://s3-media4.fl.yelpcdn.com/bphoto/5rYmD56X6bU0FEUs7tYynw/o.jpg", "is_closed": false, "url": "https://www.yelp.com/biz/ambrosia-houston?adjust_creative=vyhy616UjsMTA_hrWyg_5w&utm_campaign=yelp_api_v3&utm_medium=api_v3_business_search&utm_source=vyhy616UjsMTA_hrWyg_5w", "review_count": 954, "categories": [{"alias": "tapasmallplates", "title": "Tapas/Small Plates"}, {"alias": "asianfusion", "title": "Asian Fusion"}, {"alias": "wine_bars", "title": "Wine Bars"}], "rating": 4.0, "coordinates": {"latitude": 29.73192, "longitude": -95.409729}, "transactions": ["delivery", "restaurant_reservation"], "price": "$$", "location": {"address1": "2003 Lexington St", "address2": "", "address3": "", "city": "Houston", "zip_code": "77098", "country": "US", "state": "TX", "display_address": ["2003 Lexington St", "Houston, TX 77098"]}, "phone": "+17133937211", "display_phone": "(713) 393-7211", "distance": 5920.636004727007}, {"id": "zqERJOhGitMgPSfN373MhA", "alias": "songkran-thai-kitchen-houston", "name": "Songkran Thai Kitchen", "image_url": "https://s3-media3.fl.yelpcdn.com/bphoto/D81rDHpXxNYkWLP4s3laiA/o.jpg", "is_closed": false, "url": "https://www.yelp.com/biz/songkran-thai-kitchen-houston?adjust_creative=vyhy616UjsMTA_hrWyg_5w&utm_campaign=yelp_api_v3&utm_medium=api_v3_business_search&utm_source=vyhy616UjsMTA_hrWyg_5w", "review_count": 441, "categories": [{"alias": "thai", "title": "Thai"}, {"alias": "cocktailbars", "title": "Cocktail Bars"}], "rating": 4.0, "coordinates": {"latitude": 29.7565604, "longitude": -95.4573055}, "transactions": ["delivery", "pickup"], "price": "$$", "location": {"address1": "1101-08 Uptown Park Blvd", "address2": "Ste 8", "address3": "", "city": "Houston", "zip_code": "77056", "country": "US", "state": "TX", "display_address": ["1101-08 Uptown Park Blvd", "Ste 8", "Houston, TX 77056"]}, "phone": "+17139939096", "display_phone": "(713) 993-9096", "distance": 9424.695175003455}, {"id": "xVarAw9BNERls72RA2JK5w", "alias": "mala-sichuan-bistro-houston-3", "name": "Mala Sichuan Bistro", "image_url": "https://s3-media2.fl.yelpcdn.com/bphoto/FpmVzzZ1lfPxeG8aCNE3MQ/o.jpg", "is_closed": false, "url": "https://www.yelp.com/biz/mala-sichuan-bistro-houston-3?adjust_creative=vyhy616UjsMTA_hrWyg_5w&utm_campaign=yelp_api_v3&utm_medium=api_v3_business_search&utm_source=vyhy616UjsMTA_hrWyg_5w", "review_count": 856, "categories": [{"alias": "szechuan", "title": "Szechuan"}], "rating": 4.0, "coordinates": {"latitude": 29.70596629, "longitude": -95.5482545}, "transactions": ["delivery", "pickup"], "price": "$$", "location": {"address1": "9348 Bellaire Blvd", "address2": "", "address3": "", "city": "Houston", "zip_code": "77036", "country": "US", "state": "TX", "display_address": ["9348 Bellaire Blvd", "Houston, TX 77036"]}, "phone": "+17139951889", "display_phone": "(713) 995-1889", "distance": 19256.373328494392}, {"id": "Z1yxJHQXPrCS-9ydOsptBQ", "alias": "old-saigon-cafe-houston", "name": "Old Saigon Cafe", "image_url": "https://s3-media2.fl.yelpcdn.com/bphoto/SEfW7SJtUS3CvQFcYP8G1A/o.jpg", "is_closed": false, "url": "https://www.yelp.com/biz/old-saigon-cafe-houston?adjust_creative=vyhy616UjsMTA_hrWyg_5w&utm_campaign=yelp_api_v3&utm_medium=api_v3_business_search&utm_source=vyhy616UjsMTA_hrWyg_5w", "review_count": 494, "categories": [{"alias": "vietnamese", "title": "Vietnamese"}], "rating": 4.5, "coordinates": {"latitude": 29.73721, "longitude": -95.49688}, "transactions": ["delivery"], "price": "$$", "location": {"address1": "6383 Westheimer Rd", "address2": "Ste B", "address3": "", "city": "Houston", "zip_code": "77057", "country": "US", "state": "TX", "display_address": ["6383 Westheimer Rd", "Ste B", "Houston, TX 77057"]}, "phone": "+18326685270", "display_phone": "(832) 668-5270", "distance": 13552.908912944844}, {"id": "U8I_yBhRUQ3u02lMVPAKpA", "alias": "peking-cuisine-houston", "name": "Peking Cuisine", "image_url": "https://s3-media2.fl.yelpcdn.com/bphoto/ZIuv9rhRNblqeiKqdQe-dg/o.jpg", "is_closed": false, "url": "https://www.yelp.com/biz/peking-cuisine-houston?adjust_creative=vyhy616UjsMTA_hrWyg_5w&utm_campaign=yelp_api_v3&utm_medium=api_v3_business_search&utm_source=vyhy616UjsMTA_hrWyg_5w", "review_count": 377, "categories": [{"alias": "chinese", "title": "Chinese"}, {"alias": "soup", "title": "Soup"}], "rating": 4.0, "coordinates": {"latitude": 29.6887068, "longitude": -95.5307644}, "transactions": ["delivery", "pickup"], "price": "$$", "location": {"address1": "8332 Southwest Fwy", "address2": "", "address3": "", "city": "Houston", "zip_code": "77074", "country": "US", "state": "TX", "display_address": ["8332 Southwest Fwy", "Houston, TX 77074"]}, "phone": "+17139885838", "display_phone": "(713) 988-5838", "distance": 18470.915568927143}, {"id": "eTBC74L8oq-idHEE3KloaQ", "alias": "the-taongo-restaurant-houston", "name": "The TaoNgo Restaurant", "image_url": "https://s3-media1.fl.yelpcdn.com/bphoto/xXcG10pSYJbxQfqZsFFTYQ/o.jpg", "is_closed": false, "url": "https://www.yelp.com/biz/the-taongo-restaurant-houston?adjust_creative=vyhy616UjsMTA_hrWyg_5w&utm_campaign=yelp_api_v3&utm_medium=api_v3_business_search&utm_source=vyhy616UjsMTA_hrWyg_5w", "review_count": 84, "categories": [{"alias": "vietnamese", "title": "Vietnamese"}, {"alias": "seafood", "title": "Seafood"}, {"alias": "soup", "title": "Soup"}], "rating": 4.0, "coordinates": {"latitude": 29.94658, "longitude": -95.46567}, "transactions": [], "price": "$$", "location": {"address1": "3010 Gears Rd", "address2": "Ste Z", "address3": "", "city": "Houston", "zip_code": "77067", "country": "US", "state": "TX", "display_address": ["3010 Gears Rd", "Ste Z", "Houston, TX 77067"]}, "phone": "+12818938358", "display_phone": "(281) 893-8358", "distance": 22825.843177948165}, {"id": "oMnd6D1gcpF6zwLeFXRw7Q", "alias": "chongqing-chicken-pot-houston", "name": "Chongqing Chicken Pot", "image_url": "https://s3-media2.fl.yelpcdn.com/bphoto/8S9m4BRRI4j5DAlenECHlw/o.jpg", "is_closed": false, "url": "https://www.yelp.com/biz/chongqing-chicken-pot-houston?adjust_creative=vyhy616UjsMTA_hrWyg_5w&utm_campaign=yelp_api_v3&utm_medium=api_v3_business_search&utm_source=vyhy616UjsMTA_hrWyg_5w", "review_count": 143, "categories": [{"alias": "hotpot", "title": "Hot Pot"}, {"alias": "chinese", "title": "Chinese"}], "rating": 4.5, "coordinates": {"latitude": 29.7045, "longitude": -95.54913}, "transactions": ["delivery"], "price": "$$", "location": {"address1": "9393 Bellaire Blvd", "address2": "Ste E", "address3": null, "city": "Houston", "zip_code": "77036", "country": "US", "state": "TX", "display_address": ["9393 Bellaire Blvd", "Ste E", "Houston, TX 77036"]}, "phone": "", "display_phone": "", "distance": 19377.143712886595}, {"id": "dr7yEDEGplGnrM2UQ0ANUQ", "alias": "raki-sugar-land", "name": "Raki", "image_url": "https://s3-media4.fl.yelpcdn.com/bphoto/ekK1GO2TDXBpTPJsw-d7XA/o.jpg", "is_closed": false, "url": "https://www.yelp.com/biz/raki-sugar-land?adjust_creative=vyhy616UjsMTA_hrWyg_5w&utm_campaign=yelp_api_v3&utm_medium=api_v3_business_search&utm_source=vyhy616UjsMTA_hrWyg_5w", "review_count": 101, "categories": [{"alias": "japanese", "title": "Japanese"}, {"alias": "indonesian", "title": "Indonesian"}, {"alias": "chinese", "title": "Chinese"}], "rating": 4.5, "coordinates": {"latitude": 29.5620583, "longitude": -95.5628291}, "transactions": ["delivery", "pickup"], "price": "$$", "location": {"address1": "6302 Hwy 6", "address2": "", "address3": null, "city": "Sugar Land", "zip_code": "77459", "country": "US", "state": "TX", "display_address": ["6302 Hwy 6", "Sugar Land, TX 77459"]}, "phone": "+12812612288", "display_phone": "(281) 261-2288", "distance": 29725.743579915368}, {"id": "l8_Y2DS9Kfcvbj1xkWgBhQ", "alias": "the-monks-houston-3", "name": "The Monk's", "image_url": "https://s3-media1.fl.yelpcdn.com/bphoto/eelkYi6UItJb883Qp6IWcQ/o.jpg", "is_closed": false, "url": "https://www.yelp.com/biz/the-monks-houston-3?adjust_creative=vyhy616UjsMTA_hrWyg_5w&utm_campaign=yelp_api_v3&utm_medium=api_v3_business_search&utm_source=vyhy616UjsMTA_hrWyg_5w", "review_count": 16, "categories": [{"alias": "indpak", "title": "Indian"}, {"alias": "chinese", "title": "Chinese"}, {"alias": "asianfusion", "title": "Asian Fusion"}], "rating": 4.5, "coordinates": {"latitude": 29.771722, "longitude": -95.396695}, "transactions": ["delivery", "pickup"], "location": {"address1": "126 Heights Blvd", "address2": "Ste 110", "address3": null, "city": "Houston", "zip_code": "77007", "country": "US", "state": "TX", "display_address": ["126 Heights Blvd", "Ste 110", "Houston, TX 77007"]}, "phone": "+17138691916", "display_phone": "(713) 869-1916", "distance": 3675.168046930967}, {"id": "VE8Rbq9_5ba7D06RSGm0pg", "alias": "pho-binh-houston-17", "name": "Pho Binh", "image_url": "https://s3-media4.fl.yelpcdn.com/bphoto/MuxMmFBWZuZ-7yXTIoJNnw/o.jpg", "is_closed": false, "url": "https://www.yelp.com/biz/pho-binh-houston-17?adjust_creative=vyhy616UjsMTA_hrWyg_5w&utm_campaign=yelp_api_v3&utm_medium=api_v3_business_search&utm_source=vyhy616UjsMTA_hrWyg_5w", "review_count": 434, "categories": [{"alias": "vietnamese", "title": "Vietnamese"}], "rating": 4.0, "coordinates": {"latitude": 29.781788, "longitude": -95.390205}, "transactions": ["delivery", "pickup"], "price": "$$", "location": {"address1": "2916 White Oak Dr", "address2": "", "address3": "", "city": "Houston", "zip_code": "77007", "country": "US", "state": "TX", "display_address": ["2916 White Oak Dr", "Houston, TX 77007"]}, "phone": "+18328308900", "display_phone": "(832) 830-8900", "distance": 3588.4578142975383}, {"id": "qYWysw36GGZDvpvnSWQ30A", "alias": "nam-giao-houston", "name": "Nam Giao", "image_url": "https://s3-media2.fl.yelpcdn.com/bphoto/nTICq7HeP0XjVVq7XvfFOQ/o.jpg", "is_closed": false, "url": "https://www.yelp.com/biz/nam-giao-houston?adjust_creative=vyhy616UjsMTA_hrWyg_5w&utm_campaign=yelp_api_v3&utm_medium=api_v3_business_search&utm_source=vyhy616UjsMTA_hrWyg_5w", "review_count": 327, "categories": [{"alias": "vietnamese", "title": "Vietnamese"}], "rating": 4.0, "coordinates": {"latitude": 29.7019030164538, "longitude": -95.5717554686716}, "transactions": ["delivery"], "price": "$", "location": {"address1": "6938 Wilcrest Dr", "address2": "Ste C", "address3": "", "city": "Houston", "zip_code": "77072", "country": "US", "state": "TX", "display_address": ["6938 Wilcrest Dr", "Ste C", "Houston, TX 77072"]}, "phone": "+12815684888", "display_phone": "(281) 568-4888", "distance": 21550.432584859933}, {"id": "wbWv4S9Pj7pByINQN8VOsQ", "alias": "les-noodle-houston-2", "name": "LES NOO'DLE", "image_url": "https://s3-media1.fl.yelpcdn.com/bphoto/dFI-x8vnoYlKVDpVr3Y2LQ/o.jpg", "is_closed": false, "url": "https://www.yelp.com/biz/les-noodle-houston-2?adjust_creative=vyhy616UjsMTA_hrWyg_5w&utm_campaign=yelp_api_v3&utm_medium=api_v3_business_search&utm_source=vyhy616UjsMTA_hrWyg_5w", "review_count": 391, "categories": [{"alias": "vietnamese", "title": "Vietnamese"}, {"alias": "noodles", "title": "Noodles"}, {"alias": "soup", "title": "Soup"}], "rating": 4.5, "coordinates": {"latitude": 29.752078, "longitude": -95.3918897}, "transactions": ["delivery"], "price": "$$", "location": {"address1": "1717 Montrose Blvd", "address2": null, "address3": "", "city": "Houston", "zip_code": "77006", "country": "US", "state": "TX", "display_address": ["1717 Montrose Blvd", "Houston, TX 77006"]}, "phone": "+18325826122", "display_phone": "(832) 582-6122", "distance": 3314.3820348327445}], "total": 1600, "region": {"center": {"longitude": -95.35995483398438, "latitude": 29.763025675716687}}}