{"businesses": [{"id": "EbSDWVZ7wxaIzRnKaN4yjw", "alias": "pho-hong-burlington", "name": "Pho Hong", "image_url": "https://s3-media3.fl.yelpcdn.com/bphoto/UlS1gcHB7tNYwR5K7cuv1g/o.jpg", "is_closed": false, "url": "https://www.yelp.com/biz/pho-hong-burlington?adjust_creative=vyhy616UjsMTA_hrWyg_5w&utm_campaign=yelp_api_v3&utm_medium=api_v3_business_search&utm_source=vyhy616UjsMTA_hrWyg_5w", "review_count": 377, "categories": [{"alias": "vietnamese", "title": "Vietnamese"}], "rating": 4.5, "coordinates": {"latitude": 44.488785, "longitude": -73.2070865}, "transactions": ["delivery"], "price": "$", "location": {"address1": "325 N Winooski Ave", "address2": "", "address3": "", "city": "Burlington", "zip_code": "05401", "country": "US", "state": "VT", "display_address": ["325 N Winooski Ave", "Burlington, VT 05401"]}, "phone": "+18028658031", "display_phone": "(802) 865-8031", "distance": 1494.2491055468533}, {"id": "cJXoAMcPqlsuqoV9Nd8qWA", "alias": "bangkok-bistro-in-the-alley-burlington", "name": "Bangkok Bistro in the Alley", "image_url": "https://s3-media2.fl.yelpcdn.com/bphoto/MYwZKXH3zvTHWa609O-1og/o.jpg", "is_closed": false, "url": "https://www.yelp.com/biz/bangkok-bistro-in-the-alley-burlington?adjust_creative=vyhy616UjsMTA_hrWyg_5w&utm_campaign=yelp_api_v3&utm_medium=api_v3_business_search&utm_source=vyhy616UjsMTA_hrWyg_5w", "review_count": 88, "categories": [{"alias": "thai", "title": "Thai"}], "rating": 4.0, "coordinates": {"latitude": 44.4768, "longitude": -73.211651}, "transactions": ["pickup", "delivery"], "price": "$$", "location": {"address1": "36 Mechanics Ln", "address2": null, "address3": null, "city": "Burlington", "zip_code": "05401", "country": "US", "state": "VT", "display_address": ["36 Mechanics Ln", "Burlington, VT 05401"]}, "phone": "+18024895333", "display_phone": "(802) 489-5333", "distance": 98.49180884286018}, {"id": "JKkV87SXKPNKTQAqob1vpw", "alias": "asiana-noodle-shop-burlington", "name": "Asiana Noodle Shop", "image_url": "https://s3-media1.fl.yelpcdn.com/bphoto/ol3BQRExBHTjzD8XX-y9IQ/o.jpg", "is_closed": false, "url": "https://www.yelp.com/biz/asiana-noodle-shop-burlington?adjust_creative=vyhy616UjsMTA_hrWyg_5w&utm_campaign=yelp_api_v3&utm_medium=api_v3_business_search&utm_source=vyhy616UjsMTA_hrWyg_5w", "review_count": 177, "categories": [{"alias": "noodles", "title": "Noodles"}, {"alias": "sushi", "title": "Sushi Bars"}, {"alias": "korean", "title": "Korean"}], "rating": 3.5, "coordinates": {"latitude": 44.47796, "longitude": -73.21235}, "transactions": ["pickup", "delivery"], "price": "$$", "location": {"address1": "88 Church St", "address2": "", "address3": "", "city": "Burlington", "zip_code": "05401", "country": "US", "state": "VT", "display_address": ["88 Church St", "Burlington, VT 05401"]}, "phone": "+18028628828", "display_phone": "(802) 862-8828", "distance": 236.7903416720197}, {"id": "xhipNHe_qjgFjA33AnQSYw", "alias": "a-single-pebble-burlington", "name": "A Single Pebble", "image_url": "https://s3-media3.fl.yelpcdn.com/bphoto/e6qCJ1uHFjztIbvC9KPCUQ/o.jpg", "is_closed": false, "url": "https://www.yelp.com/biz/a-single-pebble-burlington?adjust_creative=vyhy616UjsMTA_hrWyg_5w&utm_campaign=yelp_api_v3&utm_medium=api_v3_business_search&utm_source=vyhy616UjsMTA_hrWyg_5w", "review_count": 317, "categories": [{"alias": "chinese", "title": "Chinese"}, {"alias": "seafood", "title": "Seafood"}, {"alias": "noodles", "title": "Noodles"}], "rating": 3.5, "coordinates": {"latitude": 44.47795, "longitude": -73.21454}, "transactions": ["pickup", "delivery"], "price": "$$", "location": {"address1": "133 Bank St", "address2": "", "address3": "", "city": "Burlington", "zip_code": "05401", "country": "US", "state": "VT", "display_address": ["133 Bank St", "Burlington, VT 05401"]}, "phone": "+18028655200", "display_phone": "(802) 865-5200", "distance": 331.7282827279179}, {"id": "Qj9RWVdaVT6ryhLCD4JMig", "alias": "revolution-kitchen-burlington", "name": "Revolution Kitchen", "image_url": "https://s3-media2.fl.yelpcdn.com/bphoto/utQsS5krGbUb-V3jaR3CuA/o.jpg", "is_closed": false, "url": "https://www.yelp.com/biz/revolution-kitchen-burlington?adjust_creative=vyhy616UjsMTA_hrWyg_5w&utm_campaign=yelp_api_v3&utm_medium=api_v3_business_search&utm_source=vyhy616UjsMTA_hrWyg_5w", "review_count": 268, "categories": [{"alias": "vegetarian", "title": "Vegetarian"}, {"alias": "gluten_free", "title": "Gluten-Free"}, {"alias": "vegan", "title": "Vegan"}], "rating": 4.5, "coordinates": {"latitude": 44.47788, "longitude": -73.21172}, "transactions": ["delivery"], "price": "$$", "location": {"address1": "9 Center St", "address2": "", "address3": "", "city": "Burlington", "zip_code": "05401", "country": "US", "state": "VT", "display_address": ["9 Center St", "Burlington, VT 05401"]}, "phone": "+18024483657", "display_phone": "(802) 448-3657", "distance": 223.7770602738458}, {"id": "wZExtgdtnn6xbePFzTdkhw", "alias": "sherpa-kitchen-burlington", "name": "Sherpa Kitchen", "image_url": "https://s3-media2.fl.yelpcdn.com/bphoto/cYqpyN0CxedpGhAhdHVrnA/o.jpg", "is_closed": false, "url": "https://www.yelp.com/biz/sherpa-kitchen-burlington?adjust_creative=vyhy616UjsMTA_hrWyg_5w&utm_campaign=yelp_api_v3&utm_medium=api_v3_business_search&utm_source=vyhy616UjsMTA_hrWyg_5w", "review_count": 170, "categories": [{"alias": "himalayan", "title": "Himalayan/Nepalese"}], "rating": 4.0, "coordinates": {"latitude": 44.47682, "longitude": -73.21508}, "transactions": ["pickup", "delivery"], "price": "$$", "location": {"address1": "119 College St", "address2": "", "address3": "", "city": "Burlington", "zip_code": "05401", "country": "US", "state": "VT", "display_address": ["119 College St", "Burlington, VT 05401"]}, "phone": "+18028810550", "display_phone": "(802) 881-0550", "distance": 300.3312591490964}, {"id": "jh2-w7CAQYQ5Z6YYsR0OGw", "alias": "hongs-chinese-dumplings-burlington", "name": "Hong's Chinese Dumplings", "image_url": "https://s3-media1.fl.yelpcdn.com/bphoto/XNAZUVIWio9LVqqgA2d4zg/o.jpg", "is_closed": false, "url": "https://www.yelp.com/biz/hongs-chinese-dumplings-burlington?adjust_creative=vyhy616UjsMTA_hrWyg_5w&utm_campaign=yelp_api_v3&utm_medium=api_v3_business_search&utm_source=vyhy616UjsMTA_hrWyg_5w", "review_count": 98, "categories": [{"alias": "foodstands", "title": "Food Stands"}, {"alias": "chinese", "title": "Chinese"}], "rating": 4.5, "coordinates": {"latitude": 44.48027, "longitude": -73.21572}, "transactions": [], "price": "$", "location": {"address1": "77 Pearl St", "address2": "", "address3": "", "city": "Burlington", "zip_code": "05401", "country": "US", "state": "VT", "display_address": ["77 Pearl St", "Burlington, VT 05401"]}, "phone": "+18026606688", "display_phone": "(802) 660-6688", "distance": 585.3208277851089}, {"id": "Y8p09OpyiBlNWD8hZwQSBw", "alias": "gaku-ramen-burlington", "name": "Gaku Ramen", "image_url": "https://s3-media1.fl.yelpcdn.com/bphoto/NU3K959cgkR5xu3zdz3LDg/o.jpg", "is_closed": false, "url": "https://www.yelp.com/biz/gaku-ramen-burlington?adjust_creative=vyhy616UjsMTA_hrWyg_5w&utm_campaign=yelp_api_v3&utm_medium=api_v3_business_search&utm_source=vyhy616UjsMTA_hrWyg_5w", "review_count": 257, "categories": [{"alias": "ramen", "title": "Ramen"}], "rating": 3.5, "coordinates": {"latitude": 44.476353729174, "longitude": -73.2123897335346}, "transactions": ["pickup", "delivery"], "price": "$$", "location": {"address1": "144 Church St", "address2": "", "address3": null, "city": "Burlington", "zip_code": "05401", "country": "US", "state": "VT", "display_address": ["144 Church St", "Burlington, VT 05401"]}, "phone": "+18024973050", "display_phone": "(802) 497-3050", "distance": 84.40180831517138}, {"id": "ivO62Tcm76gy3jqyjKTJAA", "alias": "bento-burlington", "name": "Bento", "image_url": "https://s3-media2.fl.yelpcdn.com/bphoto/gjFZKTSAwFAh3zn7_7j-lw/o.jpg", "is_closed": false, "url": "https://www.yelp.com/biz/bento-burlington?adjust_creative=vyhy616UjsMTA_hrWyg_5w&utm_campaign=yelp_api_v3&utm_medium=api_v3_business_search&utm_source=vyhy616UjsMTA_hrWyg_5w", "review_count": 57, "categories": [{"alias": "japanese", "title": "Japanese"}, {"alias": "sushi", "title": "Sushi Bars"}], "rating": 4.5, "coordinates": {"latitude": 44.47698, "longitude": -73.21198}, "transactions": [], "price": "$$", "location": {"address1": "197 College St", "address2": "", "address3": "", "city": "Burlington", "zip_code": "05401", "country": "US", "state": "VT", "display_address": ["197 College St", "Burlington, VT 05401"]}, "phone": "+18024972494", "display_phone": "(802) 497-2494", "distance": 117.96503827104544}, {"id": "GBDLxji-v2UjtlA3xse-Yw", "alias": "asiana-house-burlington", "name": "Asiana House", "image_url": "https://s3-media2.fl.yelpcdn.com/bphoto/Jbq5lGpgB3UGYsLEhT6Q1g/o.jpg", "is_closed": false, "url": "https://www.yelp.com/biz/asiana-house-burlington?adjust_creative=vyhy616UjsMTA_hrWyg_5w&utm_campaign=yelp_api_v3&utm_medium=api_v3_business_search&utm_source=vyhy616UjsMTA_hrWyg_5w", "review_count": 109, "categories": [{"alias": "sushi", "title": "Sushi Bars"}, {"alias": "asianfusion", "title": "Asian Fusion"}, {"alias": "salad", "title": "Salad"}], "rating": 3.5, "coordinates": {"latitude": 44.4804433733225, "longitude": -73.2117922604084}, "transactions": ["pickup", "delivery"], "price": "$$", "location": {"address1": "191 Pearl St", "address2": "", "address3": "", "city": "Burlington", "zip_code": "05401", "country": "US", "state": "VT", "display_address": ["191 Pearl St", "Burlington, VT 05401"]}, "phone": "+18026510818", "display_phone": "(802) 651-0818", "distance": 476.5992150990862}, {"id": "LNlixEohVYiCVZz43pkeiQ", "alias": "zen-gardens-south-burlington", "name": "Zen Gardens", "image_url": "https://s3-media3.fl.yelpcdn.com/bphoto/nmiH6hSBi0E3XPKmv5W0oQ/o.jpg", "is_closed": false, "url": "https://www.yelp.com/biz/zen-gardens-south-burlington?adjust_creative=vyhy616UjsMTA_hrWyg_5w&utm_campaign=yelp_api_v3&utm_medium=api_v3_business_search&utm_source=vyhy616UjsMTA_hrWyg_5w", "review_count": 104, "categories": [{"alias": "chinese", "title": "Chinese"}], "rating": 4.0, "coordinates": {"latitude": 44.43786, "longitude": -73.21193}, "transactions": ["delivery"], "price": "$$", "location": {"address1": "7 Fayette Dr", "address2": "Ste 2", "address3": null, "city": "South Burlington", "zip_code": "05403", "country": "US", "state": "VT", "display_address": ["7 Fayette Dr", "Ste 2", "South Burlington, VT 05403"]}, "phone": "+18028628886", "display_phone": "(802) 862-8886", "distance": 4196.259984229865}, {"id": "0x-e_0ic_r5qQItvG7sm4A", "alias": "pho-dang-winooski", "name": "Pho Dang", "image_url": "https://s3-media2.fl.yelpcdn.com/bphoto/ZyXnHwuF9GFC-9y44FLXDw/o.jpg", "is_closed": false, "url": "https://www.yelp.com/biz/pho-dang-winooski?adjust_creative=vyhy616UjsMTA_hrWyg_5w&utm_campaign=yelp_api_v3&utm_medium=api_v3_business_search&utm_source=vyhy616UjsMTA_hrWyg_5w", "review_count": 163, "categories": [{"alias": "vietnamese", "title": "Vietnamese"}], "rating": 4.0, "coordinates": {"latitude": 44.499115, "longitude": -73.184105}, "transactions": ["delivery"], "price": "$", "location": {"address1": "215 Main St", "address2": null, "address3": "", "city": "Winooski", "zip_code": "05404", "country": "US", "state": "VT", "display_address": ["215 Main St", "Winooski, VT 05404"]}, "phone": "+18026550707", "display_phone": "(802) 655-0707", "distance": 3373.5762283463655}, {"id": "5-HcFmPhgeXC_RFYZjIdXA", "alias": "viet-thai-restaurant-essex", "name": "Viet Thai Restaurant", "image_url": "https://s3-media2.fl.yelpcdn.com/bphoto/L1pmU3wHV5fyoblE81iimQ/o.jpg", "is_closed": false, "url": "https://www.yelp.com/biz/viet-thai-restaurant-essex?adjust_creative=vyhy616UjsMTA_hrWyg_5w&utm_campaign=yelp_api_v3&utm_medium=api_v3_business_search&utm_source=vyhy616UjsMTA_hrWyg_5w", "review_count": 42, "categories": [{"alias": "vietnamese", "title": "Vietnamese"}, {"alias": "thai", "title": "Thai"}, {"alias": "asianfusion", "title": "Asian Fusion"}], "rating": 4.5, "coordinates": {"latitude": 44.4956690169134, "longitude": -73.1234798580408}, "transactions": [], "price": "$", "location": {"address1": "118 Pearl St", "address2": "", "address3": "", "city": "Essex", "zip_code": "05452", "country": "US", "state": "VT", "display_address": ["118 Pearl St", "Essex, VT 05452"]}, "phone": "+18022881688", "display_phone": "(802) 288-1688", "distance": 7321.061490121287}, {"id": "f7_2GlW0T5p-Xhq3jx0NtA", "alias": "tiny-thai-restaurant-winooski", "name": "Tiny Thai Restaurant", "image_url": "https://s3-media1.fl.yelpcdn.com/bphoto/8mLR4deEq3ljdjaZo49pKQ/o.jpg", "is_closed": false, "url": "https://www.yelp.com/biz/tiny-thai-restaurant-winooski?adjust_creative=vyhy616UjsMTA_hrWyg_5w&utm_campaign=yelp_api_v3&utm_medium=api_v3_business_search&utm_source=vyhy616UjsMTA_hrWyg_5w", "review_count": 224, "categories": [{"alias": "thai", "title": "Thai"}], "rating": 4.0, "coordinates": {"latitude": 44.49033, "longitude": -73.18671}, "transactions": ["delivery"], "price": "$$", "location": {"address1": "24 Main St", "address2": "", "address3": "", "city": "Winooski", "zip_code": "05404", "country": "US", "state": "VT", "display_address": ["24 Main St", "Winooski, VT 05404"]}, "phone": "+18026554888", "display_phone": "(802) 655-4888", "distance": 2536.5083827494173}, {"id": "MRyGijubVptgBktJyulcXw", "alias": "east-west-cafe-burlington-4", "name": "East West Cafe", "image_url": "https://s3-media2.fl.yelpcdn.com/bphoto/u3K6e6BczmR88JIsqqoEhg/o.jpg", "is_closed": false, "url": "https://www.yelp.com/biz/east-west-cafe-burlington-4?adjust_creative=vyhy616UjsMTA_hrWyg_5w&utm_campaign=yelp_api_v3&utm_medium=api_v3_business_search&utm_source=vyhy616UjsMTA_hrWyg_5w", "review_count": 95, "categories": [{"alias": "thai", "title": "Thai"}, {"alias": "vegetarian", "title": "Vegetarian"}], "rating": 3.5, "coordinates": {"latitude": 44.48064, "longitude": -73.21101}, "transactions": ["pickup", "delivery"], "price": "$$", "location": {"address1": "2 N Winooski Ave", "address2": "", "address3": "", "city": "Burlington", "zip_code": "05401", "country": "US", "state": "VT", "display_address": ["2 N Winooski Ave", "Burlington, VT 05401"]}, "phone": "+18025408145", "display_phone": "(802) 540-8145", "distance": 522.6362108085345}, {"id": "uT4cHCvLmwvG39wxeo5-vw", "alias": "butch-babes-burlington", "name": "Butch + Babe's", "image_url": "https://s3-media3.fl.yelpcdn.com/bphoto/vQkfZuAl-4DSHMtjTBDUOw/o.jpg", "is_closed": false, "url": "https://www.yelp.com/biz/butch-babes-burlington?adjust_creative=vyhy616UjsMTA_hrWyg_5w&utm_campaign=yelp_api_v3&utm_medium=api_v3_business_search&utm_source=vyhy616UjsMTA_hrWyg_5w", "review_count": 174, "categories": [{"alias": "pubs", "title": "Pubs"}, {"alias": "newamerican", "title": "American (New)"}], "rating": 4.0, "coordinates": {"latitude": 44.48688, "longitude": -73.20846}, "transactions": [], "price": "$$", "location": {"address1": "258 N Winooski Ave", "address2": null, "address3": "", "city": "Burlington", "zip_code": "05401", "country": "US", "state": "VT", "display_address": ["258 N Winooski Ave", "Burlington, VT 05401"]}, "phone": "+18024950716", "display_phone": "(802) 495-0716", "distance": 1247.0675949939086}, {"id": "iVUIlwfKXB97hcuGg_SC8Q", "alias": "hana-japanese-restaurant-south-burlington", "name": "Hana Japanese Restaurant", "image_url": "https://s3-media2.fl.yelpcdn.com/bphoto/Ka2gngoZtXVPlTAQ8ozDuA/o.jpg", "is_closed": false, "url": "https://www.yelp.com/biz/hana-japanese-restaurant-south-burlington?adjust_creative=vyhy616UjsMTA_hrWyg_5w&utm_campaign=yelp_api_v3&utm_medium=api_v3_business_search&utm_source=vyhy616UjsMTA_hrWyg_5w", "review_count": 142, "categories": [{"alias": "japanese", "title": "Japanese"}, {"alias": "sushi", "title": "Sushi Bars"}], "rating": 4.0, "coordinates": {"latitude": 44.46505, "longitude": -73.17965}, "transactions": ["pickup", "delivery"], "price": "$$", "location": {"address1": "150 Dorset St", "address2": "Ste 340", "address3": "Blue Mall", "city": "South Burlington", "zip_code": "05403", "country": "US", "state": "VT", "display_address": ["150 Dorset St", "Ste 340", "Blue Mall", "South Burlington, VT 05403"]}, "phone": "+18024483525", "display_phone": "(802) 448-3525", "distance": 2808.0458162968625}, {"id": "e9IcA2lL2W_CxtIuIdVdGw", "alias": "volcano-asian-cuisine-burlington", "name": "Volcano Asian cuisine", "image_url": "https://s3-media2.fl.yelpcdn.com/bphoto/Y17GlPCM2bbJ9TZngSj01w/o.jpg", "is_closed": false, "url": "https://www.yelp.com/biz/volcano-asian-cuisine-burlington?adjust_creative=vyhy616UjsMTA_hrWyg_5w&utm_campaign=yelp_api_v3&utm_medium=api_v3_business_search&utm_source=vyhy616UjsMTA_hrWyg_5w", "review_count": 1, "categories": [{"alias": "asianfusion", "title": "Asian Fusion"}], "rating": 1.0, "coordinates": {"latitude": 44.511407, "longitude": -73.251326}, "transactions": ["pickup", "delivery"], "location": {"address1": "1355 North Ave", "address2": null, "address3": "", "city": "Burlington", "zip_code": "05408", "country": "US", "state": "VT", "display_address": ["1355 North Ave", "Burlington, VT 05408"]}, "phone": "+18024970475", "display_phone": "(802) 497-0475", "distance": 5052.637387754233}, {"id": "GLhuBLfnPBj_rH89m5wiaw", "alias": "mayas-kitchen-and-bar-burlington", "name": "Maya's Kitchen & Bar", "image_url": "https://s3-media1.fl.yelpcdn.com/bphoto/batQ-PXY3v7GTV9V_DFcfA/o.jpg", "is_closed": false, "url": "https://www.yelp.com/biz/mayas-kitchen-and-bar-burlington?adjust_creative=vyhy616UjsMTA_hrWyg_5w&utm_campaign=yelp_api_v3&utm_medium=api_v3_business_search&utm_source=vyhy616UjsMTA_hrWyg_5w", "review_count": 5, "categories": [{"alias": "asianfusion", "title": "Asian Fusion"}, {"alias": "bars", "title": "Bars"}, {"alias": "karaoke", "title": "Karaoke"}], "rating": 4.5, "coordinates": {"latitude": 44.50701, "longitude": -73.24447}, "transactions": [], "location": {"address1": "1130 North Ave", "address2": null, "address3": "", "city": "Burlington", "zip_code": "05408", "country": "US", "state": "VT", "display_address": ["1130 North Ave", "Burlington, VT 05408"]}, "phone": "+18024971514", "display_phone": "(802) 497-1514", "distance": 4333.539415516576}, {"id": "zC_ropo_Wk_1B4JISs69kA", "alias": "hong-kong-kitchen-south-burlington", "name": "Hong Kong Kitchen", "image_url": "https://s3-media1.fl.yelpcdn.com/bphoto/TqJkrphRUIKVPbOG3IIMTw/o.jpg", "is_closed": false, "url": "https://www.yelp.com/biz/hong-kong-kitchen-south-burlington?adjust_creative=vyhy616UjsMTA_hrWyg_5w&utm_campaign=yelp_api_v3&utm_medium=api_v3_business_search&utm_source=vyhy616UjsMTA_hrWyg_5w", "review_count": 31, "categories": [{"alias": "chinese", "title": "Chinese"}], "rating": 4.0, "coordinates": {"latitude": 44.4616, "longitude": -73.14984}, "transactions": ["delivery"], "price": "$", "location": {"address1": "1900 Williston Rd", "address2": "", "address3": "", "city": "South Burlington", "zip_code": "05403", "country": "US", "state": "VT", "display_address": ["1900 Williston Rd", "South Burlington, VT 05403"]}, "phone": "+18028624622", "display_phone": "(802) 862-4622", "distance": 5140.104496703449}, {"id": "vMo-l-CIvOlVbgc5Qp2jkQ", "alias": "pho-vo-south-burlington-2", "name": "Pho Vo", "image_url": "https://s3-media3.fl.yelpcdn.com/bphoto/Oid0ZQ0COsoYPvx9JJvGOw/o.jpg", "is_closed": false, "url": "https://www.yelp.com/biz/pho-vo-south-burlington-2?adjust_creative=vyhy616UjsMTA_hrWyg_5w&utm_campaign=yelp_api_v3&utm_medium=api_v3_business_search&utm_source=vyhy616UjsMTA_hrWyg_5w", "review_count": 16, "categories": [{"alias": "vietnamese", "title": "Vietnamese"}, {"alias": "thai", "title": "Thai"}], "rating": 4.5, "coordinates": {"latitude": 44.45954983, "longitude": -73.14653417}, "transactions": ["pickup", "delivery"], "location": {"address1": "2026 Williston Rd", "address2": "", "address3": null, "city": "South Burlington", "zip_code": "05403", "country": "US", "state": "VT", "display_address": ["2026 Williston Rd", "South Burlington, VT 05403"]}, "phone": "+18024972184", "display_phone": "(802) 497-2184", "distance": 5474.568988845595}, {"id": "_DcPRX0BMv3Qj1kCM7kN8g", "alias": "asian-general-market-winooski", "name": "Asian General Market", "image_url": "https://s3-media3.fl.yelpcdn.com/bphoto/fRL-NlWmMAsY42CKEY2duA/o.jpg", "is_closed": false, "url": "https://www.yelp.com/biz/asian-general-market-winooski?adjust_creative=vyhy616UjsMTA_hrWyg_5w&utm_campaign=yelp_api_v3&utm_medium=api_v3_business_search&utm_source=vyhy616UjsMTA_hrWyg_5w", "review_count": 1, "categories": [{"alias": "intlgrocery", "title": "International Grocery"}], "rating": 4.0, "coordinates": {"latitude": 44.496463, "longitude": -73.185595}, "transactions": [], "location": {"address1": "246 Main St", "address2": "", "address3": null, "city": "Winooski", "zip_code": "05404", "country": "US", "state": "VT", "display_address": ["246 Main St", "Winooski, VT 05404"]}, "phone": "+18024973586", "display_phone": "(802) 497-3586", "distance": 3073.584496406858}, {"id": "Bv9e8bewcN69B4YNSoM2XQ", "alias": "m-saigon-south-burlington", "name": "M-Saigon", "image_url": "https://s3-media4.fl.yelpcdn.com/bphoto/x9JSqmYXKlcadFqBYLuKMQ/o.jpg", "is_closed": false, "url": "https://www.yelp.com/biz/m-saigon-south-burlington?adjust_creative=vyhy616UjsMTA_hrWyg_5w&utm_campaign=yelp_api_v3&utm_medium=api_v3_business_search&utm_source=vyhy616UjsMTA_hrWyg_5w", "review_count": 78, "categories": [{"alias": "vietnamese", "title": "Vietnamese"}, {"alias": "cajun", "title": "Cajun/Creole"}, {"alias": "seafood", "title": "Seafood"}], "rating": 3.5, "coordinates": {"latitude": 44.45501, "longitude": -73.2078}, "transactions": ["delivery"], "price": "$", "location": {"address1": "370 Shelburne Rd", "address2": "", "address3": "", "city": "South Burlington", "zip_code": "05403", "country": "US", "state": "VT", "display_address": ["370 Shelburne Rd", "South Burlington, VT 05403"]}, "phone": "+18028658383", "display_phone": "(802) 865-8383", "distance": 2362.008643474485}, {"id": "c2CDSM7YmUQrj3aPjdxt5A", "alias": "koto-japanese-steakhouse-south-burlington", "name": "Koto Japanese Steakhouse", "image_url": "https://s3-media2.fl.yelpcdn.com/bphoto/9tHFHH3WsaPDAp6S9P386g/o.jpg", "is_closed": false, "url": "https://www.yelp.com/biz/koto-japanese-steakhouse-south-burlington?adjust_creative=vyhy616UjsMTA_hrWyg_5w&utm_campaign=yelp_api_v3&utm_medium=api_v3_business_search&utm_source=vyhy616UjsMTA_hrWyg_5w", "review_count": 137, "categories": [{"alias": "japanese", "title": "Japanese"}, {"alias": "steak", "title": "Steakhouses"}, {"alias": "sushi", "title": "Sushi Bars"}], "rating": 3.5, "coordinates": {"latitude": 44.44483, "longitude": -73.20892}, "transactions": ["pickup", "delivery"], "price": "$$", "location": {"address1": "792 Shelburne Rd", "address2": "", "address3": "", "city": "South Burlington", "zip_code": "05403", "country": "US", "state": "VT", "display_address": ["792 Shelburne Rd", "South Burlington, VT 05403"]}, "phone": "+18026608976", "display_phone": "(802) 660-8976", "distance": 3464.7554389800835}, {"id": "D3dluzFXmYAcWx1W-rNNwA", "alias": "sakura-sushi-and-kitchen-williston-5", "name": "Sakura Sushi & Kitchen", "image_url": "https://s3-media1.fl.yelpcdn.com/bphoto/gPf3UdETsCGQPpxvPff1vg/o.jpg", "is_closed": false, "url": "https://www.yelp.com/biz/sakura-sushi-and-kitchen-williston-5?adjust_creative=vyhy616UjsMTA_hrWyg_5w&utm_campaign=yelp_api_v3&utm_medium=api_v3_business_search&utm_source=vyhy616UjsMTA_hrWyg_5w", "review_count": 65, "categories": [{"alias": "japanese", "title": "Japanese"}], "rating": 4.0, "coordinates": {"latitude": 44.4503263235393, "longitude": -73.109943937328}, "transactions": ["delivery"], "price": "$$", "location": {"address1": "19 Taft Corners Shopping Ctr", "address2": "", "address3": "", "city": "Williston", "zip_code": "05495", "country": "US", "state": "VT", "display_address": ["19 Taft Corners Shopping Ctr", "Williston, VT 05495"]}, "phone": "+18022888052", "display_phone": "(802) 288-8052", "distance": 8548.451123149447}, {"id": "Qf9iYrxxT4z1teDdcybR0w", "alias": "central-market-taste-of-asia-burlington", "name": "Central Market Taste of Asia", "image_url": "https://s3-media1.fl.yelpcdn.com/bphoto/EeNY7H5f3q5OTOOfVnZisA/o.jpg", "is_closed": false, "url": "https://www.yelp.com/biz/central-market-taste-of-asia-burlington?adjust_creative=vyhy616UjsMTA_hrWyg_5w&utm_campaign=yelp_api_v3&utm_medium=api_v3_business_search&utm_source=vyhy616UjsMTA_hrWyg_5w", "review_count": 29, "categories": [{"alias": "indpak", "title": "Indian"}, {"alias": "himalayan", "title": "Himalayan/Nepalese"}], "rating": 4.0, "coordinates": {"latitude": 44.486486, "longitude": -73.208987}, "transactions": [], "price": "$$", "location": {"address1": "242 N Winooski Ave", "address2": "", "address3": "", "city": "Burlington", "zip_code": "05401", "country": "US", "state": "VT", "display_address": ["242 N Winooski Ave", "Burlington, VT 05401"]}, "phone": "+18024955966", "display_phone": "(802) 495-5966", "distance": 1191.9776708645577}, {"id": "3-VeLmmKV9q3OFmDNDu5xQ", "alias": "the-hawker-stall-burlington", "name": "The Hawker Stall", "image_url": "https://s3-media2.fl.yelpcdn.com/bphoto/oQnVeRNI36iOTB7qX320eA/o.jpg", "is_closed": false, "url": "https://www.yelp.com/biz/the-hawker-stall-burlington?adjust_creative=vyhy616UjsMTA_hrWyg_5w&utm_campaign=yelp_api_v3&utm_medium=api_v3_business_search&utm_source=vyhy616UjsMTA_hrWyg_5w", "review_count": 1, "categories": [{"alias": "malaysian", "title": "Malaysian"}], "rating": 2.0, "coordinates": {"latitude": 44.468216, "longitude": -73.214778}, "transactions": [], "location": {"address1": "400 Pine St", "address2": "", "address3": "", "city": "Burlington", "zip_code": "05401", "country": "US", "state": "VT", "display_address": ["400 Pine St", "Burlington, VT 05401"]}, "phone": "+18023245071", "display_phone": "(802) 324-5071", "distance": 894.798059907807}, {"id": "Phh0MiqbSe57YKGiW86RxQ", "alias": "asian-bistro-winooski", "name": "Asian Bistro", "image_url": "https://s3-media3.fl.yelpcdn.com/bphoto/mYXpaE5Q44JUvha3adr3rw/o.jpg", "is_closed": false, "url": "https://www.yelp.com/biz/asian-bistro-winooski?adjust_creative=vyhy616UjsMTA_hrWyg_5w&utm_campaign=yelp_api_v3&utm_medium=api_v3_business_search&utm_source=vyhy616UjsMTA_hrWyg_5w", "review_count": 63, "categories": [{"alias": "asianfusion", "title": "Asian Fusion"}, {"alias": "chinese", "title": "Chinese"}, {"alias": "sushi", "title": "Sushi Bars"}], "rating": 3.0, "coordinates": {"latitude": 44.49062, "longitude": -73.18496}, "transactions": ["pickup", "delivery"], "price": "$$", "location": {"address1": "25 Winooski Falls Wy", "address2": null, "address3": null, "city": "Winooski", "zip_code": "05404", "country": "US", "state": "VT", "display_address": ["25 Winooski Falls Wy", "Winooski, VT 05404"]}, "phone": "+18026559800", "display_phone": "(802) 655-9800", "distance": 2677.8751616868653}, {"id": "PAryZGSO16DChfu4hqys3w", "alias": "zabby-and-elfs-stone-soup-burlington", "name": "Zabby and Elf's Stone Soup", "image_url": "https://s3-media2.fl.yelpcdn.com/bphoto/cuq90x8FY7z1YRpCMDzuAQ/o.jpg", "is_closed": false, "url": "https://www.yelp.com/biz/zabby-and-elfs-stone-soup-burlington?adjust_creative=vyhy616UjsMTA_hrWyg_5w&utm_campaign=yelp_api_v3&utm_medium=api_v3_business_search&utm_source=vyhy616UjsMTA_hrWyg_5w", "review_count": 160, "categories": [{"alias": "vegan", "title": "Vegan"}, {"alias": "vegetarian", "title": "Vegetarian"}, {"alias": "soup", "title": "Soup"}], "rating": 4.5, "coordinates": {"latitude": 44.47699, "longitude": -73.2114}, "transactions": ["delivery"], "price": "$$", "location": {"address1": "211 College St", "address2": "", "address3": "", "city": "Burlington", "zip_code": "05401", "country": "US", "state": "VT", "display_address": ["211 College St", "Burlington, VT 05401"]}, "phone": "+18028627616", "display_phone": "(802) 862-7616", "distance": 115.6447651511184}, {"id": "EiEgQ98vMyVDxCR6TyFsUA", "alias": "silver-palace-south-burlington", "name": "Silver Palace", "image_url": "https://s3-media3.fl.yelpcdn.com/bphoto/_C36ElFFI1QzVYNXtRR9qA/o.jpg", "is_closed": false, "url": "https://www.yelp.com/biz/silver-palace-south-burlington?adjust_creative=vyhy616UjsMTA_hrWyg_5w&utm_campaign=yelp_api_v3&utm_medium=api_v3_business_search&utm_source=vyhy616UjsMTA_hrWyg_5w", "review_count": 35, "categories": [{"alias": "chinese", "title": "Chinese"}], "rating": 3.0, "coordinates": {"latitude": 44.46895, "longitude": -73.17533}, "transactions": ["pickup", "delivery"], "price": "$$", "location": {"address1": "1216 Williston Rd", "address2": "", "address3": "", "city": "South Burlington", "zip_code": "05403", "country": "US", "state": "VT", "display_address": ["1216 Williston Rd", "South Burlington, VT 05403"]}, "phone": "+18028640125", "display_phone": "(802) 864-0125", "distance": 2973.7112088589442}, {"id": "Hgwh5NTnpfTgnvI7p0SqjA", "alias": "the-great-northern-burlington-3", "name": "The Great Northern", "image_url": "https://s3-media3.fl.yelpcdn.com/bphoto/vy1Aad2dn3AMY8y9hNdrzg/o.jpg", "is_closed": false, "url": "https://www.yelp.com/biz/the-great-northern-burlington-3?adjust_creative=vyhy616UjsMTA_hrWyg_5w&utm_campaign=yelp_api_v3&utm_medium=api_v3_business_search&utm_source=vyhy616UjsMTA_hrWyg_5w", "review_count": 88, "categories": [{"alias": "newamerican", "title": "American (New)"}, {"alias": "salad", "title": "Salad"}, {"alias": "burgers", "title": "Burgers"}], "rating": 4.0, "coordinates": {"latitude": 44.459645, "longitude": -73.213737}, "transactions": [], "price": "$$", "location": {"address1": "716 Pine St", "address2": null, "address3": null, "city": "Burlington", "zip_code": "05401", "country": "US", "state": "VT", "display_address": ["716 Pine St", "Burlington, VT 05401"]}, "phone": "+18024895102", "display_phone": "(802) 489-5102", "distance": 1818.1796055738664}, {"id": "MiEphXlHsJ82Rexx91f2Jg", "alias": "hj-house-burlington", "name": "HJ House", "image_url": "https://s3-media2.fl.yelpcdn.com/bphoto/0JEC4XUneSny4t3Vm13cOA/o.jpg", "is_closed": false, "url": "https://www.yelp.com/biz/hj-house-burlington?adjust_creative=vyhy616UjsMTA_hrWyg_5w&utm_campaign=yelp_api_v3&utm_medium=api_v3_business_search&utm_source=vyhy616UjsMTA_hrWyg_5w", "review_count": 33, "categories": [{"alias": "chinese", "title": "Chinese"}, {"alias": "noodles", "title": "Noodles"}], "rating": 3.5, "coordinates": {"latitude": 44.47745, "longitude": -73.21435}, "transactions": ["delivery"], "price": "$$", "location": {"address1": "95 St Paul St", "address2": "", "address3": "", "city": "Burlington", "zip_code": "05401", "country": "US", "state": "VT", "display_address": ["95 St Paul St", "Burlington, VT 05401"]}, "phone": "+18028810336", "display_phone": "(802) 881-0336", "distance": 283.064791186974}, {"id": "xPa7DLnICa-kWvz8WhmDVw", "alias": "mandarin-vt-winooski", "name": "Mandarin VT", "image_url": "https://s3-media2.fl.yelpcdn.com/bphoto/ri8bR2dxkVbrDKxt3rG9FQ/o.jpg", "is_closed": false, "url": "https://www.yelp.com/biz/mandarin-vt-winooski?adjust_creative=vyhy616UjsMTA_hrWyg_5w&utm_campaign=yelp_api_v3&utm_medium=api_v3_business_search&utm_source=vyhy616UjsMTA_hrWyg_5w", "review_count": 49, "categories": [{"alias": "chinese", "title": "Chinese"}], "rating": 3.5, "coordinates": {"latitude": 44.4901, "longitude": -73.18671}, "transactions": ["delivery"], "location": {"address1": "22 Main St", "address2": "", "address3": null, "city": "Winooski", "zip_code": "05404", "country": "US", "state": "VT", "display_address": ["22 Main St", "Winooski, VT 05404"]}, "phone": "+18028001116", "display_phone": "(802) 800-1116", "distance": 2521.804442854093}, {"id": "qJWERJ-giYHaZrY_qsKLuA", "alias": "the-friendly-toast-burlington-5", "name": "The Friendly Toast", "image_url": "https://s3-media2.fl.yelpcdn.com/bphoto/TC795HwtWNWbFClH8hnt6g/o.jpg", "is_closed": false, "url": "https://www.yelp.com/biz/the-friendly-toast-burlington-5?adjust_creative=vyhy616UjsMTA_hrWyg_5w&utm_campaign=yelp_api_v3&utm_medium=api_v3_business_search&utm_source=vyhy616UjsMTA_hrWyg_5w", "review_count": 206, "categories": [{"alias": "breakfast_brunch", "title": "Breakfast & Brunch"}], "rating": 4.0, "coordinates": {"latitude": 44.4773799, "longitude": -73.21387}, "transactions": ["restaurant_reservation", "delivery"], "price": "$$", "location": {"address1": "86 St Paul St", "address2": "", "address3": null, "city": "Burlington", "zip_code": "05401", "country": "US", "state": "VT", "display_address": ["86 St Paul St", "Burlington, VT 05401"]}, "phone": "+18024955491", "display_phone": "(802) 495-5491", "distance": 248.33559739212257}, {"id": "2GpHBQoALyOptSfqlkyHLA", "alias": "leunigs-bistro-burlington", "name": "Leunig's Bistro", "image_url": "https://s3-media1.fl.yelpcdn.com/bphoto/4tDWv6y7hKu7VOT-pIGEqA/o.jpg", "is_closed": false, "url": "https://www.yelp.com/biz/leunigs-bistro-burlington?adjust_creative=vyhy616UjsMTA_hrWyg_5w&utm_campaign=yelp_api_v3&utm_medium=api_v3_business_search&utm_source=vyhy616UjsMTA_hrWyg_5w", "review_count": 642, "categories": [{"alias": "french", "title": "French"}, {"alias": "cocktailbars", "title": "Cocktail Bars"}], "rating": 4.0, "coordinates": {"latitude": 44.47721, "longitude": -73.21275}, "transactions": [], "price": "$$", "location": {"address1": "115 Church St", "address2": "", "address3": "", "city": "Burlington", "zip_code": "05401", "country": "US", "state": "VT", "display_address": ["115 Church St", "Burlington, VT 05401"]}, "phone": "+18028633759", "display_phone": "(802) 863-3759", "distance": 176.0384284328225}, {"id": "_PF1yNMToBn3VU9Xrf6dgA", "alias": "american-flatbread-burlington", "name": "American Flatbread", "image_url": "https://s3-media3.fl.yelpcdn.com/bphoto/mcPX-6oGf1GLDMAYEbtw8Q/o.jpg", "is_closed": false, "url": "https://www.yelp.com/biz/american-flatbread-burlington?adjust_creative=vyhy616UjsMTA_hrWyg_5w&utm_campaign=yelp_api_v3&utm_medium=api_v3_business_search&utm_source=vyhy616UjsMTA_hrWyg_5w", "review_count": 1026, "categories": [{"alias": "pizza", "title": "Pizza"}, {"alias": "breweries", "title": "Breweries"}], "rating": 4.5, "coordinates": {"latitude": 44.47646, "longitude": -73.21428}, "transactions": ["delivery"], "price": "$$", "location": {"address1": "115 St Paul St", "address2": null, "address3": "", "city": "Burlington", "zip_code": "05401", "country": "US", "state": "VT", "display_address": ["115 St Paul St", "Burlington, VT 05401"]}, "phone": "+18028612999", "display_phone": "(802) 861-2999", "distance": 231.17169977955896}, {"id": "CxQbOK22KWpGM0SoSZia7w", "alias": "shalimar-of-india-burlington-2", "name": "Shalimar of India", "image_url": "https://s3-media3.fl.yelpcdn.com/bphoto/Huq2cEa1DaNGo6a-SJsRFQ/o.jpg", "is_closed": false, "url": "https://www.yelp.com/biz/shalimar-of-india-burlington-2?adjust_creative=vyhy616UjsMTA_hrWyg_5w&utm_campaign=yelp_api_v3&utm_medium=api_v3_business_search&utm_source=vyhy616UjsMTA_hrWyg_5w", "review_count": 79, "categories": [{"alias": "indpak", "title": "Indian"}], "rating": 3.5, "coordinates": {"latitude": 44.481, "longitude": -73.21109}, "transactions": ["pickup", "delivery"], "price": "$$", "location": {"address1": "16 N Winooski Ave", "address2": "", "address3": "", "city": "Burlington", "zip_code": "05401", "country": "US", "state": "VT", "display_address": ["16 N Winooski Ave", "Burlington, VT 05401"]}, "phone": "+18028645693", "display_phone": "(802) 864-5693", "distance": 564.5256100297528}, {"id": "McrZoHnRb-zRVfyXS7OeYQ", "alias": "china-express-burlington", "name": "China Express", "image_url": "https://s3-media3.fl.yelpcdn.com/bphoto/AKYanumhfr1e5cv1JqfKUw/o.jpg", "is_closed": false, "url": "https://www.yelp.com/biz/china-express-burlington?adjust_creative=vyhy616UjsMTA_hrWyg_5w&utm_campaign=yelp_api_v3&utm_medium=api_v3_business_search&utm_source=vyhy616UjsMTA_hrWyg_5w", "review_count": 33, "categories": [{"alias": "chinese", "title": "Chinese"}], "rating": 3.0, "coordinates": {"latitude": 44.45676, "longitude": -73.20863}, "transactions": [], "price": "$", "location": {"address1": "295 Shelburne Rd", "address2": "", "address3": "", "city": "Burlington", "zip_code": "05401", "country": "US", "state": "VT", "display_address": ["295 Shelburne Rd", "Burlington, VT 05401"]}, "phone": "+18028652155", "display_phone": "(802) 865-2155", "distance": 2097.2990626010123}, {"id": "VXbmSR9G0BhCCnEpw5gmJA", "alias": "tokyo-japanese-south-burlington", "name": "Tokyo Japanese", "image_url": "https://s3-media1.fl.yelpcdn.com/bphoto/yD9X7P8h8c02v-81Y1CZOg/o.jpg", "is_closed": false, "url": "https://www.yelp.com/biz/tokyo-japanese-south-burlington?adjust_creative=vyhy616UjsMTA_hrWyg_5w&utm_campaign=yelp_api_v3&utm_medium=api_v3_business_search&utm_source=vyhy616UjsMTA_hrWyg_5w", "review_count": 4, "categories": [{"alias": "japanese", "title": "Japanese"}], "rating": 2.5, "coordinates": {"latitude": 44.4652204195928, "longitude": -73.1846240602323}, "transactions": ["pickup", "delivery"], "price": "$", "location": {"address1": "155 Dorset St", "address2": "", "address3": "", "city": "South Burlington", "zip_code": "05403", "country": "US", "state": "VT", "display_address": ["155 Dorset St", "South Burlington, VT 05403"]}, "phone": "+18026520888", "display_phone": "(802) 652-0888", "distance": 2443.187218419354}, {"id": "xpyMskv6ymdIZKA5VTuZuw", "alias": "grand-buffet-essex-junction", "name": "Grand Buffet", "image_url": "https://s3-media1.fl.yelpcdn.com/bphoto/eaiLQQB7MXeg3iz8ElSxKQ/o.jpg", "is_closed": false, "url": "https://www.yelp.com/biz/grand-buffet-essex-junction?adjust_creative=vyhy616UjsMTA_hrWyg_5w&utm_campaign=yelp_api_v3&utm_medium=api_v3_business_search&utm_source=vyhy616UjsMTA_hrWyg_5w", "review_count": 39, "categories": [{"alias": "chinese", "title": "Chinese"}, {"alias": "sushi", "title": "Sushi Bars"}, {"alias": "buffets", "title": "Buffets"}], "rating": 3.0, "coordinates": {"latitude": 44.49288, "longitude": -73.11844}, "transactions": ["pickup", "delivery"], "price": "$$", "location": {"address1": "66 Pearl St", "address2": "", "address3": "", "city": "Essex Junction", "zip_code": "05452", "country": "US", "state": "VT", "display_address": ["66 Pearl St", "Essex Junction, VT 05452"]}, "phone": "+18028799669", "display_phone": "(802) 879-9669", "distance": 7628.419913643435}, {"id": "oBPw4S8odWOoB2sHKKXObg", "alias": "men-at-wok-williston", "name": "Men At Wok", "image_url": "https://s3-media2.fl.yelpcdn.com/bphoto/I5qNwwIQGurXOWyNxpMqaw/o.jpg", "is_closed": false, "url": "https://www.yelp.com/biz/men-at-wok-williston?adjust_creative=vyhy616UjsMTA_hrWyg_5w&utm_campaign=yelp_api_v3&utm_medium=api_v3_business_search&utm_source=vyhy616UjsMTA_hrWyg_5w", "review_count": 44, "categories": [{"alias": "chinese", "title": "Chinese"}], "rating": 2.0, "coordinates": {"latitude": 44.449777, "longitude": -73.109817}, "transactions": ["delivery"], "price": "$$", "location": {"address1": "299 N Williston Rd", "address2": "Ste 7", "address3": "", "city": "Williston", "zip_code": "05495", "country": "US", "state": "VT", "display_address": ["299 N Williston Rd", "Ste 7", "Williston, VT 05495"]}, "phone": "+18028782850", "display_phone": "(802) 878-2850", "distance": 8578.491906105677}, {"id": "zOPIrspHw2pbtyBOReqY3g", "alias": "sweetwaters-american-bistro-burlington", "name": "Sweetwaters American Bistro", "image_url": "https://s3-media3.fl.yelpcdn.com/bphoto/Z1sFOBm61TfHBpssJVCSMQ/o.jpg", "is_closed": false, "url": "https://www.yelp.com/biz/sweetwaters-american-bistro-burlington?adjust_creative=vyhy616UjsMTA_hrWyg_5w&utm_campaign=yelp_api_v3&utm_medium=api_v3_business_search&utm_source=vyhy616UjsMTA_hrWyg_5w", "review_count": 351, "categories": [{"alias": "tradamerican", "title": "American (Traditional)"}, {"alias": "bars", "title": "Bars"}, {"alias": "burgers", "title": "Burgers"}], "rating": 3.5, "coordinates": {"latitude": 44.47693, "longitude": -73.21234}, "transactions": [], "price": "$$", "location": {"address1": "120 Church St", "address2": "", "address3": "", "city": "Burlington", "zip_code": "05401", "country": "US", "state": "VT", "display_address": ["120 Church St", "Burlington, VT 05401"]}, "phone": "+18028649800", "display_phone": "(802) 864-9800", "distance": 130.12641515583277}, {"id": "lWFDm02KxsMcxd_bqmQHWQ", "alias": "the-spot-burlington", "name": "The Spot", "image_url": "https://s3-media4.fl.yelpcdn.com/bphoto/y-4XhFwRmvF7XQQKnG48XA/o.jpg", "is_closed": false, "url": "https://www.yelp.com/biz/the-spot-burlington?adjust_creative=vyhy616UjsMTA_hrWyg_5w&utm_campaign=yelp_api_v3&utm_medium=api_v3_business_search&utm_source=vyhy616UjsMTA_hrWyg_5w", "review_count": 129, "categories": [{"alias": "breakfast_brunch", "title": "Breakfast & Brunch"}, {"alias": "sandwiches", "title": "Sandwiches"}, {"alias": "tacos", "title": "Tacos"}], "rating": 4.0, "coordinates": {"latitude": 44.45952, "longitude": -73.20801}, "transactions": ["delivery"], "price": "$$", "location": {"address1": "210 Shelburne Rd", "address2": "", "address3": "", "city": "Burlington", "zip_code": "05401", "country": "US", "state": "VT", "display_address": ["210 Shelburne Rd", "Burlington, VT 05401"]}, "phone": "+18025401778", "display_phone": "(802) 540-1778", "distance": 1878.1759991540553}], "total": 43, "region": {"center": {"longitude": -73.21151733398438, "latitude": 44.4759193907779}}}