{"businesses": [{"id": "-tJDIjc2YEVSXMcBQdc3hw", "alias": "momo-mee-milwaukee", "name": "Momo Mee", "image_url": "https://s3-media3.fl.yelpcdn.com/bphoto/rlWTLc12u-IiarsU-EFFeA/o.jpg", "is_closed": false, "url": "https://www.yelp.com/biz/momo-mee-milwaukee?adjust_creative=vyhy616UjsMTA_hrWyg_5w&utm_campaign=yelp_api_v3&utm_medium=api_v3_business_search&utm_source=vyhy616UjsMTA_hrWyg_5w", "review_count": 168, "categories": [{"alias": "panasian", "title": "Pan Asian"}, {"alias": "wine_bars", "title": "Wine Bars"}, {"alias": "cocktailbars", "title": "Cocktail Bars"}], "rating": 4.5, "coordinates": {"latitude": 43.0171547989744, "longitude": -87.9108565673232}, "transactions": ["delivery"], "price": "$$", "location": {"address1": "110 E Greenfield Ave", "address2": "", "address3": null, "city": "Milwaukee", "zip_code": "53204", "country": "US", "state": "WI", "display_address": ["110 E Greenfield Ave", "Milwaukee, WI 53204"]}, "phone": "+14143169003", "display_phone": "(414) 316-9003", "distance": 4513.13096354827}, {"id": "xzp7YuIp3ZOn3ps4rE2O5g", "alias": "seoul-korean-restaurant-milwaukee", "name": "Seoul Korean Restaurant", "image_url": "https://s3-media4.fl.yelpcdn.com/bphoto/cO64pFpdeBn8ydZ-h6dUbQ/o.jpg", "is_closed": false, "url": "https://www.yelp.com/biz/seoul-korean-restaurant-milwaukee?adjust_creative=vyhy616UjsMTA_hrWyg_5w&utm_campaign=yelp_api_v3&utm_medium=api_v3_business_search&utm_source=vyhy616UjsMTA_hrWyg_5w", "review_count": 155, "categories": [{"alias": "korean", "title": "Korean"}], "rating": 4.0, "coordinates": {"latitude": 43.0583064, "longitude": -87.8853221}, "transactions": ["delivery"], "price": "$$", "location": {"address1": "2178 N Prospect Ave", "address2": "", "address3": "", "city": "Milwaukee", "zip_code": "53202", "country": "US", "state": "WI", "display_address": ["2178 N Prospect Ave", "Milwaukee, WI 53202"]}, "phone": "+14142898208", "display_phone": "(414) 289-8208", "distance": 5988.783386084939}, {"id": "aGku_HhnIiLMA4_O3Rl70Q", "alias": "bento-xpert-milwaukee", "name": "Bento Xpert", "image_url": "https://s3-media1.fl.yelpcdn.com/bphoto/l9rAN3w5zRLc_Jc5bi02Gg/o.jpg", "is_closed": false, "url": "https://www.yelp.com/biz/bento-xpert-milwaukee?adjust_creative=vyhy616UjsMTA_hrWyg_5w&utm_campaign=yelp_api_v3&utm_medium=api_v3_business_search&utm_source=vyhy616UjsMTA_hrWyg_5w", "review_count": 49, "categories": [{"alias": "taiwanese", "title": "Taiwanese"}, {"alias": "chinese", "title": "Chinese"}], "rating": 5.0, "coordinates": {"latitude": 43.04499, "longitude": -87.92371}, "transactions": ["delivery", "pickup"], "location": {"address1": "1125 N 9th St", "address2": "Unit F", "address3": "", "city": "Milwaukee", "zip_code": "53233", "country": "US", "state": "WI", "display_address": ["1125 N 9th St", "Unit F", "Milwaukee, WI 53233"]}, "phone": "+14149352823", "display_phone": "(414) 935-2823", "distance": 2592.473477294528}, {"id": "_l72RF5dwuJ_RxqlGsNsgA", "alias": "asian-fusion-milwaukee", "name": "Asian Fusion", "image_url": "https://s3-media3.fl.yelpcdn.com/bphoto/J5ZxWmpBIuBL1UeoEgaEeg/o.jpg", "is_closed": false, "url": "https://www.yelp.com/biz/asian-fusion-milwaukee?adjust_creative=vyhy616UjsMTA_hrWyg_5w&utm_campaign=yelp_api_v3&utm_medium=api_v3_business_search&utm_source=vyhy616UjsMTA_hrWyg_5w", "review_count": 121, "categories": [{"alias": "asianfusion", "title": "Asian Fusion"}, {"alias": "chinese", "title": "Chinese"}, {"alias": "noodles", "title": "Noodles"}], "rating": 4.0, "coordinates": {"latitude": 43.0598405274044, "longitude": -87.8901134688587}, "transactions": ["delivery", "pickup"], "price": "$$", "location": {"address1": "1609 E North Ave", "address2": "Ste C", "address3": "", "city": "Milwaukee", "zip_code": "53202", "country": "US", "state": "WI", "display_address": ["1609 E North Ave", "Ste C", "Milwaukee, WI 53202"]}, "phone": "+14142736688", "display_phone": "(414) 273-6688", "distance": 5661.545657248339}, {"id": "BCxnxlqdzptqJVastOCm1Q", "alias": "dandan-milwaukee", "name": "DanDan", "image_url": "https://s3-media3.fl.yelpcdn.com/bphoto/Z2fYoGQ7BDsGd4G6A9ABsw/o.jpg", "is_closed": false, "url": "https://www.yelp.com/biz/dandan-milwaukee?adjust_creative=vyhy616UjsMTA_hrWyg_5w&utm_campaign=yelp_api_v3&utm_medium=api_v3_business_search&utm_source=vyhy616UjsMTA_hrWyg_5w", "review_count": 310, "categories": [{"alias": "asianfusion", "title": "Asian Fusion"}, {"alias": "dimsum", "title": "Dim Sum"}], "rating": 4.0, "coordinates": {"latitude": 43.0300114967349, "longitude": -87.9053248279705}, "transactions": ["delivery", "pickup"], "price": "$$", "location": {"address1": "360 E Erie St", "address2": "", "address3": null, "city": "Milwaukee", "zip_code": "53202", "country": "US", "state": "WI", "display_address": ["360 E Erie St", "Milwaukee, WI 53202"]}, "phone": "+14144888036", "display_phone": "(414) 488-8036", "distance": 4251.481738481638}, {"id": "ayk85ML_76bKu-8lhCSuhQ", "alias": "tangled-noodles-milwaukee", "name": "Tangled Noodles", "image_url": "https://s3-media3.fl.yelpcdn.com/bphoto/bn0xyUhUfqbMDaVY_-CGPg/o.jpg", "is_closed": false, "url": "https://www.yelp.com/biz/tangled-noodles-milwaukee?adjust_creative=vyhy616UjsMTA_hrWyg_5w&utm_campaign=yelp_api_v3&utm_medium=api_v3_business_search&utm_source=vyhy616UjsMTA_hrWyg_5w", "review_count": 101, "categories": [{"alias": "chinese", "title": "Chinese"}, {"alias": "noodles", "title": "Noodles"}], "rating": 4.0, "coordinates": {"latitude": 43.0403949, "longitude": -87.9303894}, "transactions": ["delivery", "pickup"], "price": "$", "location": {"address1": "1404 W Wells St", "address2": "", "address3": "", "city": "Milwaukee", "zip_code": "53233", "country": "US", "state": "WI", "display_address": ["1404 W Wells St", "Milwaukee, WI 53233"]}, "phone": "+14147518433", "display_phone": "(414) 751-8433", "distance": 2008.2274505421333}, {"id": "iNGUnsNJd0V3KR3Qr5Lg4A", "alias": "vientiane-noodle-shop-milwaukee", "name": "Vientiane Noodle Shop", "image_url": "https://s3-media2.fl.yelpcdn.com/bphoto/oKku_VYWAytys0aLHEHGRw/o.jpg", "is_closed": false, "url": "https://www.yelp.com/biz/vientiane-noodle-shop-milwaukee?adjust_creative=vyhy616UjsMTA_hrWyg_5w&utm_campaign=yelp_api_v3&utm_medium=api_v3_business_search&utm_source=vyhy616UjsMTA_hrWyg_5w", "review_count": 92, "categories": [{"alias": "thai", "title": "Thai"}, {"alias": "noodles", "title": "Noodles"}, {"alias": "laotian", "title": "Laotian"}], "rating": 4.0, "coordinates": {"latitude": 43.02196, "longitude": -87.95726}, "transactions": ["delivery"], "price": "$", "location": {"address1": "3422 W National Ave", "address2": "", "address3": "", "city": "Milwaukee", "zip_code": "53215", "country": "US", "state": "WI", "display_address": ["3422 W National Ave", "Milwaukee, WI 53215"]}, "phone": "+14146728440", "display_phone": "(414) 672-8440", "distance": 2210.619724011399}, {"id": "dihFK3WDo0cXYxcl-PAtvQ", "alias": "fusion-cafe-milwaukee", "name": "Fusion Cafe", "image_url": "https://s3-media3.fl.yelpcdn.com/bphoto/1a81YVOH10mIlm66MCXJ_A/o.jpg", "is_closed": false, "url": "https://www.yelp.com/biz/fusion-cafe-milwaukee?adjust_creative=vyhy616UjsMTA_hrWyg_5w&utm_campaign=yelp_api_v3&utm_medium=api_v3_business_search&utm_source=vyhy616UjsMTA_hrWyg_5w", "review_count": 138, "categories": [{"alias": "chinese", "title": "Chinese"}, {"alias": "sushi", "title": "Sushi Bars"}, {"alias": "noodles", "title": "Noodles"}], "rating": 4.0, "coordinates": {"latitude": 43.0155869, "longitude": -88.047467}, "transactions": ["delivery", "pickup"], "price": "$", "location": {"address1": "1427 S 108th St", "address2": "", "address3": "", "city": "Milwaukee", "zip_code": "53214", "country": "US", "state": "WI", "display_address": ["1427 S 108th St", "Milwaukee, WI 53214"]}, "phone": "+14142571199", "display_phone": "(414) 257-1199", "distance": 8041.055729742591}, {"id": "dqsP3VWz4HVKV7R-EMzXKQ", "alias": "rice-n-roll-bistro-milwaukee", "name": "Rice N Roll Bistro", "image_url": "https://s3-media2.fl.yelpcdn.com/bphoto/x87j90-ewcHO0wQ6VSEoJQ/o.jpg", "is_closed": false, "url": "https://www.yelp.com/biz/rice-n-roll-bistro-milwaukee?adjust_creative=vyhy616UjsMTA_hrWyg_5w&utm_campaign=yelp_api_v3&utm_medium=api_v3_business_search&utm_source=vyhy616UjsMTA_hrWyg_5w", "review_count": 381, "categories": [{"alias": "sushi", "title": "Sushi Bars"}, {"alias": "thai", "title": "Thai"}, {"alias": "asianfusion", "title": "Asian Fusion"}], "rating": 4.5, "coordinates": {"latitude": 43.0562591552734, "longitude": -87.8888854980469}, "transactions": ["delivery", "pickup"], "price": "$$", "location": {"address1": "1952 N Farwell Ave", "address2": "", "address3": "", "city": "Milwaukee", "zip_code": "53202", "country": "US", "state": "WI", "display_address": ["1952 N Farwell Ave", "Milwaukee, WI 53202"]}, "phone": "+14142209944", "display_phone": "(414) 220-9944", "distance": 5616.74743104839}, {"id": "Br5k1FWZ_demWPUqSKL9yQ", "alias": "pho-saigon-west-allis", "name": "Pho Saigon", "image_url": "https://s3-media1.fl.yelpcdn.com/bphoto/xCXnvfAFiwB_SAF5bNN3vA/o.jpg", "is_closed": false, "url": "https://www.yelp.com/biz/pho-saigon-west-allis?adjust_creative=vyhy616UjsMTA_hrWyg_5w&utm_campaign=yelp_api_v3&utm_medium=api_v3_business_search&utm_source=vyhy616UjsMTA_hrWyg_5w", "review_count": 74, "categories": [{"alias": "vietnamese", "title": "Vietnamese"}], "rating": 4.5, "coordinates": {"latitude": 43.01675, "longitude": -88.04416}, "transactions": ["delivery"], "price": "$$", "location": {"address1": "10534 W Greenfield Ave", "address2": "", "address3": null, "city": "West Allis", "zip_code": "53214", "country": "US", "state": "WI", "display_address": ["10534 W Greenfield Ave", "West Allis, WI 53214"]}, "phone": "+14148289698", "display_phone": "(414) 828-9698", "distance": 7741.759536708026}, {"id": "Sv_w8eHUoHMdN4Z_krFLpg", "alias": "lucky-ginger-milwaukee-2", "name": "Lucky Ginger", "image_url": "https://s3-media3.fl.yelpcdn.com/bphoto/48egYHnlk6i_r5dkGPVnYg/o.jpg", "is_closed": false, "url": "https://www.yelp.com/biz/lucky-ginger-milwaukee-2?adjust_creative=vyhy616UjsMTA_hrWyg_5w&utm_campaign=yelp_api_v3&utm_medium=api_v3_business_search&utm_source=vyhy616UjsMTA_hrWyg_5w", "review_count": 178, "categories": [{"alias": "asianfusion", "title": "Asian Fusion"}], "rating": 4.0, "coordinates": {"latitude": 43.03302, "longitude": -87.9096375}, "transactions": ["delivery"], "price": "$$", "location": {"address1": "221 N Water St", "address2": "", "address3": "", "city": "Milwaukee", "zip_code": "53202", "country": "US", "state": "WI", "display_address": ["221 N Water St", "Milwaukee, WI 53202"]}, "phone": "+14142698699", "display_phone": "(414) 269-8699", "distance": 3827.3946612636837}, {"id": "vq8xeZ8Sx1UMKmIS8FXupg", "alias": "sze-chuan-restaurant-west-allis", "name": "Sze Chuan Restaurant", "image_url": "https://s3-media3.fl.yelpcdn.com/bphoto/QHEoG4nw6In0rFZjEuhPLA/o.jpg", "is_closed": false, "url": "https://www.yelp.com/biz/sze-chuan-restaurant-west-allis?adjust_creative=vyhy616UjsMTA_hrWyg_5w&utm_campaign=yelp_api_v3&utm_medium=api_v3_business_search&utm_source=vyhy616UjsMTA_hrWyg_5w", "review_count": 189, "categories": [{"alias": "szechuan", "title": "Szechuan"}], "rating": 4.5, "coordinates": {"latitude": 42.9921528125096, "longitude": -88.0513836266368}, "transactions": ["delivery"], "price": "$$", "location": {"address1": "11102 W National Ave", "address2": "", "address3": null, "city": "West Allis", "zip_code": "53227", "country": "US", "state": "WI", "display_address": ["11102 W National Ave", "West Allis, WI 53227"]}, "phone": "+14148850856", "display_phone": "(414) 885-0856", "distance": 9561.911856888468}, {"id": "VY54yrgvq5wXGCXdHCvK3g", "alias": "hue-milwaukee-3", "name": "Hue", "image_url": "https://s3-media1.fl.yelpcdn.com/bphoto/WpQzt83PrUBDT3quul--Hg/o.jpg", "is_closed": false, "url": "https://www.yelp.com/biz/hue-milwaukee-3?adjust_creative=vyhy616UjsMTA_hrWyg_5w&utm_campaign=yelp_api_v3&utm_medium=api_v3_business_search&utm_source=vyhy616UjsMTA_hrWyg_5w", "review_count": 246, "categories": [{"alias": "vietnamese", "title": "Vietnamese"}], "rating": 4.0, "coordinates": {"latitude": 42.99588, "longitude": -87.8971399}, "transactions": ["delivery"], "price": "$$", "location": {"address1": "2691 S Kinnickinnic Ave", "address2": "", "address3": "", "city": "Milwaukee", "zip_code": "53207", "country": "US", "state": "WI", "display_address": ["2691 S Kinnickinnic Ave", "Milwaukee, WI 53207"]}, "phone": "+14142940483", "display_phone": "(414) 294-0483", "distance": 6924.512334582458}, {"id": "CdMT7NP06Q6DLRGgop_cEw", "alias": "kawa-ramen-and-sushi-milwaukee-2", "name": "Kawa Ramen & Sushi", "image_url": "https://s3-media2.fl.yelpcdn.com/bphoto/Sn-bqv-AOor66ltGuPyULw/o.jpg", "is_closed": false, "url": "https://www.yelp.com/biz/kawa-ramen-and-sushi-milwaukee-2?adjust_creative=vyhy616UjsMTA_hrWyg_5w&utm_campaign=yelp_api_v3&utm_medium=api_v3_business_search&utm_source=vyhy616UjsMTA_hrWyg_5w", "review_count": 277, "categories": [{"alias": "sushi", "title": "Sushi Bars"}, {"alias": "ramen", "title": "Ramen"}], "rating": 4.5, "coordinates": {"latitude": 43.0606611, "longitude": -87.885822}, "transactions": ["delivery", "pickup"], "price": "$$", "location": {"address1": "2321 N Murray Ave", "address2": null, "address3": "", "city": "Milwaukee", "zip_code": "53211", "country": "US", "state": "WI", "display_address": ["2321 N Murray Ave", "Milwaukee, WI 53211"]}, "phone": "+14148007979", "display_phone": "(414) 800-7979", "distance": 6014.224693045845}, {"id": "-f5ieIpnSc_cgsewV9AlcQ", "alias": "chard-milwaukee-2", "name": "Char'd", "image_url": "https://s3-media2.fl.yelpcdn.com/bphoto/iFlG6tCVwYdV5VZriXQcGA/o.jpg", "is_closed": false, "url": "https://www.yelp.com/biz/chard-milwaukee-2?adjust_creative=vyhy616UjsMTA_hrWyg_5w&utm_campaign=yelp_api_v3&utm_medium=api_v3_business_search&utm_source=vyhy616UjsMTA_hrWyg_5w", "review_count": 152, "categories": [{"alias": "korean", "title": "Korean"}, {"alias": "bbq", "title": "Barbeque"}, {"alias": "tapasmallplates", "title": "Tapas/Small Plates"}], "rating": 4.0, "coordinates": {"latitude": 43.031946, "longitude": -87.908658}, "transactions": ["delivery", "pickup"], "price": "$$", "location": {"address1": "222 E Erie St", "address2": "Ste 100", "address3": null, "city": "Milwaukee", "zip_code": "53202", "country": "US", "state": "WI", "display_address": ["222 E Erie St", "Ste 100", "Milwaukee, WI 53202"]}, "phone": "+14148852611", "display_phone": "(414) 885-2611", "distance": 3929.9519700064475}, {"id": "ulMhEx7j-4qySp8xExz4Bg", "alias": "easy-tyger-milwaukee", "name": "Easy Tyger", "image_url": "https://s3-media1.fl.yelpcdn.com/bphoto/LoKk3Xe1A6v6KY-NIY9z_A/o.jpg", "is_closed": false, "url": "https://www.yelp.com/biz/easy-tyger-milwaukee?adjust_creative=vyhy616UjsMTA_hrWyg_5w&utm_campaign=yelp_api_v3&utm_medium=api_v3_business_search&utm_source=vyhy616UjsMTA_hrWyg_5w", "review_count": 143, "categories": [{"alias": "ramen", "title": "Ramen"}, {"alias": "asianfusion", "title": "Asian Fusion"}, {"alias": "gastropubs", "title": "Gastropubs"}], "rating": 4.5, "coordinates": {"latitude": 43.0530949, "longitude": -87.895831}, "transactions": ["delivery", "pickup"], "price": "$$", "location": {"address1": "1230 E Brady St", "address2": "", "address3": "", "city": "Milwaukee", "zip_code": "53202", "country": "US", "state": "WI", "display_address": ["1230 E Brady St", "Milwaukee, WI 53202"]}, "phone": "+14142266640", "display_phone": "(414) 226-6640", "distance": 4990.383999984031}, {"id": "7mPYkBjL5xzk7R9LlzNQlg", "alias": "hungry-sumo-sushi-bar-milwaukee", "name": "Hungry Sumo Sushi Bar", "image_url": "https://s3-media2.fl.yelpcdn.com/bphoto/b0aT-ovWtP3O4OMzc8vrWg/o.jpg", "is_closed": false, "url": "https://www.yelp.com/biz/hungry-sumo-sushi-bar-milwaukee?adjust_creative=vyhy616UjsMTA_hrWyg_5w&utm_campaign=yelp_api_v3&utm_medium=api_v3_business_search&utm_source=vyhy616UjsMTA_hrWyg_5w", "review_count": 185, "categories": [{"alias": "sushi", "title": "Sushi Bars"}, {"alias": "asianfusion", "title": "Asian Fusion"}], "rating": 4.5, "coordinates": {"latitude": 42.99627, "longitude": -87.89794}, "transactions": ["delivery"], "price": "$$", "location": {"address1": "2663 S Kinnickinnic Ave", "address2": "", "address3": null, "city": "Milwaukee", "zip_code": "53207", "country": "US", "state": "WI", "display_address": ["2663 S Kinnickinnic Ave", "Milwaukee, WI 53207"]}, "phone": "+14145959656", "display_phone": "(414) 595-9656", "distance": 6845.169350246983}, {"id": "xfSlTpkCRnV8FEoEvUrzkQ", "alias": "bamboo-milwaukee", "name": "Bamboo", "image_url": "https://s3-media1.fl.yelpcdn.com/bphoto/-IpECJVvy6zW1M5OF_IRXg/o.jpg", "is_closed": false, "url": "https://www.yelp.com/biz/bamboo-milwaukee?adjust_creative=vyhy616UjsMTA_hrWyg_5w&utm_campaign=yelp_api_v3&utm_medium=api_v3_business_search&utm_source=vyhy616UjsMTA_hrWyg_5w", "review_count": 86, "categories": [{"alias": "laotian", "title": "Laotian"}, {"alias": "thai", "title": "Thai"}, {"alias": "chinese", "title": "Chinese"}], "rating": 4.0, "coordinates": {"latitude": 43.02134, "longitude": -87.95726}, "transactions": ["delivery", "pickup"], "price": "$$", "location": {"address1": "3427 W National Ave", "address2": "", "address3": "", "city": "Milwaukee", "zip_code": "53215", "country": "US", "state": "WI", "display_address": ["3427 W National Ave", "Milwaukee, WI 53215"]}, "phone": "+14143169023", "display_phone": "(414) 316-9023", "distance": 2252.037013703442}, {"id": "8p9CYuiVLA70TtUxubq-GA", "alias": "kin-by-rice-n-roll-wauwatosa-2", "name": "Kin by Rice n Roll", "image_url": "https://s3-media2.fl.yelpcdn.com/bphoto/vIWrlmE8ea1EFrskOfRwPA/o.jpg", "is_closed": false, "url": "https://www.yelp.com/biz/kin-by-rice-n-roll-wauwatosa-2?adjust_creative=vyhy616UjsMTA_hrWyg_5w&utm_campaign=yelp_api_v3&utm_medium=api_v3_business_search&utm_source=vyhy616UjsMTA_hrWyg_5w", "review_count": 74, "categories": [{"alias": "sushi", "title": "Sushi Bars"}, {"alias": "asianfusion", "title": "Asian Fusion"}], "rating": 4.5, "coordinates": {"latitude": 43.0490401, "longitude": -88.0058033}, "transactions": ["delivery"], "price": "$$", "location": {"address1": "7484 W State St", "address2": "", "address3": null, "city": "Wauwatosa", "zip_code": "53213", "country": "US", "state": "WI", "display_address": ["7484 W State St", "Wauwatosa, WI 53213"]}, "phone": "+14145249056", "display_phone": "(414) 524-9056", "distance": 4204.970214768002}, {"id": "-vL_e8veaSk51BzqiNFRew", "alias": "bowl-cut-milwaukee", "name": "Bowl Cut", "image_url": "https://s3-media2.fl.yelpcdn.com/bphoto/IBF62KXuY2k_rUyUU0JUmA/o.jpg", "is_closed": false, "url": "https://www.yelp.com/biz/bowl-cut-milwaukee?adjust_creative=vyhy616UjsMTA_hrWyg_5w&utm_campaign=yelp_api_v3&utm_medium=api_v3_business_search&utm_source=vyhy616UjsMTA_hrWyg_5w", "review_count": 10, "categories": [{"alias": "asianfusion", "title": "Asian Fusion"}, {"alias": "foodtrucks", "title": "Food Trucks"}], "rating": 4.5, "coordinates": {"latitude": 43.024634290394, "longitude": -87.917646325353}, "transactions": [], "location": {"address1": "636 S 6th St", "address2": null, "address3": "Zocalo Food Truck Park", "city": "Milwaukee", "zip_code": "53204", "country": "US", "state": "WI", "display_address": ["636 S 6th St", "Zocalo Food Truck Park", "Milwaukee, WI 53204"]}, "phone": "+14143012069", "display_phone": "(414) 301-2069", "distance": 3586.723310359809}, {"id": "_yRRx0vQ_4OENMLsFfnuqA", "alias": "sweet-basil-franklin", "name": "Sweet Basil", "image_url": "https://s3-media2.fl.yelpcdn.com/bphoto/-6NsSbvRjHSPGkiAxIcpjQ/o.jpg", "is_closed": false, "url": "https://www.yelp.com/biz/sweet-basil-franklin?adjust_creative=vyhy616UjsMTA_hrWyg_5w&utm_campaign=yelp_api_v3&utm_medium=api_v3_business_search&utm_source=vyhy616UjsMTA_hrWyg_5w", "review_count": 56, "categories": [{"alias": "thai", "title": "Thai"}, {"alias": "laotian", "title": "Laotian"}, {"alias": "asianfusion", "title": "Asian Fusion"}], "rating": 5.0, "coordinates": {"latitude": 42.926132, "longitude": -87.950254}, "transactions": ["delivery"], "location": {"address1": "6509 S 27th St", "address2": "Ste B", "address3": "", "city": "Franklin", "zip_code": "53132", "country": "US", "state": "WI", "display_address": ["6509 S 27th St", "Ste B", "Franklin, WI 53132"]}, "phone": "+14143014126", "display_phone": "(414) 301-4126", "distance": 12848.29634832546}, {"id": "an3iO0mAtMN8HfTJKfiCZQ", "alias": "thai-kitchen-milwaukee", "name": "Thai Kitchen", "image_url": "https://s3-media3.fl.yelpcdn.com/bphoto/3KBR3Viz2mETG5nOAdHs3Q/o.jpg", "is_closed": false, "url": "https://www.yelp.com/biz/thai-kitchen-milwaukee?adjust_creative=vyhy616UjsMTA_hrWyg_5w&utm_campaign=yelp_api_v3&utm_medium=api_v3_business_search&utm_source=vyhy616UjsMTA_hrWyg_5w", "review_count": 125, "categories": [{"alias": "thai", "title": "Thai"}], "rating": 4.0, "coordinates": {"latitude": 43.07026, "longitude": -87.88817}, "transactions": ["delivery"], "price": "$", "location": {"address1": "2831 N Oakland Ave", "address2": "", "address3": "", "city": "Milwaukee", "zip_code": "53211", "country": "US", "state": "WI", "display_address": ["2831 N Oakland Ave", "Milwaukee, WI 53211"]}, "phone": "+14149628851", "display_phone": "(414) 962-8851", "distance": 6310.957535588176}, {"id": "qdhR_sCT4TsI3MeptkRWMQ", "alias": "ee-sane-thai-cuisine-milwaukee", "name": "EE-Sane Thai Cuisine", "image_url": "https://s3-media3.fl.yelpcdn.com/bphoto/rMS603mzbxpKSYquT51dTg/o.jpg", "is_closed": false, "url": "https://www.yelp.com/biz/ee-sane-thai-cuisine-milwaukee?adjust_creative=vyhy616UjsMTA_hrWyg_5w&utm_campaign=yelp_api_v3&utm_medium=api_v3_business_search&utm_source=vyhy616UjsMTA_hrWyg_5w", "review_count": 290, "categories": [{"alias": "thai", "title": "Thai"}], "rating": 4.0, "coordinates": {"latitude": 43.0541316, "longitude": -87.8910313}, "transactions": ["delivery"], "price": "$$", "location": {"address1": "1806 N Farwell Ave", "address2": "", "address3": "", "city": "Milwaukee", "zip_code": "53202", "country": "US", "state": "WI", "display_address": ["1806 N Farwell Ave", "Milwaukee, WI 53202"]}, "phone": "+14142248284", "display_phone": "(414) 224-8284", "distance": 5392.852545953039}, {"id": "VMSepkyUwC5pKgywZmddOQ", "alias": "mekong-caf\u00e9-milwaukee-2", "name": "Mekong Caf\u00e9", "image_url": "https://s3-media1.fl.yelpcdn.com/bphoto/lUVT2-T2oD_j-i9KSKJuRw/o.jpg", "is_closed": false, "url": "https://www.yelp.com/biz/mekong-caf%C3%A9-milwaukee-2?adjust_creative=vyhy616UjsMTA_hrWyg_5w&utm_campaign=yelp_api_v3&utm_medium=api_v3_business_search&utm_source=vyhy616UjsMTA_hrWyg_5w", "review_count": 200, "categories": [{"alias": "vietnamese", "title": "Vietnamese"}, {"alias": "thai", "title": "Thai"}, {"alias": "laotian", "title": "Laotian"}], "rating": 3.5, "coordinates": {"latitude": 43.0608296799669, "longitude": -87.9873718681931}, "transactions": ["delivery", "pickup"], "price": "$$", "location": {"address1": "5930 W N Ave", "address2": "", "address3": "", "city": "Milwaukee", "zip_code": "53208", "country": "US", "state": "WI", "display_address": ["5930 W N Ave", "Milwaukee, WI 53208"]}, "phone": "+14142572228", "display_phone": "(414) 257-2228", "distance": 3378.4561564389383}, {"id": "Rk5w6valhs9K3k9jJU65Cw", "alias": "lee-restaurant-milwaukee", "name": "Lee Restaurant", "image_url": "https://s3-media3.fl.yelpcdn.com/bphoto/y21Qx1HgefsIgec9Y-FjqA/o.jpg", "is_closed": false, "url": "https://www.yelp.com/biz/lee-restaurant-milwaukee?adjust_creative=vyhy616UjsMTA_hrWyg_5w&utm_campaign=yelp_api_v3&utm_medium=api_v3_business_search&utm_source=vyhy616UjsMTA_hrWyg_5w", "review_count": 2, "categories": [{"alias": "noodles", "title": "Noodles"}, {"alias": "thai", "title": "Thai"}], "rating": 4.0, "coordinates": {"latitude": 43.1324886231486, "longitude": -88.0044814199209}, "transactions": [], "location": {"address1": "6300 N 76th St", "address2": "", "address3": null, "city": "Milwaukee", "zip_code": "53218", "country": "US", "state": "WI", "display_address": ["6300 N 76th St", "Milwaukee, WI 53218"]}, "phone": "+14143080412", "display_phone": "(414) 308-0412", "distance": 10869.78032439905}, {"id": "FnfwTsIoWHdDmxqyvznWaQ", "alias": "maki-yaki-japanese-grill-milwaukee-3", "name": "Maki Yaki Japanese Grill", "image_url": "https://s3-media2.fl.yelpcdn.com/bphoto/jHAo-5Qb-5bHeig4VTpZJA/o.jpg", "is_closed": false, "url": "https://www.yelp.com/biz/maki-yaki-japanese-grill-milwaukee-3?adjust_creative=vyhy616UjsMTA_hrWyg_5w&utm_campaign=yelp_api_v3&utm_medium=api_v3_business_search&utm_source=vyhy616UjsMTA_hrWyg_5w", "review_count": 68, "categories": [{"alias": "japanese", "title": "Japanese"}, {"alias": "sushi", "title": "Sushi Bars"}, {"alias": "asianfusion", "title": "Asian Fusion"}], "rating": 4.0, "coordinates": {"latitude": 43.0387835540214, "longitude": -87.9335647962952}, "transactions": ["delivery", "pickup"], "price": "$$", "location": {"address1": "1616 W Wisconsin Ave", "address2": null, "address3": "", "city": "Milwaukee", "zip_code": "53233", "country": "US", "state": "WI", "display_address": ["1616 W Wisconsin Ave", "Milwaukee, WI 53233"]}, "phone": "+14149093999", "display_phone": "(414) 909-3999", "distance": 1783.7192556955747}, {"id": "Eca_-0_bOdceLLpin-fz9A", "alias": "stone-bowl-grill-milwaukee", "name": "Stone Bowl Grill", "image_url": "https://s3-media4.fl.yelpcdn.com/bphoto/qdAYiaQ8TVKG6WddTornRw/o.jpg", "is_closed": false, "url": "https://www.yelp.com/biz/stone-bowl-grill-milwaukee?adjust_creative=vyhy616UjsMTA_hrWyg_5w&utm_campaign=yelp_api_v3&utm_medium=api_v3_business_search&utm_source=vyhy616UjsMTA_hrWyg_5w", "review_count": 267, "categories": [{"alias": "korean", "title": "Korean"}, {"alias": "desserts", "title": "Desserts"}, {"alias": "noodles", "title": "Noodles"}], "rating": 3.5, "coordinates": {"latitude": 43.056340913346, "longitude": -87.8890589252114}, "transactions": ["delivery", "pickup"], "price": "$$", "location": {"address1": "1958 N Farwell Ave", "address2": "", "address3": "", "city": "Milwaukee", "zip_code": "53202", "country": "US", "state": "WI", "display_address": ["1958 N Farwell Ave", "Milwaukee, WI 53202"]}, "phone": "+14142209111", "display_phone": "(414) 220-9111", "distance": 5616.20296646544}, {"id": "CNKAwzEuM_KQjklPRmAk6A", "alias": "pho-4-u-vietnamese-cuisine-brookfield", "name": "PHO 4 U Vietnamese Cuisine", "image_url": "https://s3-media2.fl.yelpcdn.com/bphoto/xEf-Lo6cy0HdxklDUFekxg/o.jpg", "is_closed": false, "url": "https://www.yelp.com/biz/pho-4-u-vietnamese-cuisine-brookfield?adjust_creative=vyhy616UjsMTA_hrWyg_5w&utm_campaign=yelp_api_v3&utm_medium=api_v3_business_search&utm_source=vyhy616UjsMTA_hrWyg_5w", "review_count": 39, "categories": [{"alias": "vietnamese", "title": "Vietnamese"}], "rating": 4.5, "coordinates": {"latitude": 43.08662567, "longitude": -88.06724633}, "transactions": ["delivery", "pickup"], "price": "$$", "location": {"address1": "3835 N 124th", "address2": null, "address3": "", "city": "Brookfield", "zip_code": "53005", "country": "US", "state": "WI", "display_address": ["3835 N 124th", "Brookfield, WI 53005"]}, "phone": "+12624399149", "display_phone": "(262) 439-9149", "distance": 10394.515073568098}, {"id": "7_APaDagf32NM0CBKnDogg", "alias": "kawa-japanese-restaurant-milwaukee", "name": "Kawa Japanese Restaurant", "image_url": "https://s3-media1.fl.yelpcdn.com/bphoto/uPyVEq7WOcqUj9h2JACOig/o.jpg", "is_closed": false, "url": "https://www.yelp.com/biz/kawa-japanese-restaurant-milwaukee?adjust_creative=vyhy616UjsMTA_hrWyg_5w&utm_campaign=yelp_api_v3&utm_medium=api_v3_business_search&utm_source=vyhy616UjsMTA_hrWyg_5w", "review_count": 162, "categories": [{"alias": "japanese", "title": "Japanese"}, {"alias": "sushi", "title": "Sushi Bars"}, {"alias": "asianfusion", "title": "Asian Fusion"}], "rating": 4.0, "coordinates": {"latitude": 43.11829, "longitude": -87.91379}, "transactions": ["pickup"], "price": "$$", "location": {"address1": "325 W Silver Spring Dr", "address2": "", "address3": "", "city": "Milwaukee", "zip_code": "53217", "country": "US", "state": "WI", "display_address": ["325 W Silver Spring Dr", "Milwaukee, WI 53217"]}, "phone": "+14142495750", "display_phone": "(414) 249-5750", "distance": 9174.942831313332}, {"id": "jKV8bxDv9VH2GvAnh5YRbw", "alias": "spicy-tuna-west-milwaukee-2", "name": "Spicy Tuna", "image_url": "https://s3-media1.fl.yelpcdn.com/bphoto/9VPOL8MZKHRutVtDgPR9hQ/o.jpg", "is_closed": false, "url": "https://www.yelp.com/biz/spicy-tuna-west-milwaukee-2?adjust_creative=vyhy616UjsMTA_hrWyg_5w&utm_campaign=yelp_api_v3&utm_medium=api_v3_business_search&utm_source=vyhy616UjsMTA_hrWyg_5w", "review_count": 113, "categories": [{"alias": "sushi", "title": "Sushi Bars"}, {"alias": "poke", "title": "Poke"}, {"alias": "ramen", "title": "Ramen"}], "rating": 4.5, "coordinates": {"latitude": 43.01971917, "longitude": -87.97430533}, "transactions": ["delivery", "pickup"], "price": "$$", "location": {"address1": "4823 W National Ave", "address2": null, "address3": "", "city": "West Milwaukee", "zip_code": "53214", "country": "US", "state": "WI", "display_address": ["4823 W National Ave", "West Milwaukee, WI 53214"]}, "phone": "+14146714823", "display_phone": "(414) 671-4823", "distance": 2894.9850146817}, {"id": "AbT7M3EMY4Ecukv1RR1o8A", "alias": "merge-milwaukee", "name": "Merge", "image_url": "https://s3-media3.fl.yelpcdn.com/bphoto/xCuEOzBBtbwfT26ZCoIQrg/o.jpg", "is_closed": false, "url": "https://www.yelp.com/biz/merge-milwaukee?adjust_creative=vyhy616UjsMTA_hrWyg_5w&utm_campaign=yelp_api_v3&utm_medium=api_v3_business_search&utm_source=vyhy616UjsMTA_hrWyg_5w", "review_count": 96, "categories": [{"alias": "korean", "title": "Korean"}, {"alias": "chicken_wings", "title": "Chicken Wings"}, {"alias": "pubs", "title": "Pubs"}], "rating": 4.0, "coordinates": {"latitude": 43.0590669, "longitude": -87.8854979}, "transactions": ["delivery", "pickup"], "location": {"address1": "1932 E Kenilworth Pl", "address2": "", "address3": null, "city": "Milwaukee", "zip_code": "53202", "country": "US", "state": "WI", "display_address": ["1932 E Kenilworth Pl", "Milwaukee, WI 53202"]}, "phone": "+14142265160", "display_phone": "(414) 226-5160", "distance": 5996.757203665004}, {"id": "kGZdoh6yLpX8HiME_Le0VQ", "alias": "chickfun-hales-corners", "name": "ChickFun", "image_url": "https://s3-media2.fl.yelpcdn.com/bphoto/xS3yAJHW8dAesEJFqXxmSA/o.jpg", "is_closed": false, "url": "https://www.yelp.com/biz/chickfun-hales-corners?adjust_creative=vyhy616UjsMTA_hrWyg_5w&utm_campaign=yelp_api_v3&utm_medium=api_v3_business_search&utm_source=vyhy616UjsMTA_hrWyg_5w", "review_count": 9, "categories": [{"alias": "korean", "title": "Korean"}], "rating": 3.5, "coordinates": {"latitude": 42.94874312907023, "longitude": -88.0486395974989}, "transactions": ["delivery", "pickup"], "location": {"address1": "5301 S 108th St", "address2": "", "address3": null, "city": "Hales Corners", "zip_code": "53130", "country": "US", "state": "WI", "display_address": ["5301 S 108th St", "Hales Corners, WI 53130"]}, "phone": "", "display_phone": "", "distance": 12822.63022650986}, {"id": "62iNJczC0j_mzbQcTHmBgw", "alias": "bambu-west-allis", "name": "BAMBU", "image_url": "https://s3-media4.fl.yelpcdn.com/bphoto/L5r8nCy5dAC8EH0tBi6WkA/o.jpg", "is_closed": false, "url": "https://www.yelp.com/biz/bambu-west-allis?adjust_creative=vyhy616UjsMTA_hrWyg_5w&utm_campaign=yelp_api_v3&utm_medium=api_v3_business_search&utm_source=vyhy616UjsMTA_hrWyg_5w", "review_count": 10, "categories": [{"alias": "bubbletea", "title": "Bubble Tea"}, {"alias": "juicebars", "title": "Juice Bars & Smoothies"}, {"alias": "vietnamese", "title": "Vietnamese"}], "rating": 5.0, "coordinates": {"latitude": 42.9886392, "longitude": -88.0460234}, "transactions": [], "location": {"address1": "10708 W Oklahoma Ave", "address2": "", "address3": null, "city": "West Allis", "zip_code": "53227", "country": "US", "state": "WI", "display_address": ["10708 W Oklahoma Ave", "West Allis, WI 53227"]}, "phone": "+14148376705", "display_phone": "(414) 837-6705", "distance": 9444.67033689078}, {"id": "7mlKPAp6KcI8n-bt3LEh9w", "alias": "hue-vietnamese-restaurant-wauwatosa-wauwatosa", "name": "Hue Vietnamese Restaurant - Wauwatosa", "image_url": "https://s3-media3.fl.yelpcdn.com/bphoto/_t9Zuzfjn6hlYNmAnheYzg/o.jpg", "is_closed": true, "url": "https://www.yelp.com/biz/hue-vietnamese-restaurant-wauwatosa-wauwatosa?adjust_creative=vyhy616UjsMTA_hrWyg_5w&utm_campaign=yelp_api_v3&utm_medium=api_v3_business_search&utm_source=vyhy616UjsMTA_hrWyg_5w", "review_count": 103, "categories": [{"alias": "vietnamese", "title": "Vietnamese"}], "rating": 4.0, "coordinates": {"latitude": 43.0606051, "longitude": -87.9942349}, "transactions": ["delivery"], "price": "$$", "location": {"address1": "6519 W North Ave", "address2": "", "address3": "", "city": "Wauwatosa", "zip_code": "53213", "country": "US", "state": "WI", "display_address": ["6519 W North Ave", "Wauwatosa, WI 53213"]}, "phone": "+14145850577", "display_phone": "(414) 585-0577", "distance": 3804.808847933257}, {"id": "0E5aLMKlywY4odyOPKJfhA", "alias": "kyoto-greenfield", "name": "Kyoto", "image_url": "https://s3-media2.fl.yelpcdn.com/bphoto/YsGIkzw-_B_MmzNz_mS2Yw/o.jpg", "is_closed": false, "url": "https://www.yelp.com/biz/kyoto-greenfield?adjust_creative=vyhy616UjsMTA_hrWyg_5w&utm_campaign=yelp_api_v3&utm_medium=api_v3_business_search&utm_source=vyhy616UjsMTA_hrWyg_5w", "review_count": 330, "categories": [{"alias": "japanese", "title": "Japanese"}, {"alias": "sushi", "title": "Sushi Bars"}], "rating": 4.0, "coordinates": {"latitude": 42.9590651, "longitude": -88.0064365}, "transactions": ["delivery", "pickup"], "price": "$$", "location": {"address1": "7453 W Layton Ave", "address2": "", "address3": "", "city": "Greenfield", "zip_code": "53220", "country": "US", "state": "WI", "display_address": ["7453 W Layton Ave", "Greenfield, WI 53220"]}, "phone": "+14143251000", "display_phone": "(414) 325-1000", "distance": 10134.562338935435}, {"id": "CBCQtRguMD_LqoqRxrpc6g", "alias": "red-light-ramen-milwaukee-5", "name": "Red Light Ramen", "image_url": "https://s3-media3.fl.yelpcdn.com/bphoto/-Ig0NK3du8E6aHFmL4y4Jg/o.jpg", "is_closed": false, "url": "https://www.yelp.com/biz/red-light-ramen-milwaukee-5?adjust_creative=vyhy616UjsMTA_hrWyg_5w&utm_campaign=yelp_api_v3&utm_medium=api_v3_business_search&utm_source=vyhy616UjsMTA_hrWyg_5w", "review_count": 176, "categories": [{"alias": "ramen", "title": "Ramen"}], "rating": 4.0, "coordinates": {"latitude": 43.053856, "longitude": -87.891644}, "transactions": ["delivery"], "price": "$$", "location": {"address1": "1749 N Farwell Ave", "address2": "", "address3": "", "city": "Milwaukee", "zip_code": "53202", "country": "US", "state": "WI", "display_address": ["1749 N Farwell Ave", "Milwaukee, WI 53202"]}, "phone": "+14148375107", "display_phone": "(414) 837-5107", "distance": 5338.65265210199}, {"id": "Jd7aUNdeHIRo8tLeuXByrw", "alias": "huan-xi-milwaukee", "name": "Huan Xi", "image_url": "https://s3-media3.fl.yelpcdn.com/bphoto/IMw5Tme3BrJDtkM6oZNOQg/o.jpg", "is_closed": false, "url": "https://www.yelp.com/biz/huan-xi-milwaukee?adjust_creative=vyhy616UjsMTA_hrWyg_5w&utm_campaign=yelp_api_v3&utm_medium=api_v3_business_search&utm_source=vyhy616UjsMTA_hrWyg_5w", "review_count": 181, "categories": [{"alias": "chinese", "title": "Chinese"}, {"alias": "hotpot", "title": "Hot Pot"}], "rating": 3.5, "coordinates": {"latitude": 43.06207, "longitude": -87.88522}, "transactions": ["delivery", "pickup"], "price": "$$", "location": {"address1": "2428 N Murray Ave", "address2": "", "address3": "", "city": "Milwaukee", "zip_code": "53211", "country": "US", "state": "WI", "display_address": ["2428 N Murray Ave", "Milwaukee, WI 53211"]}, "phone": "+14149068888", "display_phone": "(414) 906-8888", "distance": 6135.817351978267}, {"id": "vwykKX_ZFjD6UIU12Z4Zww", "alias": "elephant-caf\u00e9-milwaukee-2", "name": "Elephant Caf\u00e9", "image_url": "https://s3-media1.fl.yelpcdn.com/bphoto/A6JNAjwsBJb4I3YYtP09Pg/o.jpg", "is_closed": false, "url": "https://www.yelp.com/biz/elephant-caf%C3%A9-milwaukee-2?adjust_creative=vyhy616UjsMTA_hrWyg_5w&utm_campaign=yelp_api_v3&utm_medium=api_v3_business_search&utm_source=vyhy616UjsMTA_hrWyg_5w", "review_count": 125, "categories": [{"alias": "thai", "title": "Thai"}], "rating": 4.0, "coordinates": {"latitude": 43.0499936572783, "longitude": -87.8954495156033}, "transactions": ["delivery"], "price": "$$", "location": {"address1": "1505 N Farwell Ave", "address2": "", "address3": "", "city": "Milwaukee", "zip_code": "53202", "country": "US", "state": "WI", "display_address": ["1505 N Farwell Ave", "Milwaukee, WI 53202"]}, "phone": "+14142209322", "display_phone": "(414) 220-9322", "distance": 4941.715061984225}, {"id": "RH_HWeJeeRHzFV5bPTwViQ", "alias": "artisan-ramen-milwaukee", "name": "Artisan Ramen", "image_url": "https://s3-media2.fl.yelpcdn.com/bphoto/CzW8_gntV6oiiPUleGVncA/o.jpg", "is_closed": false, "url": "https://www.yelp.com/biz/artisan-ramen-milwaukee?adjust_creative=vyhy616UjsMTA_hrWyg_5w&utm_campaign=yelp_api_v3&utm_medium=api_v3_business_search&utm_source=vyhy616UjsMTA_hrWyg_5w", "review_count": 167, "categories": [{"alias": "asianfusion", "title": "Asian Fusion"}, {"alias": "ramen", "title": "Ramen"}, {"alias": "sushi", "title": "Sushi Bars"}], "rating": 4.0, "coordinates": {"latitude": 43.0402008, "longitude": -87.904937}, "transactions": ["delivery", "pickup"], "price": "$$", "location": {"address1": "530 E Mason St", "address2": "", "address3": null, "city": "Milwaukee", "zip_code": "53202", "country": "US", "state": "WI", "display_address": ["530 E Mason St", "Milwaukee, WI 53202"]}, "phone": "+14148888800", "display_phone": "(414) 888-8800", "distance": 4109.292747986806}, {"id": "vZAJg9dL21A5nUm1DFKOBw", "alias": "kanpai-milwaukee-2", "name": "Kanpai", "image_url": "https://s3-media3.fl.yelpcdn.com/bphoto/gttwwn0YLJ1IWnIibqsurQ/o.jpg", "is_closed": false, "url": "https://www.yelp.com/biz/kanpai-milwaukee-2?adjust_creative=vyhy616UjsMTA_hrWyg_5w&utm_campaign=yelp_api_v3&utm_medium=api_v3_business_search&utm_source=vyhy616UjsMTA_hrWyg_5w", "review_count": 324, "categories": [{"alias": "japanese", "title": "Japanese"}, {"alias": "asianfusion", "title": "Asian Fusion"}, {"alias": "sushi", "title": "Sushi Bars"}], "rating": 3.5, "coordinates": {"latitude": 43.0328796, "longitude": -87.9055782}, "transactions": ["delivery", "pickup"], "price": "$$", "location": {"address1": "408 E Chicago St", "address2": "", "address3": "", "city": "Milwaukee", "zip_code": "53202", "country": "US", "state": "WI", "display_address": ["408 E Chicago St", "Milwaukee, WI 53202"]}, "phone": "+14142201155", "display_phone": "(414) 220-1155", "distance": 4169.292947390035}, {"id": "RJjZhKAHmLz3AEyzpzl1Wg", "alias": "koi-japanese-cuisine-milwaukee", "name": "KOI Japanese Cuisine", "image_url": "https://s3-media1.fl.yelpcdn.com/bphoto/mNu3f7q7cbWGVEd1HVjGhA/o.jpg", "is_closed": false, "url": "https://www.yelp.com/biz/koi-japanese-cuisine-milwaukee?adjust_creative=vyhy616UjsMTA_hrWyg_5w&utm_campaign=yelp_api_v3&utm_medium=api_v3_business_search&utm_source=vyhy616UjsMTA_hrWyg_5w", "review_count": 188, "categories": [{"alias": "japanese", "title": "Japanese"}, {"alias": "sushi", "title": "Sushi Bars"}], "rating": 4.0, "coordinates": {"latitude": 42.9595983405147, "longitude": -87.918366974205}, "transactions": ["delivery", "pickup"], "price": "$$", "location": {"address1": "552 W Layton Ave", "address2": "", "address3": "", "city": "Milwaukee", "zip_code": "53207", "country": "US", "state": "WI", "display_address": ["552 W Layton Ave", "Milwaukee, WI 53207"]}, "phone": "+14144812288", "display_phone": "(414) 481-2288", "distance": 9597.801901753392}, {"id": "c7ctzkIH3jfHfI1tJTaFdw", "alias": "ruyi-milwaukee", "name": "RuYi", "image_url": "https://s3-media3.fl.yelpcdn.com/bphoto/UVKNZMs6bqjM9lCWKnFtkA/o.jpg", "is_closed": false, "url": "https://www.yelp.com/biz/ruyi-milwaukee?adjust_creative=vyhy616UjsMTA_hrWyg_5w&utm_campaign=yelp_api_v3&utm_medium=api_v3_business_search&utm_source=vyhy616UjsMTA_hrWyg_5w", "review_count": 106, "categories": [{"alias": "chinese", "title": "Chinese"}, {"alias": "sushi", "title": "Sushi Bars"}, {"alias": "japanese", "title": "Japanese"}], "rating": 3.5, "coordinates": {"latitude": 43.030471, "longitude": -87.934636}, "transactions": ["delivery"], "price": "$$", "location": {"address1": "1721 W Canal St", "address2": "", "address3": "", "city": "Milwaukee", "zip_code": "53223", "country": "US", "state": "WI", "display_address": ["1721 W Canal St", "Milwaukee, WI 53223"]}, "phone": "+14148477335", "display_phone": "(414) 847-7335", "distance": 2078.267979785375}, {"id": "9CpZyYy4mbNX9dGc5hPjgw", "alias": "nihao-menomonee-falls", "name": "Nihao", "image_url": "https://s3-media2.fl.yelpcdn.com/bphoto/_er2GfLyrkKYObeEcrSziQ/o.jpg", "is_closed": false, "url": "https://www.yelp.com/biz/nihao-menomonee-falls?adjust_creative=vyhy616UjsMTA_hrWyg_5w&utm_campaign=yelp_api_v3&utm_medium=api_v3_business_search&utm_source=vyhy616UjsMTA_hrWyg_5w", "review_count": 47, "categories": [{"alias": "chinese", "title": "Chinese"}, {"alias": "taiwanese", "title": "Taiwanese"}], "rating": 4.0, "coordinates": {"latitude": 43.164498, "longitude": -88.095771}, "transactions": ["delivery"], "price": "$$", "location": {"address1": "N 80 W 14938 Appleton Ave", "address2": "", "address3": "", "city": "Menomonee Falls", "zip_code": "53051", "country": "US", "state": "WI", "display_address": ["N 80 W 14938 Appleton Ave", "Menomonee Falls, WI 53051"]}, "phone": "+12622516666", "display_phone": "(262) 251-6666", "distance": 17805.027230375923}, {"id": "AMAPqrnb00Le2Iyx1D-S5Q", "alias": "pho-one24-brookfield", "name": "Pho One24", "image_url": "https://s3-media3.fl.yelpcdn.com/bphoto/KS59kOSSn26y3EkcHOSxeg/o.jpg", "is_closed": false, "url": "https://www.yelp.com/biz/pho-one24-brookfield?adjust_creative=vyhy616UjsMTA_hrWyg_5w&utm_campaign=yelp_api_v3&utm_medium=api_v3_business_search&utm_source=vyhy616UjsMTA_hrWyg_5w", "review_count": 194, "categories": [{"alias": "vietnamese", "title": "Vietnamese"}], "rating": 4.0, "coordinates": {"latitude": 43.08544, "longitude": -88.06696}, "transactions": ["delivery"], "price": "$$", "location": {"address1": "3705 N 124th St", "address2": "Ste 400", "address3": "", "city": "Brookfield", "zip_code": "53005", "country": "US", "state": "WI", "display_address": ["3705 N 124th St", "Ste 400", "Brookfield, WI 53005"]}, "phone": "+12625831250", "display_phone": "(262) 583-1250", "distance": 10310.981393344058}, {"id": "KK9uUG3ibjTP96SLaTLttw", "alias": "j-j-chens-eatery-west-allis", "name": "J.J. Chen's Eatery", "image_url": "https://s3-media1.fl.yelpcdn.com/bphoto/92bcA9-kt1pU7z03Mciczg/o.jpg", "is_closed": false, "url": "https://www.yelp.com/biz/j-j-chens-eatery-west-allis?adjust_creative=vyhy616UjsMTA_hrWyg_5w&utm_campaign=yelp_api_v3&utm_medium=api_v3_business_search&utm_source=vyhy616UjsMTA_hrWyg_5w", "review_count": 185, "categories": [{"alias": "dimsum", "title": "Dim Sum"}, {"alias": "szechuan", "title": "Szechuan"}], "rating": 4.0, "coordinates": {"latitude": 42.9882949, "longitude": -88.0464311}, "transactions": ["delivery", "pickup"], "price": "$", "location": {"address1": "10722 W Oklahoma Ave", "address2": "", "address3": "", "city": "West Allis", "zip_code": "53227", "country": "US", "state": "WI", "display_address": ["10722 W Oklahoma Ave", "West Allis, WI 53227"]}, "phone": "+14143298333", "display_phone": "(414) 329-8333", "distance": 9468.03688672614}, {"id": "rOaEOn9UXrWas0fCmwMA8A", "alias": "huhot-mongolian-grill-west-allis", "name": "HuHot Mongolian Grill", "image_url": "https://s3-media2.fl.yelpcdn.com/bphoto/lucbSkFFsyYhKjMG8w9RUw/o.jpg", "is_closed": false, "url": "https://www.yelp.com/biz/huhot-mongolian-grill-west-allis?adjust_creative=vyhy616UjsMTA_hrWyg_5w&utm_campaign=yelp_api_v3&utm_medium=api_v3_business_search&utm_source=vyhy616UjsMTA_hrWyg_5w", "review_count": 60, "categories": [{"alias": "asianfusion", "title": "Asian Fusion"}, {"alias": "mongolian", "title": "Mongolian"}, {"alias": "chinese", "title": "Chinese"}], "rating": 3.0, "coordinates": {"latitude": 42.989445909214, "longitude": -88.0472491972341}, "transactions": ["delivery"], "price": "$$", "location": {"address1": "3021 S 108th St", "address2": "", "address3": null, "city": "West Allis", "zip_code": "53227", "country": "US", "state": "WI", "display_address": ["3021 S 108th St", "West Allis, WI 53227"]}, "phone": "+14149888881", "display_phone": "(414) 988-8881", "distance": 9470.383647044688}, {"id": "9AXIxFPoOzyMuZF6omXLyQ", "alias": "phans-garden-restaurant-milwaukee", "name": "Phan's Garden Restaurant", "image_url": "https://s3-media2.fl.yelpcdn.com/bphoto/bps273i1Qys97wsrXUCeCg/o.jpg", "is_closed": false, "url": "https://www.yelp.com/biz/phans-garden-restaurant-milwaukee?adjust_creative=vyhy616UjsMTA_hrWyg_5w&utm_campaign=yelp_api_v3&utm_medium=api_v3_business_search&utm_source=vyhy616UjsMTA_hrWyg_5w", "review_count": 74, "categories": [{"alias": "vietnamese", "title": "Vietnamese"}], "rating": 3.5, "coordinates": {"latitude": 43.0226746, "longitude": -87.9371719}, "transactions": ["delivery"], "price": "$$", "location": {"address1": "1923 W National Ave", "address2": "", "address3": "", "city": "Milwaukee", "zip_code": "53204", "country": "US", "state": "WI", "display_address": ["1923 W National Ave", "Milwaukee, WI 53204"]}, "phone": "+14143844522", "display_phone": "(414) 384-4522", "distance": 2565.2306181070453}, {"id": "8xJ-PcK6JF4xP1WmKbvu4A", "alias": "tanpopo-ramen-and-sushi-restaurant-hales-corners", "name": "Tanpopo Ramen & Sushi Restaurant", "image_url": "https://s3-media1.fl.yelpcdn.com/bphoto/LPFfsFnwPHC6gavDzfN3fQ/o.jpg", "is_closed": false, "url": "https://www.yelp.com/biz/tanpopo-ramen-and-sushi-restaurant-hales-corners?adjust_creative=vyhy616UjsMTA_hrWyg_5w&utm_campaign=yelp_api_v3&utm_medium=api_v3_business_search&utm_source=vyhy616UjsMTA_hrWyg_5w", "review_count": 240, "categories": [{"alias": "sushi", "title": "Sushi Bars"}, {"alias": "ramen", "title": "Ramen"}, {"alias": "bubbletea", "title": "Bubble Tea"}], "rating": 4.0, "coordinates": {"latitude": 42.95003, "longitude": -88.04881}, "transactions": ["delivery"], "price": "$$", "location": {"address1": "5191 S 108th St", "address2": "", "address3": "", "city": "Hales Corners", "zip_code": "53130", "country": "US", "state": "WI", "display_address": ["5191 S 108th St", "Hales Corners, WI 53130"]}, "phone": "+14145252266", "display_phone": "(414) 525-2266", "distance": 12706.969061171536}, {"id": "xHf3sZWyWp448Cz9XJf6Jg", "alias": "xankia-milwaukee", "name": "Xankia", "image_url": "https://s3-media4.fl.yelpcdn.com/bphoto/EvIjOTBsQF2TgBy5zONBMw/o.jpg", "is_closed": false, "url": "https://www.yelp.com/biz/xankia-milwaukee?adjust_creative=vyhy616UjsMTA_hrWyg_5w&utm_campaign=yelp_api_v3&utm_medium=api_v3_business_search&utm_source=vyhy616UjsMTA_hrWyg_5w", "review_count": 152, "categories": [{"alias": "vietnamese", "title": "Vietnamese"}, {"alias": "bubbletea", "title": "Bubble Tea"}, {"alias": "sandwiches", "title": "Sandwiches"}], "rating": 4.0, "coordinates": {"latitude": 43.0402794, "longitude": -87.913414}, "transactions": ["delivery", "pickup"], "price": "$$", "location": {"address1": "222 W Wells St", "address2": "", "address3": "", "city": "Milwaukee", "zip_code": "53203", "country": "US", "state": "WI", "display_address": ["222 W Wells St", "Milwaukee, WI 53203"]}, "phone": "+14148170241", "display_phone": "(414) 817-0241", "distance": 3360.2633095512874}, {"id": "GgMN8xNmYev2ES44m7bCwQ", "alias": "jackies-cafe-milwaukee", "name": "Jackie's Cafe", "image_url": "https://s3-media2.fl.yelpcdn.com/bphoto/LP_eG5aUdyYfrWrbBskEow/o.jpg", "is_closed": false, "url": "https://www.yelp.com/biz/jackies-cafe-milwaukee?adjust_creative=vyhy616UjsMTA_hrWyg_5w&utm_campaign=yelp_api_v3&utm_medium=api_v3_business_search&utm_source=vyhy616UjsMTA_hrWyg_5w", "review_count": 12, "categories": [{"alias": "asianfusion", "title": "Asian Fusion"}], "rating": 4.0, "coordinates": {"latitude": 43.0883, "longitude": -88.0068}, "transactions": ["delivery"], "location": {"address1": "3902 N 76th St", "address2": "", "address3": null, "city": "Milwaukee", "zip_code": "53222", "country": "US", "state": "WI", "display_address": ["3902 N 76th St", "Milwaukee, WI 53222"]}, "phone": "+14142495672", "display_phone": "(414) 249-5672", "distance": 6672.283229472832}], "total": 236, "region": {"center": {"longitude": -87.95516967773438, "latitude": 43.04160973514253}}}