{"businesses": [{"id": "21wE5nsYGR6ighSmLH2j0w", "alias": "chow-thai-charleston", "name": "Chow Thai", "image_url": "https://s3-media3.fl.yelpcdn.com/bphoto/NtKj1btLgKR3khMOVTasCQ/o.jpg", "is_closed": false, "url": "https://www.yelp.com/biz/chow-thai-charleston?adjust_creative=vyhy616UjsMTA_hrWyg_5w&utm_campaign=yelp_api_v3&utm_medium=api_v3_business_search&utm_source=vyhy616UjsMTA_hrWyg_5w", "review_count": 117, "categories": [{"alias": "thai", "title": "Thai"}], "rating": 4.5, "coordinates": {"latitude": 38.3502309400941, "longitude": -81.6302833378972}, "transactions": ["delivery", "pickup"], "price": "$$", "location": {"address1": "426 1/2 B Shrewsbury St", "address2": "", "address3": null, "city": "Charleston", "zip_code": "25301", "country": "US", "state": "WV", "display_address": ["426 1/2 B Shrewsbury St", "Charleston, WV 25301"]}, "phone": "+16812653800", "display_phone": "(681) 265-3800", "distance": 921.4671628428237}, {"id": "QXo29tHoRuiqbLLxz6l_-A", "alias": "pho-vinh-long-charleston-2", "name": "Pho Vinh Long", "image_url": "https://s3-media3.fl.yelpcdn.com/bphoto/eJFxtHdZa4w8lY5Fjj0cPg/o.jpg", "is_closed": false, "url": "https://www.yelp.com/biz/pho-vinh-long-charleston-2?adjust_creative=vyhy616UjsMTA_hrWyg_5w&utm_campaign=yelp_api_v3&utm_medium=api_v3_business_search&utm_source=vyhy616UjsMTA_hrWyg_5w", "review_count": 101, "categories": [{"alias": "vietnamese", "title": "Vietnamese"}, {"alias": "bubbletea", "title": "Bubble Tea"}], "rating": 4.0, "coordinates": {"latitude": 38.36775, "longitude": -81.69628}, "transactions": ["delivery"], "price": "$$", "location": {"address1": "601 D St", "address2": "", "address3": "", "city": "Charleston", "zip_code": "25303", "country": "US", "state": "WV", "display_address": ["601 D St", "Charleston, WV 25303"]}, "phone": "+13047207333", "display_phone": "(304) 720-7333", "distance": 5205.940211433167}, {"id": "YBor6r4_j_9KNZa6E2BvHw", "alias": "china-one-charleston", "name": "China One", "image_url": "https://s3-media4.fl.yelpcdn.com/bphoto/ymSBK6ROZpxjNlc8iplqig/o.jpg", "is_closed": false, "url": "https://www.yelp.com/biz/china-one-charleston?adjust_creative=vyhy616UjsMTA_hrWyg_5w&utm_campaign=yelp_api_v3&utm_medium=api_v3_business_search&utm_source=vyhy616UjsMTA_hrWyg_5w", "review_count": 12, "categories": [{"alias": "chinese", "title": "Chinese"}], "rating": 4.5, "coordinates": {"latitude": 38.3250627390041, "longitude": -81.5872909873724}, "transactions": ["delivery"], "price": "$$", "location": {"address1": "4218 Maccorkle Ave SE", "address2": "", "address3": "", "city": "Charleston", "zip_code": "25304", "country": "US", "state": "WV", "display_address": ["4218 Maccorkle Ave SE", "Charleston, WV 25304"]}, "phone": "+13049258839", "display_phone": "(304) 925-8839", "distance": 5483.960298644507}, {"id": "4WuXX_TTIZKUkpE-fN-jJg", "alias": "taste-of-asia-charleston", "name": "Taste of Asia", "image_url": "https://s3-media1.fl.yelpcdn.com/bphoto/WKDSpVUASEqEiKz5GWyfpw/o.jpg", "is_closed": false, "url": "https://www.yelp.com/biz/taste-of-asia-charleston?adjust_creative=vyhy616UjsMTA_hrWyg_5w&utm_campaign=yelp_api_v3&utm_medium=api_v3_business_search&utm_source=vyhy616UjsMTA_hrWyg_5w", "review_count": 57, "categories": [{"alias": "asianfusion", "title": "Asian Fusion"}], "rating": 3.0, "coordinates": {"latitude": 38.36811, "longitude": -81.69691}, "transactions": ["delivery", "pickup"], "price": "$$", "location": {"address1": "236 7th Ave SW", "address2": "", "address3": "", "city": "Charleston", "zip_code": "25303", "country": "US", "state": "WV", "display_address": ["236 7th Ave SW", "Charleston, WV 25303"]}, "phone": "+13047448933", "display_phone": "(304) 744-8933", "distance": 5287.136367506789}, {"id": "tMbzZ0XgpBHAlOfPhcJXUg", "alias": "barkadas-charleston-3", "name": "Barkadas", "image_url": "https://s3-media3.fl.yelpcdn.com/bphoto/hQqjXdk4nufurejeKSMo1g/o.jpg", "is_closed": false, "url": "https://www.yelp.com/biz/barkadas-charleston-3?adjust_creative=vyhy616UjsMTA_hrWyg_5w&utm_campaign=yelp_api_v3&utm_medium=api_v3_business_search&utm_source=vyhy616UjsMTA_hrWyg_5w", "review_count": 38, "categories": [{"alias": "filipino", "title": "Filipino"}, {"alias": "salad", "title": "Salad"}, {"alias": "chicken_wings", "title": "Chicken Wings"}], "rating": 4.5, "coordinates": {"latitude": 38.34819, "longitude": -81.65511}, "transactions": ["delivery", "pickup"], "location": {"address1": "100 Cantley Dr", "address2": null, "address3": "", "city": "Charleston", "zip_code": "25314", "country": "US", "state": "WV", "display_address": ["100 Cantley Dr", "Charleston, WV 25314"]}, "phone": "", "display_phone": "", "distance": 1371.4517076225643}, {"id": "FaZMVfKBGXqcllF_-rT9Ow", "alias": "fujiyama-charleston", "name": "Fujiyama", "image_url": "https://s3-media2.fl.yelpcdn.com/bphoto/Mq2Zvd5kjio6xs5tjppuWA/o.jpg", "is_closed": false, "url": "https://www.yelp.com/biz/fujiyama-charleston?adjust_creative=vyhy616UjsMTA_hrWyg_5w&utm_campaign=yelp_api_v3&utm_medium=api_v3_business_search&utm_source=vyhy616UjsMTA_hrWyg_5w", "review_count": 35, "categories": [{"alias": "sushi", "title": "Sushi Bars"}, {"alias": "japanese", "title": "Japanese"}, {"alias": "steak", "title": "Steakhouses"}], "rating": 4.0, "coordinates": {"latitude": 38.3114111900386, "longitude": -81.5634281857051}, "transactions": ["pickup"], "price": "$$", "location": {"address1": "5780 Maccorkle Ave SE", "address2": "", "address3": "", "city": "Charleston", "zip_code": "25304", "country": "US", "state": "WV", "display_address": ["5780 Maccorkle Ave SE", "Charleston, WV 25304"]}, "phone": "+13043437788", "display_phone": "(304) 343-7788", "distance": 8057.727152978815}, {"id": "QtDNXkNxTt-5tHyzgxh6FQ", "alias": "fusion-teriyaki-grille-charleston", "name": "Fusion Teriyaki Grille", "image_url": "https://s3-media4.fl.yelpcdn.com/bphoto/_OWPIGQ8cysW-FiyN-KNxQ/o.jpg", "is_closed": false, "url": "https://www.yelp.com/biz/fusion-teriyaki-grille-charleston?adjust_creative=vyhy616UjsMTA_hrWyg_5w&utm_campaign=yelp_api_v3&utm_medium=api_v3_business_search&utm_source=vyhy616UjsMTA_hrWyg_5w", "review_count": 64, "categories": [{"alias": "korean", "title": "Korean"}, {"alias": "japanese", "title": "Japanese"}, {"alias": "asianfusion", "title": "Asian Fusion"}], "rating": 4.0, "coordinates": {"latitude": 38.3266311138868, "longitude": -81.5905854105949}, "transactions": ["delivery", "pickup"], "price": "$", "location": {"address1": "4002 Maccorkle Ave SE", "address2": "", "address3": "", "city": "Charleston", "zip_code": "25304", "country": "US", "state": "WV", "display_address": ["4002 Maccorkle Ave SE", "Charleston, WV 25304"]}, "phone": "+13049253663", "display_phone": "(304) 925-3663", "distance": 5161.1604303815375}, {"id": "dgTqIuOCB1KArHZzaYHdvA", "alias": "main-kwong-charleston", "name": "Main Kwong", "image_url": "https://s3-media1.fl.yelpcdn.com/bphoto/uSFiSYmljpM5i-P9PnZoEg/o.jpg", "is_closed": false, "url": "https://www.yelp.com/biz/main-kwong-charleston?adjust_creative=vyhy616UjsMTA_hrWyg_5w&utm_campaign=yelp_api_v3&utm_medium=api_v3_business_search&utm_source=vyhy616UjsMTA_hrWyg_5w", "review_count": 92, "categories": [{"alias": "chinese", "title": "Chinese"}], "rating": 4.0, "coordinates": {"latitude": 38.344735, "longitude": -81.624699}, "transactions": ["pickup", "delivery"], "price": "$", "location": {"address1": "1407 Washington St E", "address2": "", "address3": "", "city": "Charleston", "zip_code": "25301", "country": "US", "state": "WV", "display_address": ["1407 Washington St E", "Charleston, WV 25301"]}, "phone": "+13043428899", "display_phone": "(304) 342-8899", "distance": 1557.665881412557}, {"id": "rgEWHyyW8YUrcj8tiA3dkA", "alias": "bamboo-garden-charleston", "name": "Bamboo Garden", "image_url": "https://s3-media3.fl.yelpcdn.com/bphoto/q-bLWPwjG9FvCqgSDxWILw/o.jpg", "is_closed": false, "url": "https://www.yelp.com/biz/bamboo-garden-charleston?adjust_creative=vyhy616UjsMTA_hrWyg_5w&utm_campaign=yelp_api_v3&utm_medium=api_v3_business_search&utm_source=vyhy616UjsMTA_hrWyg_5w", "review_count": 10, "categories": [{"alias": "chinese", "title": "Chinese"}], "rating": 4.0, "coordinates": {"latitude": 38.47741, "longitude": -81.67137}, "transactions": [], "price": "$$", "location": {"address1": "6411 Sissonville Dr", "address2": null, "address3": null, "city": "Charleston", "zip_code": "25320", "country": "US", "state": "WV", "display_address": ["6411 Sissonville Dr", "Charleston, WV 25320"]}, "phone": "+13049849848", "display_phone": "(304) 984-9848", "distance": 14224.527613512573}, {"id": "sCXjGpZSKWbTKEl-HBGxYA", "alias": "ichiban-pan-asian-cuisine-charleston", "name": "Ichiban Pan-Asian Cuisine", "image_url": "https://s3-media2.fl.yelpcdn.com/bphoto/jcS1C_opmYph7DKP1JEejQ/o.jpg", "is_closed": false, "url": "https://www.yelp.com/biz/ichiban-pan-asian-cuisine-charleston?adjust_creative=vyhy616UjsMTA_hrWyg_5w&utm_campaign=yelp_api_v3&utm_medium=api_v3_business_search&utm_source=vyhy616UjsMTA_hrWyg_5w", "review_count": 70, "categories": [{"alias": "asianfusion", "title": "Asian Fusion"}], "rating": 3.0, "coordinates": {"latitude": 38.34952, "longitude": -81.63601}, "transactions": ["delivery", "pickup"], "price": "$$", "location": {"address1": "103 Capitol St", "address2": "", "address3": "", "city": "Charleston", "zip_code": "25301", "country": "US", "state": "WV", "display_address": ["103 Capitol St", "Charleston, WV 25301"]}, "phone": "+13047207874", "display_phone": "(304) 720-7874", "distance": 447.63029646279364}, {"id": "diXh4urd9MSrFBsKxjUzWA", "alias": "rice-bowl-charleston", "name": "Rice Bowl", "image_url": "https://s3-media4.fl.yelpcdn.com/bphoto/EwoDk8N--Mca_ZyPeI7KKw/o.jpg", "is_closed": false, "url": "https://www.yelp.com/biz/rice-bowl-charleston?adjust_creative=vyhy616UjsMTA_hrWyg_5w&utm_campaign=yelp_api_v3&utm_medium=api_v3_business_search&utm_source=vyhy616UjsMTA_hrWyg_5w", "review_count": 39, "categories": [{"alias": "chinese", "title": "Chinese"}], "rating": 3.5, "coordinates": {"latitude": 38.41831, "longitude": -81.7927}, "transactions": ["delivery"], "price": "$", "location": {"address1": "121 Goff Mountain Rd", "address2": "", "address3": "", "city": "Charleston", "zip_code": "25313", "country": "US", "state": "WV", "display_address": ["121 Goff Mountain Rd", "Charleston, WV 25313"]}, "phone": "+13047766888", "display_phone": "(304) 776-6888", "distance": 15170.76975190365}, {"id": "nUAFYf69jmGgtC5cnQNYCA", "alias": "main-tin-restaurant-charleston", "name": "Main Tin Restaurant", "image_url": "https://s3-media2.fl.yelpcdn.com/bphoto/ZfG8tRgoxNPmKa-1s6yRPw/o.jpg", "is_closed": false, "url": "https://www.yelp.com/biz/main-tin-restaurant-charleston?adjust_creative=vyhy616UjsMTA_hrWyg_5w&utm_campaign=yelp_api_v3&utm_medium=api_v3_business_search&utm_source=vyhy616UjsMTA_hrWyg_5w", "review_count": 47, "categories": [{"alias": "chinese", "title": "Chinese"}], "rating": 3.5, "coordinates": {"latitude": 38.368331, "longitude": -81.69686}, "transactions": ["delivery"], "price": "$", "location": {"address1": "242 7th Ave SW", "address2": "", "address3": "", "city": "Charleston", "zip_code": "25303", "country": "US", "state": "WV", "display_address": ["242 7th Ave SW", "Charleston, WV 25303"]}, "phone": "+13047442900", "display_phone": "(304) 744-2900", "distance": 5278.3698292688205}, {"id": "KWN0qhUoQVsZVNrr7M7SMg", "alias": "rio-de-grill-charleston-5", "name": "Rio De Grill", "image_url": "https://s3-media1.fl.yelpcdn.com/bphoto/9PXl34sI0pUjogMCalkFPw/o.jpg", "is_closed": false, "url": "https://www.yelp.com/biz/rio-de-grill-charleston-5?adjust_creative=vyhy616UjsMTA_hrWyg_5w&utm_campaign=yelp_api_v3&utm_medium=api_v3_business_search&utm_source=vyhy616UjsMTA_hrWyg_5w", "review_count": 45, "categories": [{"alias": "buffets", "title": "Buffets"}, {"alias": "steak", "title": "Steakhouses"}, {"alias": "brazilian", "title": "Brazilian"}], "rating": 3.5, "coordinates": {"latitude": 38.3281941711903, "longitude": -81.5968007594347}, "transactions": [], "price": "$$$", "location": {"address1": "3600 Maccorkle Ave SE", "address2": "", "address3": null, "city": "Charleston", "zip_code": "25304", "country": "US", "state": "WV", "display_address": ["3600 Maccorkle Ave SE", "Charleston, WV 25304"]}, "phone": "+13049265555", "display_phone": "(304) 926-5555", "distance": 4601.051203153727}, {"id": "EhaROl7TIg0H113vV2PSyQ", "alias": "hibachi-south-charleston", "name": "Hibachi", "image_url": "https://s3-media1.fl.yelpcdn.com/bphoto/eqLW3VC8_O-U7fppTn1wHw/o.jpg", "is_closed": false, "url": "https://www.yelp.com/biz/hibachi-south-charleston?adjust_creative=vyhy616UjsMTA_hrWyg_5w&utm_campaign=yelp_api_v3&utm_medium=api_v3_business_search&utm_source=vyhy616UjsMTA_hrWyg_5w", "review_count": 35, "categories": [{"alias": "japanese", "title": "Japanese"}], "rating": 2.5, "coordinates": {"latitude": 38.3355018496513, "longitude": -81.713245511055}, "transactions": ["delivery"], "price": "$$", "location": {"address1": "48 Rhl Blvd", "address2": "", "address3": "", "city": "South Charleston", "zip_code": "25309", "country": "US", "state": "WV", "display_address": ["48 Rhl Blvd", "South Charleston, WV 25309"]}, "phone": "+13047465560", "display_phone": "(304) 746-5560", "distance": 6712.3822951272}, {"id": "ayFLKGe-Q_pi0hNEYnF9gg", "alias": "yens-sandwiches-south-charleston", "name": "Yen's Sandwiches", "image_url": "https://s3-media3.fl.yelpcdn.com/bphoto/5lptSgmbmbxAOglQZzlCig/o.jpg", "is_closed": false, "url": "https://www.yelp.com/biz/yens-sandwiches-south-charleston?adjust_creative=vyhy616UjsMTA_hrWyg_5w&utm_campaign=yelp_api_v3&utm_medium=api_v3_business_search&utm_source=vyhy616UjsMTA_hrWyg_5w", "review_count": 85, "categories": [{"alias": "vietnamese", "title": "Vietnamese"}], "rating": 4.5, "coordinates": {"latitude": 38.3679485321045, "longitude": -81.6959606856108}, "transactions": ["delivery"], "price": "$", "location": {"address1": "606 D St", "address2": "", "address3": "", "city": "South Charleston", "zip_code": "25303", "country": "US", "state": "WV", "display_address": ["606 D St", "South Charleston, WV 25303"]}, "phone": "+16812058442", "display_phone": "(681) 205-8442", "distance": 5185.382642265182}, {"id": "G6wgDaVOSujJ2b4LjUHqpg", "alias": "sakura-charleston-2", "name": "Sakura", "image_url": "https://s3-media3.fl.yelpcdn.com/bphoto/oFbmVicpvzpkXQBkPZmUQg/o.jpg", "is_closed": false, "url": "https://www.yelp.com/biz/sakura-charleston-2?adjust_creative=vyhy616UjsMTA_hrWyg_5w&utm_campaign=yelp_api_v3&utm_medium=api_v3_business_search&utm_source=vyhy616UjsMTA_hrWyg_5w", "review_count": 40, "categories": [{"alias": "japanese", "title": "Japanese"}, {"alias": "sushi", "title": "Sushi Bars"}], "rating": 4.0, "coordinates": {"latitude": 38.4107991305237, "longitude": -81.8087304567286}, "transactions": ["delivery"], "price": "$$", "location": {"address1": "230 Nitro Market Pl", "address2": "", "address3": "", "city": "Charleston", "zip_code": "25313", "country": "US", "state": "WV", "display_address": ["230 Nitro Market Pl", "Charleston, WV 25313"]}, "phone": "+13047763750", "display_phone": "(304) 776-3750", "distance": 16095.062491083138}, {"id": "RceY0Nim8xHKgaQptMybOA", "alias": "kita-modern-japanese-charleston", "name": "Kita Modern Japanese", "image_url": "https://s3-media4.fl.yelpcdn.com/bphoto/xl9rF0jTifZAviZV8F60-w/o.jpg", "is_closed": false, "url": "https://www.yelp.com/biz/kita-modern-japanese-charleston?adjust_creative=vyhy616UjsMTA_hrWyg_5w&utm_campaign=yelp_api_v3&utm_medium=api_v3_business_search&utm_source=vyhy616UjsMTA_hrWyg_5w", "review_count": 7, "categories": [{"alias": "japanese", "title": "Japanese"}, {"alias": "sushi", "title": "Sushi Bars"}, {"alias": "seafood", "title": "Seafood"}], "rating": 3.5, "coordinates": {"latitude": 38.31822, "longitude": -81.71912}, "transactions": ["delivery", "pickup"], "price": "$$", "location": {"address1": "2815 Mountaineer Blvd", "address2": null, "address3": "", "city": "Charleston", "zip_code": "25309", "country": "US", "state": "WV", "display_address": ["2815 Mountaineer Blvd", "Charleston, WV 25309"]}, "phone": "+13042055200", "display_phone": "(304) 205-5200", "distance": 7846.2513653790975}, {"id": "hyB9QbZTUd1gXE214yRDGg", "alias": "asian-grill-restaurant-charleston", "name": "Asian Grill Restaurant", "image_url": "https://s3-media1.fl.yelpcdn.com/bphoto/ENNbuXLt4yvrV-QJW2lgmQ/o.jpg", "is_closed": false, "url": "https://www.yelp.com/biz/asian-grill-restaurant-charleston?adjust_creative=vyhy616UjsMTA_hrWyg_5w&utm_campaign=yelp_api_v3&utm_medium=api_v3_business_search&utm_source=vyhy616UjsMTA_hrWyg_5w", "review_count": 7, "categories": [{"alias": "chinese", "title": "Chinese"}], "rating": 3.5, "coordinates": {"latitude": 38.3418720960617, "longitude": -81.6775674372911}, "transactions": ["delivery"], "price": "$$", "location": {"address1": "1110 Fledderjohn Rd", "address2": null, "address3": null, "city": "Charleston", "zip_code": "25314", "country": "US", "state": "WV", "display_address": ["1110 Fledderjohn Rd", "Charleston, WV 25314"]}, "phone": "+13047208880", "display_phone": "(304) 720-8880", "distance": 3540.130254213305}, {"id": "BfEhaImC-E00gbmPTlVOog", "alias": "china-gourmet-charleston-2", "name": "China Gourmet", "image_url": "https://s3-media3.fl.yelpcdn.com/bphoto/2Anlt316dPbI57I58qW_2Q/o.jpg", "is_closed": false, "url": "https://www.yelp.com/biz/china-gourmet-charleston-2?adjust_creative=vyhy616UjsMTA_hrWyg_5w&utm_campaign=yelp_api_v3&utm_medium=api_v3_business_search&utm_source=vyhy616UjsMTA_hrWyg_5w", "review_count": 23, "categories": [{"alias": "buffets", "title": "Buffets"}, {"alias": "chinese", "title": "Chinese"}], "rating": 2.5, "coordinates": {"latitude": 38.337188, "longitude": -81.713106}, "transactions": ["delivery"], "price": "$$", "location": {"address1": "34 Rhl Blvd", "address2": "", "address3": "", "city": "Charleston", "zip_code": "25309", "country": "US", "state": "WV", "display_address": ["34 Rhl Blvd", "Charleston, WV 25309"]}, "phone": "+13047469990", "display_phone": "(304) 746-9990", "distance": 6572.81076206371}, {"id": "zw2FuzjnjSlMIelr42zH6g", "alias": "bridge-road-bistro-charleston", "name": "Bridge Road Bistro", "image_url": "https://s3-media2.fl.yelpcdn.com/bphoto/9Cax7_TPZETxIfWpBpqdtQ/o.jpg", "is_closed": false, "url": "https://www.yelp.com/biz/bridge-road-bistro-charleston?adjust_creative=vyhy616UjsMTA_hrWyg_5w&utm_campaign=yelp_api_v3&utm_medium=api_v3_business_search&utm_source=vyhy616UjsMTA_hrWyg_5w", "review_count": 68, "categories": [{"alias": "newamerican", "title": "American (New)"}, {"alias": "wine_bars", "title": "Wine Bars"}, {"alias": "burgers", "title": "Burgers"}], "rating": 3.5, "coordinates": {"latitude": 38.3414692145098, "longitude": -81.6426220115241}, "transactions": ["delivery"], "price": "$$$", "location": {"address1": "915 Bridge Rd", "address2": null, "address3": null, "city": "Charleston", "zip_code": "25314", "country": "US", "state": "WV", "display_address": ["915 Bridge Rd", "Charleston, WV 25314"]}, "phone": "+13047203500", "display_phone": "(304) 720-3500", "distance": 1174.433113583342}, {"id": "ux45JuQwSAGQAKo48-0Low", "alias": "dragon-china-buffet-saint-albans", "name": "Dragon China Buffet", "image_url": "https://s3-media2.fl.yelpcdn.com/bphoto/Aw5Fj-vpGrKvi1ScE8tjmQ/o.jpg", "is_closed": false, "url": "https://www.yelp.com/biz/dragon-china-buffet-saint-albans?adjust_creative=vyhy616UjsMTA_hrWyg_5w&utm_campaign=yelp_api_v3&utm_medium=api_v3_business_search&utm_source=vyhy616UjsMTA_hrWyg_5w", "review_count": 14, "categories": [{"alias": "chinese", "title": "Chinese"}], "rating": 3.0, "coordinates": {"latitude": 38.387118, "longitude": -81.824896}, "transactions": ["delivery"], "price": "$", "location": {"address1": "1453 MacCorkle Ave", "address2": "", "address3": "", "city": "Saint Albans", "zip_code": "25177", "country": "US", "state": "WV", "display_address": ["1453 MacCorkle Ave", "Saint Albans, WV 25177"]}, "phone": "+13047221850", "display_phone": "(304) 722-1850", "distance": 16581.79169786443}, {"id": "Etp0cDuS6bc84qDKJIlU_Q", "alias": "panera-bread-charleston", "name": "Panera Bread", "image_url": "https://s3-media2.fl.yelpcdn.com/bphoto/a0dJ8dmoVmc_bAihkWloZQ/o.jpg", "is_closed": false, "url": "https://www.yelp.com/biz/panera-bread-charleston?adjust_creative=vyhy616UjsMTA_hrWyg_5w&utm_campaign=yelp_api_v3&utm_medium=api_v3_business_search&utm_source=vyhy616UjsMTA_hrWyg_5w", "review_count": 28, "categories": [{"alias": "sandwiches", "title": "Sandwiches"}, {"alias": "salad", "title": "Salad"}, {"alias": "soup", "title": "Soup"}], "rating": 2.5, "coordinates": {"latitude": 38.3175939979742, "longitude": -81.7182344198227}, "transactions": ["delivery", "pickup"], "price": "$", "location": {"address1": "2830 Mountaineer Blvd", "address2": null, "address3": null, "city": "Charleston", "zip_code": "25309", "country": "US", "state": "WV", "display_address": ["2830 Mountaineer Blvd", "Charleston, WV 25309"]}, "phone": "+13047464090", "display_phone": "(304) 746-4090", "distance": 7807.557384010574}], "total": 22, "region": {"center": {"longitude": -81.64009094238281, "latitude": 38.35184294209208}}}